ACCELEROMETER X (m/s²),ACCELEROMETER Y (m/s²),ACCELEROMETER Z (m/s²),GRAVITY X (m/s²),GRAVITY Y (m/s²),GRAVITY Z (m/s²),LINEAR ACCELERATION X (m/s²),LINEAR ACCELERATION Y (m/s²),LINEAR ACCELERATION Z (m/s²),GYROSCOPE X (rad/s),GYROSCOPE Y (rad/s),GYROSCOPE Z (rad/s),LIGHT (lux),MAGNETIC FIELD X (μT),MAGNETIC FIELD Y (μT),MAGNETIC FIELD Z (μT),ORIENTATION Z (azimuth °),ORIENTATION X (pitch °),ORIENTATION Y (roll °),PROXIMITY (m),ATMOSPHERIC PRESSURE (hPa),SOUND LEVEL (dB),LOCATION Latitude : ,LOCATION Longitude : ,LOCATION Altitude ( m),LOCATION Altitude-google ( m),LOCATION Altitude-atmospheric pressure ( m),LOCATION Speed ( m/s),LOCATION Accuracy ( m),LOCATION ORIENTATION (°),Satellites in range,GPS NMEA,Time since start in ms ,YYYY-MO-DD HH-MI-SS_SSS
-0.277573,-0.067001,9.74118,-0.232534,-0.180784,9.802226,-0.04124,0.11116,0.035692,-0.044174,-0.064728,-0.010117,420.0,-18.9209,-5.6107,-54.2496,108.8994,1.0225,1.3981,8.0,937.8898,32.66893,36.04823,-115.13116,601.0,NaN,0.065956555,0.0,7.504,,8 / 13,"$GPVTG,,T,,M,0.0,N,0.0,K,A*23::$GPGSV,3,3,12,31,17,050,22,01,06,205,,06,09,309,,14,09,094,*7F::$GPGSA,A,3,03,04,07,09,16,22,23,26,,,,,1.4,1.1,0.9,1*28::$GPRMC,181247.00,A,3602.893661,N,11507.869367,W,0.0,,030220,12.3,E,A*30::$GPGGA,181247.00,3602.893661,N,11507.869367,W,1,08,1.1,619.0,M,-18.0,M,,*56::$GAGSV,1,1,0,*74::$GLGSV,1,1,0,*79::$GBGSV,1,1,0,*77::$PQGSV,1,1,0,*73",18,2020-02-03 10:12:47:082
-0.277573,-0.067001,9.74118,-0.232534,-0.180784,9.802226,-0.04124,0.11116,0.035692,0.01326,-0.054962,-0.016235,420.0,-18.9209,-5.6107,-54.2496,108.8994,1.0225,1.3981,8.0,937.8898,32.66893,36.04823,-115.13116,601.0,NaN,0.065956555,0.0,7.504,,8 / 13,"$GPVTG,,T,,M,0.0,N,0.0,K,A*23::$GPGSV,3,3,12,31,17,050,22,01,06,205,,06,09,309,,14,09,094,*7F::$GPGSA,A,3,03,04,07,09,16,22,23,26,,,,,1.4,1.1,0.9,1*28::$GPRMC,181247.00,A,3602.893661,N,11507.869367,W,0.0,,030220,12.3,E,A*30::$GPGGA,181247.00,3602.893661,N,11507.869367,W,1,08,1.1,619.0,M,-18.0,M,,*56::$GAGSV,1,1,0,*74::$GLGSV,1,1,0,*79::$GBGSV,1,1,0,*77::$PQGSV,1,1,0,*73",28,2020-02-03 10:12:47:092
-0.1651,-0.047852,9.789032,-0.220957,-0.177236,9.802559,0.044367,0.130473,0.126983,0.015701,-0.048859,-0.018677,420.0,-18.9529,-6.9656,-53.5065,108.8994,1.0225,1.3981,8.0,937.8898,32.66893,36.04823,-115.13116,601.0,NaN,0.065956555,0.0,7.504,,8 / 13,"$GPVTG,,T,,M,0.0,N,0.0,K,A*23::$GPGSV,3,3,12,31,17,050,22,01,06,205,,06,09,309,,14,09,094,*7F::$GPGSA,A,3,03,04,07,09,16,22,23,26,,,,,1.4,1.1,0.9,1*28::$GPRMC,181247.00,A,3602.893661,N,11507.869367,W,0.0,,030220,12.3,E,A*30::$GPGGA,181247.00,3602.893661,N,11507.869367,W,1,08,1.1,619.0,M,-18.0,M,,*56::$GAGSV,1,1,0,*74::$GLGSV,1,1,0,*79::$GBGSV,1,1,0,*77::$PQGSV,1,1,0,*73",38,2020-02-03 10:12:47:102
-0.1651,-0.047852,9.789032,-0.220957,-0.177236,9.802559,0.044367,0.130473,0.126983,0.015701,-0.048859,-0.018677,420.0,-18.9529,-6.9656,-53.5065,108.8994,1.0225,1.3981,8.0,937.8926,32.66893,36.04823,-115.13116,601.0,NaN,0.043342944,0.0,7.504,,8 / 13,"$GPVTG,,T,,M,0.0,N,0.0,K,A*23::$GPGSV,3,3,12,31,17,050,22,01,06,205,,06,09,309,,14,09,094,*7F::$GPGSA,A,3,03,04,07,09,16,22,23,26,,,,,1.4,1.1,0.9,1*28::$GPRMC,181247.00,A,3602.893661,N,11507.869367,W,0.0,,030220,12.3,E,A*30::$GPGGA,181247.00,3602.893661,N,11507.869367,W,1,08,1.1,619.0,M,-18.0,M,,*56::$GAGSV,1,1,0,*74::$GLGSV,1,1,0,*79::$GBGSV,1,1,0,*77::$PQGSV,1,1,0,*73",48,2020-02-03 10:12:47:112
-0.186645,-0.100494,9.712463,-0.215778,-0.170718,9.80279,0.033323,0.1181,0.052967,0.023041,-0.021973,-0.005234,420.0,-18.9697,-7.637,-54.2374,113.8695,0.9975,1.261,8.0,937.8926,32.66893,36.04823,-115.13116,601.0,NaN,0.043342944,0.0,7.504,,8 / 13,"$GPVTG,,T,,M,0.0,N,0.0,K,A*23::$GPGSV,3,3,12,31,17,050,22,01,06,205,,06,09,309,,14,09,094,*7F::$GPGSA,A,3,03,04,07,09,16,22,23,26,,,,,1.4,1.1,0.9,1*28::$GPRMC,181247.00,A,3602.893661,N,11507.869367,W,0.0,,030220,12.3,E,A*30::$GPGGA,181247.00,3602.893661,N,11507.869367,W,1,08,1.1,619.0,M,-18.0,M,,*56::$GAGSV,1,1,0,*74::$GLGSV,1,1,0,*79::$GBGSV,1,1,0,*77::$PQGSV,1,1,0,*73",58,2020-02-03 10:12:47:122
-0.241669,-0.145966,9.626328,-0.215778,-0.170718,9.80279,0.033323,0.1181,0.052967,0.010818,-0.04274,0.042404,420.0,-18.9697,-7.637,-54.2374,113.8695,0.9975,1.261,8.0,937.8926,32.66893,36.04823,-115.13116,601.0,NaN,0.043342944,0.0,7.504,,8 / 13,"$GPVTG,,T,,M,0.0,N,0.0,K,A*23::$GPGSV,3,3,12,31,17,050,22,01,06,205,,06,09,309,,14,09,094,*7F::$GPGSA,A,3,03,04,07,09,16,22,23,26,,,,,1.4,1.1,0.9,1*28::$GPRMC,181247.00,A,3602.893661,N,11507.869367,W,0.0,,030220,12.3,E,A*30::$GPGGA,181247.00,3602.893661,N,11507.869367,W,1,08,1.1,619.0,M,-18.0,M,,*56::$GAGSV,1,1,0,*74::$GLGSV,1,1,0,*79::$GBGSV,1,1,0,*77::$PQGSV,1,1,0,*73",68,2020-02-03 10:12:47:132
-0.241669,-0.145966,9.626328,-0.215778,-0.170718,9.80279,0.033323,0.1181,0.052967,0.010818,-0.04274,0.042404,420.0,-18.9697,-7.637,-54.2374,113.8695,0.9975,1.261,8.0,937.8926,32.66893,36.04823,-115.13116,601.0,NaN,0.043342944,0.0,7.504,,8 / 13,"$GPVTG,,T,,M,0.0,N,0.0,K,A*23::$GPGSV,3,3,12,31,17,050,22,01,06,205,,06,09,309,,14,09,094,*7F::$GPGSA,A,3,03,04,07,09,16,22,23,26,,,,,1.4,1.1,0.9,1*28::$GPRMC,181247.00,A,3602.893661,N,11507.869367,W,0.0,,030220,12.3,E,A*30::$GPGGA,181247.00,3602.893661,N,11507.869367,W,1,08,1.1,619.0,M,-18.0,M,,*56::$GAGSV,1,1,0,*74::$GLGSV,1,1,0,*79::$GBGSV,1,1,0,*77::$PQGSV,1,1,0,*73",78,2020-02-03 10:12:47:142
-0.232101,-0.136398,9.626328,-0.208828,-0.166045,9.80302,-0.041736,0.015367,-0.050673,0.012039,-0.058609,0.06073,420.0,-18.9377,-6.2912,-53.5095,113.8695,0.9975,1.261,8.0,937.8926,32.66893,36.04823,-115.13116,601.0,NaN,0.043342944,0.0,7.504,,8 / 13,"$GPVTG,,T,,M,0.0,N,0.0,K,A*23::$GPGSV,3,3,12,31,17,050,22,01,06,205,,06,09,309,,14,09,094,*7F::$GPGSA,A,3,03,04,07,09,16,22,23,26,,,,,1.4,1.1,0.9,1*28::$GPRMC,181247.00,A,3602.893661,N,11507.869367,W,0.0,,030220,12.3,E,A*30::$GPGGA,181247.00,3602.893661,N,11507.869367,W,1,08,1.1,619.0,M,-18.0,M,,*56::$GAGSV,1,1,0,*74::$GLGSV,1,1,0,*79::$GBGSV,1,1,0,*77::$PQGSV,1,1,0,*73",88,2020-02-03 10:12:47:152
-0.023926,0.1651,9.748352,-0.188556,-0.156597,9.803587,0.145235,0.295578,0.06891,0.008377,-0.068375,0.022858,420.0,-18.9377,-6.2912,-53.5095,113.8695,0.9975,1.261,8.0,937.8926,32.66893,36.04823,-115.13116,601.0,NaN,0.043342944,0.0,7.504,,8 / 13,"$GPVTG,,T,,M,0.0,N,0.0,K,A*23::$GPGSV,3,3,12,31,17,050,22,01,06,205,,06,09,309,,14,09,094,*7F::$GPGSA,A,3,03,04,07,09,16,22,23,26,,,,,1.4,1.1,0.9,1*28::$GPRMC,181247.00,A,3602.893661,N,11507.869367,W,0.0,,030220,12.3,E,A*30::$GPGGA,181247.00,3602.893661,N,11507.869367,W,1,08,1.1,619.0,M,-18.0,M,,*56::$GAGSV,1,1,0,*74::$GLGSV,1,1,0,*79::$GBGSV,1,1,0,*77::$PQGSV,1,1,0,*73",98,2020-02-03 10:12:47:162
-0.023926,0.1651,9.748352,-0.188556,-0.156597,9.803587,0.145235,0.295578,0.06891,0.008377,-0.068375,0.022858,420.0,-20.4102,-8.3511,-53.4988,112.8114,0.915,1.1019,8.0,937.8926,32.66893,36.04823,-115.13116,601.0,NaN,0.043342944,0.0,7.504,,8 / 13,"$GPVTG,,T,,M,0.0,N,0.0,K,A*23::$GPGSV,3,3,12,31,17,050,22,01,06,205,,06,09,309,,14,09,094,*7F::$GPGSA,A,3,03,04,07,09,16,22,23,26,,,,,1.4,1.1,0.9,1*28::$GPRMC,181247.00,A,3602.893661,N,11507.869367,W,0.0,,030220,12.3,E,A*30::$GPGGA,181247.00,3602.893661,N,11507.869367,W,1,08,1.1,619.0,M,-18.0,M,,*56::$GAGSV,1,1,0,*74::$GLGSV,1,1,0,*79::$GBGSV,1,1,0,*77::$PQGSV,1,1,0,*73",108,2020-02-03 10:12:47:172
0.090927,0.035889,9.712463,-0.177029,-0.147765,9.803939,0.279895,0.209161,0.043742,-0.016052,0.025665,-0.098083,420.0,-20.4102,-8.3511,-53.4988,112.8114,0.915,1.1019,8.0,937.8926,32.66893,36.04823,-115.13116,601.0,NaN,0.043342944,0.0,7.504,,8 / 13,"$GPVTG,,T,,M,0.0,N,0.0,K,A*23::$GPGSV,3,3,12,31,17,050,22,01,06,205,,06,09,309,,14,09,094,*7F::$GPGSA,A,3,03,04,07,09,16,22,23,26,,,,,1.4,1.1,0.9,1*28::$GPRMC,181247.00,A,3602.893661,N,11507.869367,W,0.0,,030220,12.3,E,A*30::$GPGGA,181247.00,3602.893661,N,11507.869367,W,1,08,1.1,619.0,M,-18.0,M,,*56::$GAGSV,1,1,0,*74::$GLGSV,1,1,0,*79::$GBGSV,1,1,0,*77::$PQGSV,1,1,0,*73",118,2020-02-03 10:12:47:182
-0.30867,-0.198608,9.552155,-0.186294,-0.155429,9.803649,-0.006512,-0.008233,-0.100467,-0.077133,0.102646,-0.132278,420.0,-18.9362,-6.2943,-52.7756,112.8114,0.915,1.1019,8.0,937.8926,32.66893,36.04823,-115.13116,603.0,NaN,0.043342944,0.0,7.504,,8 / 13,"$GPVTG,,T,,M,0.0,N,0.0,K,A*23::$GPGSV,3,3,12,31,17,050,22,01,06,205,,06,09,309,,14,09,094,*7F::$GPGSA,A,3,03,04,07,09,16,22,23,26,,,,,1.4,1.1,0.9,1*28::$GPRMC,181247.00,A,3602.893661,N,11507.869367,W,0.0,,030220,12.3,E,A*30::$GPGGA,181247.00,3602.893661,N,11507.869367,W,1,08,1.1,619.0,M,-18.0,M,,*56::$GAGSV,1,1,0,*74::$GLGSV,1,1,0,*79::$GBGSV,1,1,0,*77::$PQGSV,1,1,0,*73",128,2020-02-03 10:12:47:192
-0.641281,-0.289536,9.647858,-0.186294,-0.155429,9.803649,-0.006512,-0.008233,-0.100467,-0.09668,0.108734,-0.094406,420.0,-18.9362,-6.2943,-52.7756,112.8114,0.915,1.1019,8.0,937.8926,32.66893,36.04823,-115.13116,603.0,NaN,0.043342944,0.0,7.504,,8 / 13,"$GPVTG,,T,,M,0.0,N,0.0,K,A*23::$GPGSV,3,3,12,31,17,050,22,01,06,205,,06,09,309,,14,09,094,*7F::$GPGSA,A,3,03,04,07,09,16,22,23,26,,,,,1.4,1.1,0.9,1*28::$GPRMC,181248.00,A,3602.893816,N,11507.869101,W,0.0,,030220,12.3,E,A*33::$GPGGA,181248.00,3602.893816,N,11507.869101,W,1,08,1.1,621.0,M,-18.0,M,,*5E::$GAGSV,1,1,0,*74::$GLGSV,1,1,0,*79::$GBGSV,1,1,0,*77::$PQGSV,1,1,0,*73",138,2020-02-03 10:12:47:202
-0.641281,-0.289536,9.647858,-0.20837,-0.170888,9.802947,-0.413091,-0.101905,-0.028677,-0.074692,0.061096,-0.010117,420.0,-18.985,-8.3145,-54.2343,113.9149,0.9985,1.2177,8.0,937.8926,32.66893,36.04823,-115.13116,603.0,NaN,0.043342944,0.0,7.504,,8 / 13,"$GPVTG,,T,,M,0.0,N,0.0,K,A*23::$GPGSV,3,3,12,31,17,050,22,01,06,205,,06,09,309,,14,09,094,*7F::$GPGSA,A,3,03,04,07,09,16,22,23,26,,,,,1.4,1.1,0.9,1*28::$GPRMC,181248.00,A,3602.893816,N,11507.869101,W,0.0,,030220,12.3,E,A*33::$GPGGA,181248.00,3602.893816,N,11507.869101,W,1,08,1.1,621.0,M,-18.0,M,,*5E::$GAGSV,1,1,0,*74::$GLGSV,1,1,0,*79::$GBGSV,1,1,0,*77::$PQGSV,1,1,0,*73",148,2020-02-03 10:12:47:212
-0.605377,-0.263214,9.714859,-0.217866,-0.178662,9.802601,-0.437231,-0.103787,0.036008,-0.057587,0.031784,0.020416,420.0,-18.985,-8.3145,-54.2343,113.9149,0.9985,1.2177,8.0,937.8926,32.66893,36.04823,-115.13116,603.0,NaN,0.043342944,0.0,7.504,,8 / 13,"$GPVTG,,T,,M,0.0,N,0.0,K,A*23::$GPGSV,3,3,12,31,17,050,22,01,06,205,,06,09,309,,14,09,094,*7F::$GPGSA,A,3,03,04,07,09,16,22,23,26,,,,,1.4,1.1,0.9,1*28::$GPRMC,181248.00,A,3602.893816,N,11507.869101,W,0.0,,030220,12.3,E,A*33::$GPGGA,181248.00,3602.893816,N,11507.869101,W,1,08,1.1,621.0,M,-18.0,M,,*5E::$GAGSV,1,1,0,*74::$GLGSV,1,1,0,*79::$GBGSV,1,1,0,*77::$PQGSV,1,1,0,*73",158,2020-02-03 10:12:47:222
-0.605377,-0.263214,9.714859,-0.217866,-0.178662,9.802601,-0.437231,-0.103787,0.036008,0.036469,-0.080612,0.063171,420.0,-20.3629,-6.3232,-53.5095,113.9149,0.9985,1.2177,8.0,937.8926,32.66893,36.04823,-115.13116,603.0,NaN,0.043342944,0.0,7.504,,8 / 13,"$GPVTG,,T,,M,0.0,N,0.0,K,A*23::$GPGSV,3,3,12,31,17,050,22,01,06,205,,06,09,309,,14,09,094,*7F::$GPGSA,A,3,03,04,07,09,16,22,23,26,,,,,1.4,1.1,0.9,1*28::$GPRMC,181248.00,A,3602.893816,N,11507.869101,W,0.0,,030220,12.3,E,A*33::$GPGGA,181248.00,3602.893816,N,11507.869101,W,1,08,1.1,621.0,M,-18.0,M,,*5E::$GAGSV,1,1,0,*74::$GLGSV,1,1,0,*79::$GBGSV,1,1,0,*77::$PQGSV,1,1,0,*73",168,2020-02-03 10:12:47:232
-0.18425,0.011963,9.882355,-0.215142,-0.180196,9.802633,-0.153959,0.064023,0.148081,0.036469,-0.080612,0.063171,420.0,-20.3629,-6.3232,-53.5095,113.9149,0.9985,1.2177,8.0,937.8926,32.66893,36.04823,-115.13116,603.0,NaN,0.043342944,0.0,7.504,,8 / 13,"$GPVTG,,T,,M,0.0,N,0.0,K,A*23::$GPGSV,3,3,12,31,17,050,22,01,06,205,,06,09,309,,14,09,094,*7F::$GPGSA,A,3,03,04,07,09,16,22,23,26,,,,,1.4,1.1,0.9,1*28::$GPRMC,181248.00,A,3602.893816,N,11507.869101,W,0.0,,030220,12.3,E,A*33::$GPGGA,181248.00,3602.893816,N,11507.869101,W,1,08,1.1,621.0,M,-18.0,M,,*5E::$GAGSV,1,1,0,*74::$GLGSV,1,1,0,*79::$GBGSV,1,1,0,*77::$PQGSV,1,1,0,*73",178,2020-02-03 10:12:47:242
-0.078964,0.050247,9.755539,-0.197242,-0.165711,9.803265,0.116738,0.217265,0.10831,0.080444,-0.102585,0.044846,411.0,-18.2587,-7.6187,-54.9728,115.0349,0.9682,1.1526,8.0,937.8926,32.66893,36.04823,-115.13116,603.0,NaN,0.043342944,0.0,7.504,,8 / 13,"$GPVTG,,T,,M,0.0,N,0.0,K,A*23::$GPGSV,3,3,12,31,17,050,22,01,06,205,,06,09,309,,14,09,094,*7F::$GPGSA,A,3,03,04,07,09,16,22,23,26,,,,,1.4,1.1,0.9,1*28::$GPRMC,181248.00,A,3602.893816,N,11507.869101,W,0.0,,030220,12.3,E,A*33::$GPGGA,181248.00,3602.893816,N,11507.869101,W,1,08,1.1,621.0,M,-18.0,M,,*5E::$GAGSV,1,1,0,*74::$GLGSV,1,1,0,*79::$GBGSV,1,1,0,*77::$PQGSV,1,1,0,*73",188,2020-02-03 10:12:47:252
-0.078964,0.050247,9.755539,-0.190438,-0.154965,9.803576,0.120803,0.116933,0.01456,0.082886,-0.063492,0.021637,411.0,-18.2587,-7.6187,-54.9728,115.0349,0.9682,1.1526,8.0,937.8943,32.66893,36.04823,-115.13116,603.0,NaN,0.029209401,0.0,7.504,,8 / 13,"$GPVTG,,T,,M,0.0,N,0.0,K,A*23::$GPGSV,3,3,12,31,17,050,22,01,06,205,,06,09,309,,14,09,094,*7F::$GPGSA,A,3,03,04,07,09,16,22,23,26,,,,,1.4,1.1,0.9,1*28::$GPRMC,181248.00,A,3602.893816,N,11507.869101,W,0.0,,030220,12.3,E,A*33::$GPGGA,181248.00,3602.893816,N,11507.869101,W,1,08,1.1,621.0,M,-18.0,M,,*5E::$GAGSV,1,1,0,*74::$GLGSV,1,1,0,*79::$GBGSV,1,1,0,*77::$PQGSV,1,1,0,*73",198,2020-02-03 10:12:47:262
-0.026321,-0.028717,9.645462,-0.190438,-0.154965,9.803576,0.120803,0.116933,0.01456,0.036469,0.009796,-0.00647,411.0,-18.2404,-6.9565,-52.037,115.0349,0.9682,1.1526,8.0,937.8943,32.66893,36.04823,-115.13116,603.0,NaN,0.029209401,0.0,7.504,,8 / 13,"$GPVTG,,T,,M,0.0,N,0.0,K,A*23::$GPGSV,3,3,12,31,17,050,22,01,06,205,,06,09,309,,14,09,094,*7F::$GPGSA,A,3,03,04,07,09,16,22,23,26,,,,,1.4,1.1,0.9,1*28::$GPRMC,181248.00,A,3602.893816,N,11507.869101,W,0.0,,030220,12.3,E,A*33::$GPGGA,181248.00,3602.893816,N,11507.869101,W,1,08,1.1,621.0,M,-18.0,M,,*5E::$GAGSV,1,1,0,*74::$GLGSV,1,1,0,*79::$GBGSV,1,1,0,*77::$PQGSV,1,1,0,*73",208,2020-02-03 10:12:47:272
-0.014359,-0.04068,9.635895,-0.19336,-0.151084,9.803579,0.176325,0.111898,-0.041529,0.012039,0.040329,-0.017471,411.0,-18.2404,-6.9565,-52.037,115.0349,0.9682,1.1526,8.0,937.8943,32.66893,36.04823,-115.13116,603.0,NaN,0.029209401,0.0,7.504,,8 / 13,"$GPVTG,,T,,M,0.0,N,0.0,K,A*23::$GPGSV,3,3,12,31,17,050,22,01,06,205,,06,09,309,,14,09,094,*7F::$GPGSA,A,3,03,04,07,09,16,22,23,26,,,,,1.4,1.1,0.9,1*28::$GPRMC,181248.00,A,3602.893816,N,11507.869101,W,0.0,,030220,12.3,E,A*33::$GPGGA,181248.00,3602.893816,N,11507.869101,W,1,08,1.1,621.0,M,-18.0,M,,*5E::$GAGSV,1,1,0,*74::$GLGSV,1,1,0,*79::$GBGSV,1,1,0,*77::$PQGSV,1,1,0,*73",218,2020-02-03 10:12:47:282
-0.043076,0.004791,9.712463,-0.199578,-0.149083,9.803486,0.154946,0.149415,0.044649,0.012039,0.046432,-0.022354,411.0,-18.2571,-7.6294,-52.7679,114.7633,0.8711,1.1663,8.0,937.8943,32.66893,36.04823,-115.13116,603.0,NaN,0.029209401,0.0,7.504,,8 / 13,"$GPVTG,,T,,M,0.0,N,0.0,K,A*23::$GPGSV,3,3,12,31,17,050,22,01,06,205,,06,09,309,,14,09,094,*7F::$GPGSA,A,3,03,04,07,09,16,22,23,26,,,,,1.4,1.1,0.9,1*28::$GPRMC,181248.00,A,3602.893816,N,11507.869101,W,0.0,,030220,12.3,E,A*33::$GPGGA,181248.00,3602.893816,N,11507.869101,W,1,08,1.1,621.0,M,-18.0,M,,*5E::$GAGSV,1,1,0,*74::$GLGSV,1,1,0,*79::$GBGSV,1,1,0,*77::$PQGSV,1,1,0,*73",228,2020-02-03 10:12:47:292
-0.033493,0.009567,9.623932,-0.199578,-0.149083,9.803486,0.154946,0.149415,0.044649,0.031586,0.014679,-0.024796,411.0,-18.2571,-7.6294,-52.7679,114.7633,0.8711,1.1663,8.0,937.8943,32.66893,36.04823,-115.13116,603.0,NaN,0.029209401,0.0,7.504,,8 / 13,"$GPVTG,,T,,M,0.0,N,0.0,K,A*23::$GPGSV,3,3,12,31,17,050,22,01,06,205,,06,09,309,,14,09,094,*7F::$GPGSA,A,3,03,04,07,09,16,22,23,26,,,,,1.4,1.1,0.9,1*28::$GPRMC,181248.00,A,3602.893816,N,11507.869101,W,0.0,,030220,12.3,E,A*33::$GPGGA,181248.00,3602.893816,N,11507.869101,W,1,08,1.1,621.0,M,-18.0,M,,*5E::$GAGSV,1,1,0,*74::$GLGSV,1,1,0,*79::$GBGSV,1,1,0,*77::$PQGSV,1,1,0,*73",238,2020-02-03 10:12:47:302
-0.033493,0.009567,9.623932,-0.198034,-0.141788,9.803625,0.172555,0.149391,-0.036711,0.031586,0.014679,-0.024796,411.0,-18.2571,-7.6294,-52.7679,114.7633,0.8711,1.1663,8.0,937.8943,32.66893,36.04823,-115.13116,603.0,NaN,0.029209401,0.0,7.504,,8 / 13,"$GPVTG,,T,,M,0.0,N,0.0,K,A*23::$GPGSV,3,3,12,31,17,050,22,01,06,205,,06,09,309,,14,09,094,*7F::$GPGSA,A,3,03,04,07,09,16,22,23,26,,,,,1.4,1.1,0.9,1*28::$GPRMC,181248.00,A,3602.893816,N,11507.869101,W,0.0,,030220,12.3,E,A*33::$GPGGA,181248.00,3602.893816,N,11507.869101,W,1,08,1.1,621.0,M,-18.0,M,,*5E::$GAGSV,1,1,0,*74::$GLGSV,1,1,0,*79::$GBGSV,1,1,0,*77::$PQGSV,1,1,0,*73",247,2020-02-03 10:12:47:311
-0.071777,0.014359,9.533005,-0.196115,-0.138575,9.80371,0.172555,0.149391,-0.036711,0.043808,-0.019531,-0.032104,411.0,-18.9682,-7.6447,-52.7679,114.7633,0.8711,1.1663,8.0,937.8943,32.66893,36.04823,-115.13116,603.0,NaN,0.029209401,0.0,7.504,,8 / 13,"$GPVTG,,T,,M,0.0,N,0.0,K,A*23::$GPGSV,3,3,12,31,17,050,22,01,06,205,,06,09,309,,14,09,094,*7F::$GPGSA,A,3,03,04,07,09,16,22,23,26,,,,,1.4,1.1,0.9,1*28::$GPRMC,181248.00,A,3602.893816,N,11507.869101,W,0.0,,030220,12.3,E,A*33::$GPGGA,181248.00,3602.893816,N,11507.869101,W,1,08,1.1,621.0,M,-18.0,M,,*5E::$GAGSV,1,1,0,*74::$GLGSV,1,1,0,*79::$GBGSV,1,1,0,*77::$PQGSV,1,1,0,*73",258,2020-02-03 10:12:47:322
-0.071777,0.014359,9.533005,-0.196115,-0.138575,9.80371,0.172555,0.149391,-0.036711,0.043808,-0.019531,-0.032104,411.0,-18.9682,-7.6447,-52.7679,114.7633,0.8711,1.1663,8.0,937.8943,32.66893,36.04823,-115.13116,603.0,NaN,0.029209401,0.0,7.504,,8 / 13,"$GPVTG,,T,,M,0.0,N,0.0,K,A*23::$GPGSV,3,3,12,31,17,050,22,01,06,205,,06,09,309,,14,09,094,*7F::$GPGSA,A,3,03,04,07,09,16,22,23,26,,,,,1.4,1.1,0.9,1*28::$GPRMC,181248.00,A,3602.893816,N,11507.869101,W,0.0,,030220,12.3,E,A*33::$GPGGA,181248.00,3602.893816,N,11507.869101,W,1,08,1.1,621.0,M,-18.0,M,,*5E::$GAGSV,1,1,0,*74::$GLGSV,1,1,0,*79::$GBGSV,1,1,0,*77::$PQGSV,1,1,0,*73",268,2020-02-03 10:12:47:332
-0.107681,-0.002396,9.480362,-0.1916,-0.132463,9.803884,0.074007,0.128183,-0.180512,0.041351,-0.029297,-0.03334,411.0,-17.5461,-7.6096,-53.5004,114.6031,0.7739,1.1196,8.0,937.8943,33.42537,36.04823,-115.13116,603.0,NaN,0.029209401,0.0,7.504,,8 / 13,"$GPVTG,,T,,M,0.0,N,0.0,K,A*23::$GPGSV,3,3,12,31,17,050,22,01,06,205,,06,09,309,,14,09,094,*7F::$GPGSA,A,3,03,04,07,09,16,22,23,26,,,,,1.4,1.1,0.9,1*28::$GPRMC,181248.00,A,3602.893816,N,11507.869101,W,0.0,,030220,12.3,E,A*33::$GPGGA,181248.00,3602.893816,N,11507.869101,W,1,08,1.1,621.0,M,-18.0,M,,*5E::$GAGSV,1,1,0,*74::$GLGSV,1,1,0,*79::$GBGSV,1,1,0,*77::$PQGSV,1,1,0,*73",280,2020-02-03 10:12:47:344
-0.20578,-0.110077,9.51387,-0.184167,-0.130751,9.804049,-0.036233,0.021195,-0.162721,-0.022171,-0.004883,-0.032104,411.0,-18.2419,-6.9458,-54.2419,114.6031,0.7739,1.1196,8.0,937.8943,33.42537,36.04823,-115.13116,603.0,NaN,0.029209401,0.0,7.504,,8 / 13,"$GPVTG,,T,,M,0.0,N,0.0,K,A*23::$GPGSV,3,3,12,31,17,050,22,01,06,205,,06,09,309,,14,09,094,*7F::$GPGSA,A,3,03,04,07,09,16,22,23,26,,,,,1.4,1.1,0.9,1*28::$GPRMC,181248.00,A,3602.893816,N,11507.869101,W,0.0,,030220,12.3,E,A*33::$GPGGA,181248.00,3602.893816,N,11507.869101,W,1,08,1.1,621.0,M,-18.0,M,,*5E::$GAGSV,1,1,0,*74::$GLGSV,1,1,0,*79::$GBGSV,1,1,0,*77::$PQGSV,1,1,0,*73",287,2020-02-03 10:12:47:351
-0.20578,-0.110077,9.51387,-0.184167,-0.130751,9.804049,-0.036233,0.021195,-0.162721,-0.022171,-0.004883,-0.032104,411.0,-18.2419,-6.9458,-54.2419,114.6031,0.7739,1.1196,8.0,937.8943,33.42537,36.04823,-115.13116,603.0,NaN,0.029209401,0.0,7.504,,8 / 13,"$GPVTG,,T,,M,0.0,N,0.0,K,A*23::$GPGSV,3,3,12,31,17,050,22,01,06,205,,06,09,309,,14,09,094,*7F::$GPGSA,A,3,03,04,07,09,16,22,23,26,,,,,1.4,1.1,0.9,1*28::$GPRMC,181248.00,A,3602.893816,N,11507.869101,W,0.0,,030220,12.3,E,A*33::$GPGGA,181248.00,3602.893816,N,11507.869101,W,1,08,1.1,621.0,M,-18.0,M,,*5E::$GAGSV,1,1,0,*74::$GLGSV,1,1,0,*79::$GBGSV,1,1,0,*77::$PQGSV,1,1,0,*73",298,2020-02-03 10:12:47:362
-0.217743,-0.059814,9.705292,-0.187955,-0.138199,9.803875,-0.024127,0.077589,0.027943,-0.047821,0.033005,-0.040665,411.0,-18.9697,-7.637,-54.2374,113.608,0.8075,1.0983,8.0,937.8943,33.42537,36.04823,-115.13116,603.0,NaN,0.029209401,0.0,7.504,,8 / 13,"$GPVTG,,T,,M,0.0,N,0.0,K,A*23::$GPGSV,3,3,12,31,17,050,22,01,06,205,,06,09,309,,14,09,094,*7F::$GPGSA,A,3,03,04,07,09,16,22,23,26,,,,,1.4,1.1,0.9,1*28::$GPRMC,181248.00,A,3602.893816,N,11507.869101,W,0.0,,030220,12.3,E,A*33::$GPGGA,181248.00,3602.893816,N,11507.869101,W,1,08,1.1,621.0,M,-18.0,M,,*5E::$GAGSV,1,1,0,*74::$GLGSV,1,1,0,*79::$GBGSV,1,1,0,*77::$PQGSV,1,1,0,*73",308,2020-02-03 10:12:47:372
-0.217743,-0.059814,9.705292,-0.187955,-0.138199,9.803875,-0.024127,0.077589,0.027943,-0.047821,0.033005,-0.040665,411.0,-18.9697,-7.637,-54.2374,113.608,0.8075,1.0983,8.0,937.8943,33.42537,36.04823,-115.13116,603.0,NaN,0.029209401,0.0,7.504,,8 / 13,"$GPVTG,,T,,M,0.0,N,0.0,K,A*23::$GPGSV,3,3,12,31,17,050,22,01,06,205,,06,09,309,,14,09,094,*7F::$GPGSA,A,3,03,04,07,09,16,22,23,26,,,,,1.4,1.1,0.9,1*28::$GPRMC,181248.00,A,3602.893816,N,11507.869101,W,0.0,,030220,12.3,E,A*33::$GPGGA,181248.00,3602.893816,N,11507.869101,W,1,08,1.1,621.0,M,-18.0,M,,*5E::$GAGSV,1,1,0,*74::$GLGSV,1,1,0,*79::$GBGSV,1,1,0,*77::$PQGSV,1,1,0,*73",317,2020-02-03 10:12:47:381
-0.301498,-0.100494,9.643082,-0.193542,-0.143684,9.803688,-0.114322,0.065051,-0.007838,-0.039261,0.035446,-0.032104,411.0,-18.9682,-7.6447,-52.7679,113.608,0.8075,1.0983,8.0,937.8943,33.42537,36.04823,-115.13116,603.0,NaN,0.029209401,0.0,7.504,,8 / 13,"$GPVTG,,T,,M,0.0,N,0.0,K,A*23::$GPGSV,3,3,12,31,17,050,22,01,06,205,,06,09,309,,14,09,094,*7F::$GPGSA,A,3,03,04,07,09,16,22,23,26,,,,,1.4,1.1,0.9,1*28::$GPRMC,181248.00,A,3602.893816,N,11507.869101,W,0.0,,030220,12.3,E,A*33::$GPGGA,181248.00,3602.893816,N,11507.869101,W,1,08,1.1,621.0,M,-18.0,M,,*5E::$GAGSV,1,1,0,*74::$GLGSV,1,1,0,*79::$GBGSV,1,1,0,*77::$PQGSV,1,1,0,*73",328,2020-02-03 10:12:47:392
-0.306274,-0.112457,9.714859,-0.19782,-0.149763,9.803512,-0.128048,0.041123,0.04847,-0.024612,0.006119,-0.00647,411.0,-18.9682,-7.6447,-52.7679,113.608,0.8075,1.0983,8.0,937.8943,33.42537,36.04823,-115.13116,603.0,NaN,0.029209401,0.0,7.504,,8 / 13,"$GPVTG,,T,,M,0.0,N,0.0,K,A*23::$GPGSV,3,3,12,31,17,050,22,01,06,205,,06,09,309,,14,09,094,*7F::$GPGSA,A,3,03,04,07,09,16,22,23,26,,,,,1.4,1.1,0.9,1*28::$GPRMC,181248.00,A,3602.893816,N,11507.869101,W,0.0,,030220,12.3,E,A*33::$GPGGA,181248.00,3602.893816,N,11507.869101,W,1,08,1.1,621.0,M,-18.0,M,,*5E::$GAGSV,1,1,0,*74::$GLGSV,1,1,0,*79::$GBGSV,1,1,0,*77::$PQGSV,1,1,0,*73",338,2020-02-03 10:12:47:402
-0.169891,-0.08136,9.734009,-0.19782,-0.149763,9.803512,-0.128048,0.041123,0.04847,-0.018494,-0.004883,-3.51E-4,411.0,-18.9682,-7.6447,-52.7679,113.608,0.8075,1.0983,8.0,937.8943,33.42537,36.04823,-115.13116,603.0,NaN,0.029209401,0.0,7.504,,8 / 13,"$GPVTG,,T,,M,0.0,N,0.0,K,A*23::$GPGSV,3,3,12,31,17,050,22,01,06,205,,06,09,309,,14,09,094,*7F::$GPGSA,A,3,03,04,07,09,16,22,23,26,,,,,1.4,1.1,0.9,1*28::$GPRMC,181248.00,A,3602.893816,N,11507.869101,W,0.0,,030220,12.3,E,A*33::$GPGGA,181248.00,3602.893816,N,11507.869101,W,1,08,1.1,621.0,M,-18.0,M,,*5E::$GAGSV,1,1,0,*74::$GLGSV,1,1,0,*79::$GBGSV,1,1,0,*77::$PQGSV,1,1,0,*73",348,2020-02-03 10:12:47:412
-0.157928,-0.064606,9.769897,-0.196679,-0.149803,9.803533,0.009629,0.053142,0.068865,0.008377,-0.015869,0.017975,411.0,-19.6823,-7.6584,-53.5019,112.7002,0.8753,1.1493,8.0,937.887,33.42537,36.04823,-115.13116,603.0,NaN,0.09045457,0.0,7.504,,8 / 13,"$GPVTG,,T,,M,0.0,N,0.0,K,A*23::$GPGSV,3,3,12,31,17,050,22,01,06,205,,06,09,309,,14,09,094,*7F::$GPGSA,A,3,03,04,07,09,16,22,23,26,,,,,1.4,1.1,0.9,1*28::$GPRMC,181248.00,A,3602.893816,N,11507.869101,W,0.0,,030220,12.3,E,A*33::$GPGGA,181248.00,3602.893816,N,11507.869101,W,1,08,1.1,621.0,M,-18.0,M,,*5E::$GAGSV,1,1,0,*74::$GLGSV,1,1,0,*79::$GBGSV,1,1,0,*77::$PQGSV,1,1,0,*73",358,2020-02-03 10:12:47:422
-0.157928,-0.064606,9.769897,-0.196679,-0.149803,9.803533,0.009629,0.053142,0.068865,0.008377,-0.015869,0.017975,411.0,-19.6823,-7.6584,-53.5019,112.7002,0.8753,1.1493,8.0,937.887,33.42537,36.04823,-115.13116,603.0,NaN,0.09045457,0.0,7.504,,8 / 13,"$GPVTG,,T,,M,0.0,N,0.0,K,A*23::$GPGSV,3,3,12,31,17,050,22,01,06,205,,06,09,309,,14,09,094,*7F::$GPGSA,A,3,03,04,07,09,16,22,23,26,,,,,1.4,1.1,0.9,1*28::$GPRMC,181248.00,A,3602.893816,N,11507.869101,W,0.0,,030220,12.3,E,A*33::$GPGGA,181248.00,3602.893816,N,11507.869101,W,1,08,1.1,621.0,M,-18.0,M,,*5E::$GAGSV,1,1,0,*74::$GLGSV,1,1,0,*79::$GBGSV,1,1,0,*77::$PQGSV,1,1,0,*73",368,2020-02-03 10:12:47:432
-0.193817,0.045471,9.796219,-0.192708,-0.139839,9.803759,-1.79E-4,0.17261,0.132373,0.040131,-0.013412,0.010651,411.0,-17.514,-6.2592,-53.508,112.7002,0.8753,1.1493,8.0,937.887,33.42537,36.04823,-115.13116,603.0,NaN,0.09045457,0.0,7.504,,8 / 13,"$GPVTG,,T,,M,0.0,N,0.0,K,A*23::$GPGSV,3,3,12,31,17,050,22,01,06,205,,06,09,309,,14,09,094,*7F::$GPGSA,A,3,03,04,07,09,16,22,23,26,,,,,1.4,1.1,0.9,1*28::$GPRMC,181248.00,A,3602.893816,N,11507.869101,W,0.0,,030220,12.3,E,A*33::$GPGGA,181248.00,3602.893816,N,11507.869101,W,1,08,1.1,621.0,M,-18.0,M,,*5E::$GAGSV,1,1,0,*74::$GLGSV,1,1,0,*79::$GBGSV,1,1,0,*77::$PQGSV,1,1,0,*73",378,2020-02-03 10:12:47:442
-0.251251,-0.011963,9.63829,-0.193169,-0.128811,9.803902,-0.041559,0.145004,0.031108,0.041351,0.007355,-0.016235,411.0,-19.664,-6.9885,-52.037,112.7002,0.8753,1.1493,8.0,937.887,33.42537,36.04823,-115.13116,603.0,NaN,0.09045457,0.0,7.504,,8 / 13,"$GPVTG,,T,,M,0.0,N,0.0,K,A*23::$GPGSV,3,3,12,31,17,050,22,01,06,205,,06,09,309,,14,09,094,*7F::$GPGSA,A,3,03,04,07,09,16,22,23,26,,,,,1.4,1.1,0.9,1*28::$GPRMC,181248.00,A,3602.893816,N,11507.869101,W,0.0,,030220,12.3,E,A*33::$GPGGA,181248.00,3602.893816,N,11507.869101,W,1,08,1.1,621.0,M,-18.0,M,,*5E::$GAGSV,1,1,0,*74::$GLGSV,1,1,0,*79::$GBGSV,1,1,0,*77::$PQGSV,1,1,0,*73",388,2020-02-03 10:12:47:452
-0.251251,-0.011963,9.63829,-0.200379,-0.121519,9.803849,-0.041559,0.145004,0.031108,0.002274,0.014679,-0.026001,392.0,-19.664,-6.9885,-52.037,112.7002,0.8753,1.1493,8.0,937.887,33.42537,36.04823,-115.13116,603.0,NaN,0.09045457,0.0,7.504,,8 / 13,"$GPVTG,,T,,M,0.0,N,0.0,K,A*23::$GPGSV,3,3,12,31,17,050,22,01,06,205,,06,09,309,,14,09,094,*7F::$GPGSA,A,3,03,04,07,09,16,22,23,26,,,,,1.4,1.1,0.9,1*28::$GPRMC,181248.00,A,3602.893816,N,11507.869101,W,0.0,,030220,12.3,E,A*33::$GPGGA,181248.00,3602.893816,N,11507.869101,W,1,08,1.1,621.0,M,-18.0,M,,*5E::$GAGSV,1,1,0,*74::$GLGSV,1,1,0,*79::$GBGSV,1,1,0,*77::$PQGSV,1,1,0,*73",398,2020-02-03 10:12:47:462
-0.483353,0.033493,9.707687,-0.200379,-0.121519,9.803849,-0.230693,0.131825,-0.013879,0.004715,0.009796,-0.024796,392.0,-18.2739,-8.2993,-54.2343,114.3996,0.71,1.1709,8.0,937.887,33.42537,36.04823,-115.13116,603.0,NaN,0.09045457,0.0,7.504,,8 / 13,"$GPVTG,,T,,M,0.0,N,0.0,K,A*23::$GPGSV,3,3,12,31,17,050,22,01,06,205,,06,09,309,,14,09,094,*7F::$GPGSA,A,3,03,04,07,09,16,22,23,26,,,,,1.4,1.1,0.9,1*28::$GPRMC,181248.00,A,3602.893816,N,11507.869101,W,0.0,,030220,12.3,E,A*33::$GPGGA,181248.00,3602.893816,N,11507.869101,W,1,08,1.1,621.0,M,-18.0,M,,*5E::$GAGSV,1,1,0,*74::$GLGSV,1,1,0,*79::$GBGSV,1,1,0,*77::$PQGSV,1,1,0,*73",407,2020-02-03 10:12:47:471
-0.483353,0.033493,9.707687,-0.200379,-0.121519,9.803849,-0.230693,0.131825,-0.013879,0.004715,0.009796,-0.024796,392.0,-18.2739,-8.2993,-54.2343,114.3996,0.71,1.1709,8.0,937.887,33.42537,36.04823,-115.13116,603.0,NaN,0.09045457,0.0,7.504,,8 / 13,"$GPVTG,,T,,M,0.0,N,0.0,K,A*23::$GPGSV,3,3,12,31,17,050,22,01,06,205,,06,09,309,,14,09,094,*7F::$GPGSA,A,3,03,04,07,09,16,22,23,26,,,,,1.4,1.1,0.9,1*28::$GPRMC,181248.00,A,3602.893816,N,11507.869101,W,0.0,,030220,12.3,E,A*33::$GPGGA,181248.00,3602.893816,N,11507.869101,W,1,08,1.1,621.0,M,-18.0,M,,*5E::$GAGSV,1,1,0,*74::$GLGSV,1,1,0,*79::$GBGSV,1,1,0,*77::$PQGSV,1,1,0,*73",417,2020-02-03 10:12:47:481
-0.61496,0.114853,9.829712,-0.206783,-0.118162,9.803758,-0.402436,0.225156,0.152455,0.014481,0.007355,-0.021118,392.0,-18.2739,-6.311,-52.7756,114.3996,0.71,1.1709,8.0,937.887,33.42537,36.04823,-115.13116,603.0,NaN,0.09045457,0.0,7.504,,8 / 13,"$GPVTG,,T,,M,0.0,N,0.0,K,A*23::$GPGSV,3,3,12,31,17,050,22,01,06,205,,06,09,309,,14,09,094,*7F::$GPGSA,A,3,03,04,07,09,16,22,23,26,,,,,1.4,1.1,0.9,1*28::$GPRMC,181248.00,A,3602.893816,N,11507.869101,W,0.0,,030220,12.3,E,A*33::$GPGGA,181248.00,3602.893816,N,11507.869101,W,1,08,1.1,621.0,M,-18.0,M,,*5E::$GAGSV,1,1,0,*74::$GLGSV,1,1,0,*79::$GBGSV,1,1,0,*77::$PQGSV,1,1,0,*73",428,2020-02-03 10:12:47:492
-0.61496,0.114853,9.829712,-0.206783,-0.118162,9.803758,-0.402436,0.225156,0.152455,0.014481,0.007355,-0.021118,392.0,-19.6487,-6.311,-52.7756,114.3996,0.71,1.1709,8.0,937.887,33.42537,36.04823,-115.13116,603.0,NaN,0.09045457,0.0,7.504,,8 / 13,"$GPVTG,,T,,M,0.0,N,0.0,K,A*23::$GPGSV,3,3,12,31,17,050,22,01,06,205,,06,09,309,,14,09,094,*7F::$GPGSA,A,3,03,04,07,09,16,22,23,26,,,,,1.4,1.1,0.9,1*28::$GPRMC,181248.00,A,3602.893816,N,11507.869101,W,0.0,,030220,12.3,E,A*33::$GPGGA,181248.00,3602.893816,N,11507.869101,W,1,08,1.1,621.0,M,-18.0,M,,*5E::$GAGSV,1,1,0,*74::$GLGSV,1,1,0,*79::$GBGSV,1,1,0,*77::$PQGSV,1,1,0,*73",438,2020-02-03 10:12:47:502
-0.358917,0.141174,9.913467,-0.22243,-0.097395,9.803644,-0.165656,0.233736,0.228148,0.074341,0.012238,-0.021118,392.0,-19.6487,-6.311,-52.7756,114.3996,0.71,1.1709,8.0,937.887,33.42537,36.04823,-115.13116,603.0,NaN,0.09045457,0.0,7.504,,8 / 13,"$GPVTG,,T,,M,0.0,N,0.0,K,A*23::$GPGSV,3,3,12,31,17,050,22,01,06,205,,06,09,309,,14,09,094,*7F::$GPGSA,A,3,03,04,07,09,16,22,23,26,,,,,1.4,1.1,0.9,1*28::$GPRMC,181248.00,A,3602.893816,N,11507.869101,W,0.0,,030220,12.3,E,A*33::$GPGGA,181248.00,3602.893816,N,11507.869101,W,1,08,1.1,621.0,M,-18.0,M,,*5E::$GAGSV,1,1,0,*74::$GLGSV,1,1,0,*79::$GBGSV,1,1,0,*77::$PQGSV,1,1,0,*73",448,2020-02-03 10:12:47:512
-0.401993,0.203384,10.083359,-0.229552,-0.074201,9.803682,-0.112971,0.292264,0.394334,0.145218,0.052551,-0.067535,392.0,-18.9682,-7.6447,-52.7679,112.8757,0.569,1.2997,8.0,937.887,33.42537,36.04823,-115.13116,603.0,NaN,0.09045457,0.0,7.504,,8 / 13,"$GPVTG,,T,,M,0.0,N,0.0,K,A*23::$GPGSV,3,3,12,31,17,050,22,01,06,205,,06,09,309,,14,09,094,*7F::$GPGSA,A,3,03,04,07,09,16,22,23,26,,,,,1.4,1.1,0.9,1*28::$GPRMC,181248.00,A,3602.893816,N,11507.869101,W,0.0,,030220,12.3,E,A*33::$GPGGA,181248.00,3602.893816,N,11507.869101,W,1,08,1.1,621.0,M,-18.0,M,,*5E::$GAGSV,1,1,0,*74::$GLGSV,1,1,0,*79::$GBGSV,1,1,0,*77::$PQGSV,1,1,0,*73",458,2020-02-03 10:12:47:522
-0.449844,-0.172287,9.676575,-0.243726,-0.045796,9.803514,-0.211286,-1.94E-4,0.082076,0.189194,0.068436,-0.047989,392.0,-18.9682,-7.6447,-52.7679,112.8757,0.569,1.2997,8.0,937.887,33.42537,36.04823,-115.13116,603.0,NaN,0.09045457,0.0,7.504,,8 / 13,"$GPVTG,,T,,M,0.0,N,0.0,K,A*23::$GPGSV,3,3,12,31,17,050,22,01,06,205,,06,09,309,,14,09,094,*7F::$GPGSA,A,3,03,04,07,09,16,22,23,26,,,,,1.4,1.1,0.9,1*28::$GPRMC,181248.00,A,3602.893816,N,11507.869101,W,0.0,,030220,12.3,E,A*33::$GPGGA,181248.00,3602.893816,N,11507.869101,W,1,08,1.1,621.0,M,-18.0,M,,*5E::$GAGSV,1,1,0,*74::$GLGSV,1,1,0,*79::$GBGSV,1,1,0,*77::$PQGSV,1,1,0,*73",468,2020-02-03 10:12:47:532
-0.337387,-0.485748,9.188446,-0.251758,-0.025979,9.803384,-0.117228,-0.445709,-0.4106,0.156189,0.036667,0.006973,392.0,-17.5278,-6.9366,-52.771,112.8757,0.569,1.2997,8.0,937.887,33.42537,36.04823,-115.13116,603.0,NaN,0.09045457,0.0,7.504,,8 / 13,"$GPVTG,,T,,M,0.0,N,0.0,K,A*23::$GPGSV,3,3,12,31,17,050,22,01,06,205,,06,09,309,,14,09,094,*7F::$GPGSA,A,3,03,04,07,09,16,22,23,26,,,,,1.4,1.1,0.9,1*28::$GPRMC,181248.00,A,3602.893816,N,11507.869101,W,0.0,,030220,12.3,E,A*33::$GPGGA,181248.00,3602.893816,N,11507.869101,W,1,08,1.1,621.0,M,-18.0,M,,*5E::$GAGSV,1,1,0,*74::$GLGSV,1,1,0,*79::$GBGSV,1,1,0,*77::$PQGSV,1,1,0,*73",478,2020-02-03 10:12:47:542
-0.337387,-0.485748,9.188446,-0.251758,-0.025979,9.803384,-0.117228,-0.445709,-0.4106,0.064575,-0.026855,0.101044,392.0,-18.9377,-6.2836,-54.9805,106.7575,0.1518,1.4711,8.0,937.887,33.42537,36.04823,-115.13116,603.0,NaN,0.09045457,0.0,7.504,,8 / 13,"$GPVTG,,T,,M,0.0,N,0.0,K,A*23::$GPGSV,3,3,12,31,17,050,22,01,06,205,,06,09,309,,14,09,094,*7F::$GPGSA,A,3,03,04,07,09,16,22,23,26,,,,,1.4,1.1,0.9,1*28::$GPRMC,181248.00,A,3602.893816,N,11507.869101,W,0.0,,030220,12.3,E,A*33::$GPGGA,181248.00,3602.893816,N,11507.869101,W,1,08,1.1,621.0,M,-18.0,M,,*5E::$GAGSV,1,1,0,*74::$GLGSV,1,1,0,*79::$GBGSV,1,1,0,*77::$PQGSV,1,1,0,*73",487,2020-02-03 10:12:47:551
-0.282349,-0.354141,9.121445,-0.248803,-0.016773,9.803479,-0.037652,-0.350732,-0.568908,0.020584,-0.089157,0.156036,392.0,-18.9377,-6.2836,-54.9805,106.7575,0.1518,1.4711,8.0,937.887,33.42537,36.04823,-115.13116,603.0,NaN,0.09045457,0.0,7.504,,8 / 13,"$GPVTG,,T,,M,0.0,N,0.0,K,A*23::$GPGSV,3,3,12,31,17,050,22,01,06,205,,06,09,309,,14,09,094,*7F::$GPGSA,A,3,03,04,07,09,16,22,23,26,,,,,1.4,1.1,0.9,1*28::$GPRMC,181248.00,A,3602.893816,N,11507.869101,W,0.0,,030220,12.3,E,A*33::$GPGGA,181248.00,3602.893816,N,11507.869101,W,1,08,1.1,621.0,M,-18.0,M,,*5E::$GAGSV,1,1,0,*74::$GLGSV,1,1,0,*79::$GBGSV,1,1,0,*77::$PQGSV,1,1,0,*73",498,2020-02-03 10:12:47:562
-0.050247,-0.055038,9.298508,-0.23202,-0.015037,9.803894,0.153889,-0.128712,-0.466823,0.020584,-0.089157,0.156036,392.0,-18.2907,-8.9722,-54.9667,106.7575,0.1518,1.4711,8.0,937.8892,33.42537,36.04823,-115.13116,603.0,NaN,0.07160995,0.0,7.504,,8 / 13,"$GPVTG,,T,,M,0.0,N,0.0,K,A*23::$GPGSV,3,3,12,31,17,050,22,01,06,205,,06,09,309,,14,09,094,*7F::$GPGSA,A,3,03,04,07,09,16,22,23,26,,,,,1.4,1.1,0.9,1*28::$GPRMC,181248.00,A,3602.893816,N,11507.869101,W,0.0,,030220,12.3,E,A*33::$GPGGA,181248.00,3602.893816,N,11507.869101,W,1,08,1.1,621.0,M,-18.0,M,,*5E::$GAGSV,1,1,0,*74::$GLGSV,1,1,0,*79::$GBGSV,1,1,0,*77::$PQGSV,1,1,0,*73",507,2020-02-03 10:12:47:571
-0.069397,0.14357,9.487549,-0.213771,-0.014785,9.804309,0.13703,0.130667,-0.233172,-0.003845,-0.18811,0.174362,392.0,-18.2907,-8.9722,-54.9667,106.7575,0.1518,1.4711,8.0,937.8892,33.42537,36.04823,-115.13116,603.0,NaN,0.07160995,0.0,7.504,,8 / 13,"$GPVTG,,T,,M,0.0,N,0.0,K,A*23::$GPGSV,3,3,12,31,17,050,22,01,06,205,,06,09,309,,14,09,094,*7F::$GPGSA,A,3,03,04,07,09,16,22,23,26,,,,,1.4,1.1,0.9,1*28::$GPRMC,181248.00,A,3602.893816,N,11507.869101,W,0.0,,030220,12.3,E,A*33::$GPGGA,181248.00,3602.893816,N,11507.869101,W,1,08,1.1,621.0,M,-18.0,M,,*5E::$GAGSV,1,1,0,*74::$GLGSV,1,1,0,*79::$GBGSV,1,1,0,*77::$PQGSV,1,1,0,*73",518,2020-02-03 10:12:47:582
-0.069397,0.14357,9.487549,-0.213771,-0.014785,9.804309,0.13703,0.130667,-0.233172,0.00592,-0.217438,0.138916,392.0,-19.6976,-8.3359,-53.4988,110.9061,0.0864,1.2491,8.0,937.8892,33.42537,36.04823,-115.13116,603.0,NaN,0.07160995,0.0,7.504,,8 / 13,"$GPVTG,,T,,M,0.0,N,0.0,K,A*23::$GPGSV,3,3,12,31,17,050,22,01,06,205,,06,09,309,,14,09,094,*7F::$GPGSA,A,3,03,04,07,09,16,22,23,26,,,,,1.4,1.1,0.9,1*28::$GPRMC,181248.00,A,3602.893816,N,11507.869101,W,0.0,,030220,12.3,E,A*33::$GPGGA,181248.00,3602.893816,N,11507.869101,W,1,08,1.1,621.0,M,-18.0,M,,*5E::$GAGSV,1,1,0,*74::$GLGSV,1,1,0,*79::$GBGSV,1,1,0,*77::$PQGSV,1,1,0,*73",527,2020-02-03 10:12:47:591
0.028717,0.344574,9.817749,-0.182289,-0.011784,9.804949,0.193281,0.363389,0.087996,0.016922,-0.2211,0.079056,392.0,-19.6976,-8.3359,-53.4988,110.9061,0.0864,1.2491,8.0,937.8892,33.42537,36.04823,-115.13116,603.0,NaN,0.07160995,0.0,7.504,,8 / 13,"$GPVTG,,T,,M,0.0,N,0.0,K,A*23::$GPGSV,3,3,12,31,17,050,22,01,06,205,,06,09,309,,14,09,094,*7F::$GPGSA,A,3,03,04,07,09,16,22,23,26,,,,,1.4,1.1,0.9,1*28::$GPRMC,181248.00,A,3602.893816,N,11507.869101,W,0.0,,030220,12.3,E,A*33::$GPGGA,181248.00,3602.893816,N,11507.869101,W,1,08,1.1,621.0,M,-18.0,M,,*5E::$GAGSV,1,1,0,*74::$GLGSV,1,1,0,*79::$GBGSV,1,1,0,*77::$PQGSV,1,1,0,*73",537,2020-02-03 10:12:47:601
0.028717,0.344574,9.817749,-0.182289,-0.011784,9.804949,0.193281,0.363389,0.087996,0.016922,-0.2211,0.079056,392.0,-19.6976,-8.3359,-53.4988,110.9061,0.0864,1.2491,8.0,937.8892,33.42537,36.04823,-115.13116,603.0,NaN,0.07160995,0.0,7.504,,8 / 13,"$GPVTG,,T,,M,0.0,N,0.0,K,A*23::$GPGSV,3,3,12,31,17,050,22,01,06,205,,06,09,309,,14,09,094,*7F::$GPGSA,A,3,03,04,07,09,16,22,23,26,,,,,1.4,1.1,0.9,1*28::$GPRMC,181248.00,A,3602.893816,N,11507.869101,W,0.0,,030220,12.3,E,A*33::$GPGGA,181248.00,3602.893816,N,11507.869101,W,1,08,1.1,621.0,M,-18.0,M,,*5E::$GAGSV,1,1,0,*74::$GLGSV,1,1,0,*79::$GBGSV,1,1,0,*77::$PQGSV,1,1,0,*73",548,2020-02-03 10:12:47:612
0.007172,0.162704,9.779465,-0.149876,-0.009907,9.8055,0.161264,0.184472,0.095244,-0.013611,-0.125809,-0.02356,392.0,-20.4086,-8.3603,-51.2939,110.9061,0.0864,1.2491,8.0,937.8892,33.42537,36.04823,-115.13116,603.0,NaN,0.07160995,0.0,7.504,,8 / 13,"$GPVTG,,T,,M,0.0,N,0.0,K,A*23::$GPGSV,3,3,12,31,17,050,22,01,06,205,,06,09,309,,14,09,094,*7F::$GPGSA,A,3,03,04,07,09,16,22,23,26,,,,,1.4,1.1,0.9,1*28::$GPRMC,181248.00,A,3602.893816,N,11507.869101,W,0.0,,030220,12.3,E,A*33::$GPGGA,181248.00,3602.893816,N,11507.869101,W,1,08,1.1,621.0,M,-18.0,M,,*5E::$GAGSV,1,1,0,*74::$GLGSV,1,1,0,*79::$GBGSV,1,1,0,*77::$PQGSV,1,1,0,*73",558,2020-02-03 10:12:47:622
0.007172,0.162704,9.779465,-0.149876,-0.009907,9.8055,0.161264,0.184472,0.095244,-0.06369,0.033005,-0.052872,392.0,-20.4086,-8.3603,-51.2939,110.9061,0.0864,1.2491,8.0,937.8892,33.42537,36.04823,-115.13116,603.0,NaN,0.07160995,0.0,7.504,,8 / 13,"$GPVTG,,T,,M,0.0,N,0.0,K,A*23::$GPGSV,3,3,12,31,17,050,22,01,06,205,,06,09,309,,14,09,094,*7F::$GPGSA,A,3,03,04,07,09,16,22,23,26,,,,,1.4,1.1,0.9,1*28::$GPRMC,181248.00,A,3602.893816,N,11507.869101,W,0.0,,030220,12.3,E,A*33::$GPGGA,181248.00,3602.893816,N,11507.869101,W,1,08,1.1,621.0,M,-18.0,M,,*5E::$GAGSV,1,1,0,*74::$GLGSV,1,1,0,*79::$GBGSV,1,1,0,*77::$PQGSV,1,1,0,*73",568,2020-02-03 10:12:47:632
-0.169891,0.04068,9.875183,-0.146814,-0.019127,9.805533,0.001508,0.099056,0.178436,-0.052704,0.08432,-0.035782,392.0,-18.985,-8.3115,-54.9698,112.0994,0.0579,0.8757,8.0,937.8892,33.42537,36.04823,-115.13116,603.0,NaN,0.07160995,0.0,7.504,,8 / 13,"$GPVTG,,T,,M,0.0,N,0.0,K,A*23::$GPGSV,3,3,12,31,17,050,22,01,06,205,,06,09,309,,14,09,094,*7F::$GPGSA,A,3,03,04,07,09,16,22,23,26,,,,,1.4,1.1,0.9,1*28::$GPRMC,181248.00,A,3602.893816,N,11507.869101,W,0.0,,030220,12.3,E,A*33::$GPGGA,181248.00,3602.893816,N,11507.869101,W,1,08,1.1,621.0,M,-18.0,M,,*5E::$GAGSV,1,1,0,*74::$GLGSV,1,1,0,*79::$GBGSV,1,1,0,*77::$PQGSV,1,1,0,*73",578,2020-02-03 10:12:47:642
-0.189026,-0.078964,9.767502,-0.158176,-0.026808,9.805338,-0.031521,-0.044094,0.100249,-0.052704,0.08432,-0.035782,392.0,-18.2266,-6.2714,-54.245,112.0994,0.0579,0.8757,8.0,937.889,32.54437,36.04823,-115.13116,603.0,NaN,0.07349441,0.0,7.504,,8 / 13,"$GPVTG,,T,,M,0.0,N,0.0,K,A*23::$GPGSV,3,3,12,31,17,050,22,01,06,205,,06,09,309,,14,09,094,*7F::$GPGSA,A,3,03,04,07,09,16,22,23,26,,,,,1.4,1.1,0.9,1*28::$GPRMC,181248.00,A,3602.893816,N,11507.869101,W,0.0,,030220,12.3,E,A*33::$GPGGA,181248.00,3602.893816,N,11507.869101,W,1,08,1.1,621.0,M,-18.0,M,,*5E::$GAGSV,1,1,0,*74::$GLGSV,1,1,0,*79::$GBGSV,1,1,0,*77::$PQGSV,1,1,0,*73",588,2020-02-03 10:12:47:652
-0.189026,-0.078964,9.767502,-0.158176,-0.026808,9.805338,-0.031521,-0.044094,0.100249,-0.047821,0.097763,-0.002792,397.0,-18.2266,-6.2714,-54.245,112.0994,0.0579,0.8757,8.0,937.889,32.54437,36.04823,-115.13116,603.0,NaN,0.07349441,0.0,7.504,,8 / 13,"$GPVTG,,T,,M,0.0,N,0.0,K,A*23::$GPGSV,3,3,12,31,17,050,22,01,06,205,,06,09,309,,14,09,094,*7F::$GPGSA,A,3,03,04,07,09,16,22,23,26,,,,,1.4,1.1,0.9,1*28::$GPRMC,181248.00,A,3602.893816,N,11507.869101,W,0.0,,030220,12.3,E,A*33::$GPGGA,181248.00,3602.893816,N,11507.869101,W,1,08,1.1,621.0,M,-18.0,M,,*5E::$GAGSV,1,1,0,*74::$GLGSV,1,1,0,*79::$GBGSV,1,1,0,*77::$PQGSV,1,1,0,*73",598,2020-02-03 10:12:47:662
-0.334991,-0.071777,9.542572,-0.171969,-0.034356,9.805082,-0.124382,-0.068954,-0.090844,-0.055145,0.085526,0.010651,397.0,-18.9835,-8.3252,-52.0294,112.3386,0.2007,1.0048,8.0,937.889,32.54437,36.04823,-115.13116,603.0,NaN,0.07349441,0.0,7.504,,8 / 13,"$GPVTG,,T,,M,0.0,N,0.0,K,A*23::$GPGSV,3,3,12,31,17,050,22,01,06,205,,06,09,309,,14,09,094,*7F::$GPGSA,A,3,03,04,07,09,16,22,23,26,,,,,1.4,1.1,0.9,1*28::$GPRMC,181248.00,A,3602.893816,N,11507.869101,W,0.0,,030220,12.3,E,A*33::$GPGGA,181248.00,3602.893816,N,11507.869101,W,1,08,1.1,621.0,M,-18.0,M,,*5E::$GAGSV,1,1,0,*74::$GLGSV,1,1,0,*79::$GBGSV,1,1,0,*77::$PQGSV,1,1,0,*73",608,2020-02-03 10:12:47:672
-0.334991,-0.071777,9.542572,-0.171969,-0.034356,9.805082,-0.124382,-0.068954,-0.090844,-0.055145,0.085526,0.010651,397.0,-18.9835,-8.3252,-52.0294,112.3386,0.2007,1.0048,8.0,937.889,32.54437,36.04823,-115.13116,603.0,NaN,0.07349441,0.0,7.504,,8 / 13,"$GPVTG,,T,,M,0.0,N,0.0,K,A*23::$GPGSV,3,3,12,31,17,050,22,01,06,205,,06,09,309,,14,09,094,*7F::$GPGSA,A,3,03,04,07,09,16,22,23,26,,,,,1.4,1.1,0.9,1*28::$GPRMC,181248.00,A,3602.893816,N,11507.869101,W,0.0,,030220,12.3,E,A*33::$GPGGA,181248.00,3602.893816,N,11507.869101,W,1,08,1.1,621.0,M,-18.0,M,,*5E::$GAGSV,1,1,0,*74::$GLGSV,1,1,0,*79::$GBGSV,1,1,0,*77::$PQGSV,1,1,0,*73",618,2020-02-03 10:12:47:682
-0.363708,0.076569,9.604797,-0.181278,-0.04633,9.804865,-0.201334,0.107991,-0.107759,-0.068573,0.013458,0.037521,397.0,-16.8167,-6.9183,-53.5049,112.3386,0.2007,1.0048,8.0,937.889,32.54437,36.04823,-115.13116,603.0,NaN,0.07349441,0.0,7.504,,8 / 13,"$GPVTG,,T,,M,0.0,N,0.0,K,A*23::$GPGSV,3,3,12,31,17,050,22,01,06,205,,06,09,309,,14,09,094,*7F::$GPGSA,A,3,03,04,07,09,16,22,23,26,,,,,1.4,1.1,0.9,1*28::$GPRMC,181248.00,A,3602.893816,N,11507.869101,W,0.0,,030220,12.3,E,A*33::$GPGGA,181248.00,3602.893816,N,11507.869101,W,1,08,1.1,621.0,M,-18.0,M,,*5E::$GAGSV,1,1,0,*74::$GLGSV,1,1,0,*79::$GBGSV,1,1,0,*77::$PQGSV,1,1,0,*73",628,2020-02-03 10:12:47:692
-0.10289,0.217743,9.968506,-0.175288,-0.054437,9.804933,0.009226,0.25732,0.205318,-0.039261,-0.046417,0.022858,397.0,-16.8167,-6.9183,-53.5049,112.3386,0.2007,1.0048,8.0,937.889,32.54437,36.04823,-115.13116,603.0,NaN,0.07349441,0.0,7.504,,8 / 13,"$GPVTG,,T,,M,0.0,N,0.0,K,A*23::$GPGSV,3,3,12,31,17,050,22,01,06,205,,06,09,309,,14,09,094,*7F::$GPGSA,A,3,03,04,07,09,16,22,23,26,,,,,1.4,1.1,0.9,1*28::$GPRMC,181248.00,A,3602.893816,N,11507.869101,W,0.0,,030220,12.3,E,A*33::$GPGGA,181248.00,3602.893816,N,11507.869101,W,1,08,1.1,621.0,M,-18.0,M,,*5E::$GAGSV,1,1,0,*74::$GLGSV,1,1,0,*79::$GBGSV,1,1,0,*77::$PQGSV,1,1,0,*73",638,2020-02-03 10:12:47:702
-0.10289,0.217743,9.968506,-0.175288,-0.054437,9.804933,0.009226,0.25732,0.205318,-0.011169,-0.046417,0.013092,397.0,-16.8167,-6.9183,-53.5049,112.3386,0.2007,1.0048,8.0,937.889,32.54437,36.04823,-115.13116,603.0,NaN,0.07349441,0.0,7.504,,8 / 13,"$GPVTG,,T,,M,0.0,N,0.0,K,A*23::$GPGSV,3,3,12,31,17,050,22,01,06,205,,06,09,309,,14,09,094,*7F::$GPGSA,A,3,03,04,07,09,16,22,23,26,,,,,1.4,1.1,0.9,1*28::$GPRMC,181248.00,A,3602.893816,N,11507.869101,W,0.0,,030220,12.3,E,A*33::$GPGGA,181248.00,3602.893816,N,11507.869101,W,1,08,1.1,621.0,M,-18.0,M,,*5E::$GAGSV,1,1,0,*74::$GLGSV,1,1,0,*79::$GBGSV,1,1,0,*77::$PQGSV,1,1,0,*73",648,2020-02-03 10:12:47:712
-0.107681,0.100494,9.963715,-0.169456,-0.054461,9.805035,0.081329,0.167488,0.292164,-1.83E-4,-0.00853,0.021637,397.0,-18.9682,-7.6447,-52.7679,112.5758,0.3181,1.0242,8.0,937.889,32.54437,36.04823,-115.13116,603.0,NaN,0.07349441,0.0,7.504,,8 / 13,"$GPVTG,,T,,M,0.0,N,0.0,K,A*23::$GPGSV,3,3,12,31,17,050,22,01,06,205,,06,09,309,,14,09,094,*7F::$GPGSA,A,3,03,04,07,09,16,22,23,26,,,,,1.4,1.1,0.9,1*28::$GPRMC,181248.00,A,3602.893816,N,11507.869101,W,0.0,,030220,12.3,E,A*33::$GPGGA,181248.00,3602.893816,N,11507.869101,W,1,08,1.1,621.0,M,-18.0,M,,*5E::$GAGSV,1,1,0,*74::$GLGSV,1,1,0,*79::$GBGSV,1,1,0,*77::$PQGSV,1,1,0,*73",658,2020-02-03 10:12:47:722
-0.215347,-0.100494,9.750748,-0.169015,-0.054888,9.80504,-0.056686,-0.015146,0.094152,-0.016052,0.0159,0.041183,397.0,-18.9362,-6.2943,-52.7756,112.5758,0.3181,1.0242,8.0,937.889,32.54437,36.04823,-115.13116,603.0,NaN,0.07349441,0.0,7.504,,8 / 13,"$GPVTG,,T,,M,0.0,N,0.0,K,A*23::$GPGSV,3,3,12,31,17,050,22,01,06,205,,06,09,309,,14,09,094,*7F::$GPGSA,A,3,03,04,07,09,16,22,23,26,,,,,1.4,1.1,0.9,1*28::$GPRMC,181248.00,A,3602.893816,N,11507.869101,W,0.0,,030220,12.3,E,A*33::$GPGGA,181248.00,3602.893816,N,11507.869101,W,1,08,1.1,621.0,M,-18.0,M,,*5E::$GAGSV,1,1,0,*74::$GLGSV,1,1,0,*79::$GBGSV,1,1,0,*77::$PQGSV,1,1,0,*73",668,2020-02-03 10:12:47:732
-0.215347,-0.100494,9.750748,-0.169015,-0.054888,9.80504,-0.056686,-0.015146,0.094152,-0.035614,0.061096,0.070496,397.0,-18.9362,-6.2943,-52.7756,112.5758,0.3181,1.0242,8.0,937.889,32.54437,36.04823,-115.13116,603.0,NaN,0.07349441,0.0,7.504,,8 / 13,"$GPVTG,,T,,M,0.0,N,0.0,K,A*23::$GPGSV,3,3,12,31,17,050,22,01,06,205,,06,09,309,,14,09,094,*7F::$GPGSA,A,3,03,04,07,09,16,22,23,26,,,,,1.4,1.1,0.9,1*28::$GPRMC,181248.00,A,3602.893816,N,11507.869101,W,0.0,,030220,12.3,E,A*33::$GPGGA,181248.00,3602.893816,N,11507.869101,W,1,08,1.1,621.0,M,-18.0,M,,*5E::$GAGSV,1,1,0,*74::$GLGSV,1,1,0,*79::$GBGSV,1,1,0,*77::$PQGSV,1,1,0,*73",678,2020-02-03 10:12:47:742
-0.14357,-0.009567,9.726822,-0.178027,-0.060836,9.804845,0.016831,0.032604,0.029572,-0.035614,0.061096,0.070496,397.0,-18.9377,-6.2866,-54.245,107.5884,0.3554,1.0402,8.0,937.889,32.54437,36.04823,-115.13116,603.0,NaN,0.07349441,0.0,7.504,,8 / 13,"$GPVTG,,T,,M,0.0,N,0.0,K,A*23::$GPGSV,3,3,12,31,17,050,22,01,06,205,,06,09,309,,14,09,094,*7F::$GPGSA,A,3,03,04,07,09,16,22,23,26,,,,,1.4,1.1,0.9,1*28::$GPRMC,181248.00,A,3602.893816,N,11507.869101,W,0.0,,030220,12.3,E,A*33::$GPGGA,181248.00,3602.893816,N,11507.869101,W,1,08,1.1,621.0,M,-18.0,M,,*5E::$GAGSV,1,1,0,*74::$GLGSV,1,1,0,*79::$GBGSV,1,1,0,*77::$PQGSV,1,1,0,*73",688,2020-02-03 10:12:47:752
-0.076569,0.088531,9.765106,-0.188699,-0.064607,9.804623,0.175746,0.190676,0.086959,-0.038055,0.080643,0.055847,397.0,-18.9377,-6.2866,-54.245,107.5884,0.3554,1.0402,8.0,937.889,32.54437,36.04823,-115.13116,603.0,NaN,0.07349441,0.0,7.504,,8 / 13,"$GPVTG,,T,,M,0.0,N,0.0,K,A*23::$GPGSV,3,3,12,31,17,050,22,01,06,205,,06,09,309,,14,09,094,*7F::$GPGSA,A,3,03,04,07,09,16,22,23,26,,,,,1.4,1.1,0.9,1*28::$GPRMC,181248.00,A,3602.893816,N,11507.869101,W,0.0,,030220,12.3,E,A*33::$GPGGA,181248.00,3602.893816,N,11507.869101,W,1,08,1.1,621.0,M,-18.0,M,,*5E::$GAGSV,1,1,0,*74::$GLGSV,1,1,0,*79::$GBGSV,1,1,0,*77::$PQGSV,1,1,0,*73",698,2020-02-03 10:12:47:762
-0.076569,0.088531,9.765106,-0.188699,-0.064607,9.804623,0.175746,0.190676,0.086959,-0.038055,0.080643,0.055847,397.0,-18.9377,-6.2866,-54.245,107.5884,0.3554,1.0402,8.0,937.889,32.54437,36.04823,-115.13116,603.0,NaN,0.07349441,0.0,7.504,,8 / 13,"$GPVTG,,T,,M,0.0,N,0.0,K,A*23::$GPGSV,3,3,12,31,17,050,22,01,06,205,,06,09,309,,14,09,094,*7F::$GPGSA,A,3,03,04,07,09,16,22,23,26,,,,,1.4,1.1,0.9,1*28::$GPRMC,181248.00,A,3602.893816,N,11507.869101,W,0.0,,030220,12.3,E,A*33::$GPGGA,181248.00,3602.893816,N,11507.869101,W,1,08,1.1,621.0,M,-18.0,M,,*5E::$GAGSV,1,1,0,*74::$GLGSV,1,1,0,*79::$GBGSV,1,1,0,*77::$PQGSV,1,1,0,*73",708,2020-02-03 10:12:47:772
0.055038,0.145966,9.714859,-0.19211,-0.065173,9.804552,0.231777,0.20799,0.064219,-0.02095,0.079422,0.016739,397.0,-18.2892,-8.9828,-52.7618,107.5884,0.3554,1.0402,8.0,937.889,32.54437,36.04823,-115.13116,603.0,NaN,0.07349441,0.0,7.504,,8 / 13,"$GPVTG,,T,,M,0.0,N,0.0,K,A*23::$GPGSV,3,3,12,31,17,050,22,01,06,205,,06,09,309,,14,09,094,*7F::$GPGSA,A,3,03,04,07,09,16,22,23,26,,,,,1.4,1.1,0.9,1*28::$GPRMC,181248.00,A,3602.893816,N,11507.869101,W,0.0,,030220,12.3,E,A*33::$GPGGA,181248.00,3602.893816,N,11507.869101,W,1,08,1.1,621.0,M,-18.0,M,,*5E::$GAGSV,1,1,0,*74::$GLGSV,1,1,0,*79::$GBGSV,1,1,0,*77::$PQGSV,1,1,0,*73",718,2020-02-03 10:12:47:782
-0.212967,0.038284,9.468399,-0.20461,-0.067735,9.804281,0.017297,0.1188,-0.22899,-0.02829,0.065994,-0.018677,397.0,-20.4422,-9.6954,-54.9622,116.1409,0.3957,1.1956,8.0,937.889,32.54437,36.04823,-115.13116,603.0,NaN,0.07349441,0.0,7.504,,8 / 13,"$GPVTG,,T,,M,0.0,N,0.0,K,A*23::$GPGSV,3,3,12,31,17,050,22,01,06,205,,06,09,309,,14,09,094,*7F::$GPGSA,A,3,03,04,07,09,16,22,23,26,,,,,1.4,1.1,0.9,1*28::$GPRMC,181248.00,A,3602.893816,N,11507.869101,W,0.0,,030220,12.3,E,A*33::$GPGGA,181248.00,3602.893816,N,11507.869101,W,1,08,1.1,621.0,M,-18.0,M,,*5E::$GAGSV,1,1,0,*74::$GLGSV,1,1,0,*79::$GBGSV,1,1,0,*77::$PQGSV,1,1,0,*73",727,2020-02-03 10:12:47:791
-0.294312,0.086136,9.669403,-0.212503,-0.07275,9.804077,0.017297,0.1188,-0.22899,-0.041718,0.051331,-0.004028,397.0,-20.4422,-9.6954,-54.9622,116.1409,0.3957,1.1956,8.0,937.8851,32.54437,36.04823,-115.13116,603.0,NaN,0.105530225,0.0,7.504,,8 / 13,"$GPVTG,,T,,M,0.0,N,0.0,K,A*23::$GPGSV,3,3,12,31,17,050,22,01,06,205,,06,09,309,,14,09,094,*7F::$GPGSA,A,3,03,04,07,09,16,22,23,26,,,,,1.4,1.1,0.9,1*28::$GPRMC,181248.00,A,3602.893816,N,11507.869101,W,0.0,,030220,12.3,E,A*33::$GPGGA,181248.00,3602.893816,N,11507.869101,W,1,08,1.1,621.0,M,-18.0,M,,*5E::$GAGSV,1,1,0,*74::$GLGSV,1,1,0,*79::$GBGSV,1,1,0,*77::$PQGSV,1,1,0,*73",737,2020-02-03 10:12:47:801
-0.294312,0.086136,9.669403,-0.212503,-0.07275,9.804077,-0.068125,0.158068,0.001252,-0.011169,0.026886,0.013092,397.0,-20.4422,-9.6954,-54.9622,116.1409,0.3957,1.1956,8.0,937.8851,32.54437,36.04823,-115.13116,603.0,NaN,0.105530225,0.0,7.504,,8 / 13,"$GPVTG,,T,,M,0.0,N,0.0,K,A*23::$GPGSV,3,3,12,31,17,050,22,01,06,205,,06,09,309,,14,09,094,*7F::$GPGSA,A,3,03,04,07,09,16,22,23,26,,,,,1.4,1.1,0.9,1*28::$GPRMC,181248.00,A,3602.893816,N,11507.869101,W,0.0,,030220,12.3,E,A*33::$GPGGA,181248.00,3602.893816,N,11507.869101,W,1,08,1.1,621.0,M,-18.0,M,,*5E::$GAGSV,1,1,0,*74::$GLGSV,1,1,0,*79::$GBGSV,1,1,0,*77::$PQGSV,1,1,0,*73",748,2020-02-03 10:12:47:812
-0.157928,0.06221,9.743576,-0.216735,-0.071953,9.803991,0.110256,0.103056,0.026519,0.016922,0.023224,0.003311,397.0,-18.2587,-7.6263,-53.5019,116.1409,0.3957,1.1956,8.0,937.8851,32.54437,36.04823,-115.13116,603.0,NaN,0.105530225,0.0,7.504,,8 / 13,"$GPVTG,,T,,M,0.0,N,0.0,K,A*23::$GPGSV,3,3,12,31,17,050,22,01,06,205,,06,09,309,,14,09,094,*7F::$GPGSA,A,3,03,04,07,09,16,22,23,26,,,,,1.4,1.1,0.9,1*28::$GPRMC,181248.00,A,3602.893816,N,11507.869101,W,0.0,,030220,12.3,E,A*33::$GPGGA,181248.00,3602.893816,N,11507.869101,W,1,08,1.1,621.0,M,-18.0,M,,*5E::$GAGSV,1,1,0,*74::$GLGSV,1,1,0,*79::$GBGSV,1,1,0,*77::$PQGSV,1,1,0,*73",758,2020-02-03 10:12:47:822
-0.157928,0.06221,9.743576,-0.216735,-0.071953,9.803991,0.110256,0.103056,0.026519,0.016922,0.023224,0.003311,397.0,-18.2587,-7.6263,-53.5019,116.1409,0.3957,1.1956,8.0,937.8851,32.54437,36.04823,-115.13116,603.0,NaN,0.105530225,0.0,7.504,,8 / 13,"$GPVTG,,T,,M,0.0,N,0.0,K,A*23::$GPGSV,3,3,12,31,17,050,22,01,06,205,,06,09,309,,14,09,094,*7F::$GPGSA,A,3,03,04,07,09,16,22,23,26,,,,,1.4,1.1,0.9,1*28::$GPRMC,181248.00,A,3602.893816,N,11507.869101,W,0.0,,030220,12.3,E,A*33::$GPGGA,181248.00,3602.893816,N,11507.869101,W,1,08,1.1,621.0,M,-18.0,M,,*5E::$GAGSV,1,1,0,*74::$GLGSV,1,1,0,*79::$GBGSV,1,1,0,*77::$PQGSV,1,1,0,*73",768,2020-02-03 10:12:47:832
0.014359,-0.009567,9.492325,-0.216107,-0.067065,9.804039,0.22435,0.059093,-0.134744,0.019363,0.029327,-0.008911,397.0,-18.2892,-8.9859,-52.0264,116.0402,0.3918,1.2627,8.0,937.8851,32.54437,36.04823,-115.13116,603.0,NaN,0.105530225,0.0,7.504,,8 / 13,"$GPVTG,,T,,M,0.0,N,0.0,K,A*23::$GPGSV,3,3,12,31,17,050,22,01,06,205,,06,09,309,,14,09,094,*7F::$GPGSA,A,3,03,04,07,09,16,22,23,26,,,,,1.4,1.1,0.9,1*28::$GPRMC,181248.00,A,3602.893816,N,11507.869101,W,0.0,,030220,12.3,E,A*33::$GPGGA,181248.00,3602.893816,N,11507.869101,W,1,08,1.1,621.0,M,-18.0,M,,*5E::$GAGSV,1,1,0,*74::$GLGSV,1,1,0,*79::$GBGSV,1,1,0,*77::$PQGSV,1,1,0,*73",778,2020-02-03 10:12:47:842
-0.059814,-0.002396,9.3703,-0.213096,-0.066128,9.804111,0.158947,0.064086,-0.313361,-0.023392,0.003677,-0.007675,397.0,-19.0002,-8.9981,-52.7618,116.0402,0.3918,1.2627,8.0,937.8851,32.54437,36.04823,-115.13116,603.0,NaN,0.105530225,0.0,7.504,,8 / 13,"$GPVTG,,T,,M,0.0,N,0.0,K,A*23::$GPGSV,3,3,12,31,17,050,22,01,06,205,,06,09,309,,14,09,094,*7F::$GPGSA,A,3,03,04,07,09,16,22,23,26,,,,,1.4,1.1,0.9,1*28::$GPRMC,181248.00,A,3602.893816,N,11507.869101,W,0.0,,030220,12.3,E,A*33::$GPGGA,181248.00,3602.893816,N,11507.869101,W,1,08,1.1,621.0,M,-18.0,M,,*5E::$GAGSV,1,1,0,*74::$GLGSV,1,1,0,*79::$GBGSV,1,1,0,*77::$PQGSV,1,1,0,*73",787,2020-02-03 10:12:47:851
-0.059814,-0.002396,9.3703,-0.213096,-0.066128,9.804111,0.158947,0.064086,-0.313361,-0.023392,0.003677,-0.007675,436.0,-19.0002,-8.9981,-52.7618,116.0402,0.3918,1.2627,8.0,937.8851,32.54437,36.04823,-115.13116,603.0,NaN,0.105530225,0.0,7.504,,8 / 13,"$GPVTG,,T,,M,0.0,N,0.0,K,A*23::$GPGSV,3,3,12,31,17,050,22,01,06,205,,06,09,309,,14,09,094,*7F::$GPGSA,A,3,03,04,07,09,16,22,23,26,,,,,1.4,1.1,0.9,1*28::$GPRMC,181248.00,A,3602.893816,N,11507.869101,W,0.0,,030220,12.3,E,A*33::$GPGGA,181248.00,3602.893816,N,11507.869101,W,1,08,1.1,621.0,M,-18.0,M,,*5E::$GAGSV,1,1,0,*74::$GLGSV,1,1,0,*79::$GBGSV,1,1,0,*77::$PQGSV,1,1,0,*73",799,2020-02-03 10:12:47:863
-0.134003,0.014359,9.635895,-0.2085,-0.071687,9.804172,0.087302,0.088683,-0.135444,-0.058823,-0.019531,-0.011353,436.0,-17.5293,-6.9336,-53.5049,111.112,0.4188,1.2183,8.0,937.8851,32.54437,36.04823,-115.13116,603.0,NaN,0.105530225,0.0,7.504,,8 / 13,"$GPVTG,,T,,M,0.0,N,0.0,K,A*23::$GPGSV,3,3,12,31,17,050,22,01,06,205,,06,09,309,,14,09,094,*7F::$GPGSA,A,3,03,04,07,09,16,22,23,26,,,,,1.4,1.1,0.9,1*28::$GPRMC,181248.00,A,3602.893816,N,11507.869101,W,0.0,,030220,12.3,E,A*33::$GPGGA,181248.00,3602.893816,N,11507.869101,W,1,08,1.1,621.0,M,-18.0,M,,*5E::$GAGSV,1,1,0,*74::$GLGSV,1,1,0,*79::$GBGSV,1,1,0,*77::$PQGSV,1,1,0,*73",808,2020-02-03 10:12:47:872
-0.134003,0.014359,9.635895,-0.2085,-0.071687,9.804172,0.087302,0.088683,-0.135444,-0.058823,-0.019531,-0.011353,436.0,-17.5293,-6.9336,-53.5049,111.112,0.4188,1.2183,8.0,937.8851,32.54437,36.04823,-115.13116,603.0,NaN,0.105530225,0.0,7.504,,8 / 13,"$GPVTG,,T,,M,0.0,N,0.0,K,A*23::$GPGSV,3,3,12,31,17,050,22,01,06,205,,06,09,309,,14,09,094,*7F::$GPGSA,A,3,03,04,07,09,16,22,23,26,,,,,1.4,1.1,0.9,1*28::$GPRMC,181248.00,A,3602.893816,N,11507.869101,W,0.0,,030220,12.3,E,A*33::$GPGGA,181248.00,3602.893816,N,11507.869101,W,1,08,1.1,621.0,M,-18.0,M,,*5E::$GAGSV,1,1,0,*74::$GLGSV,1,1,0,*79::$GBGSV,1,1,0,*77::$PQGSV,1,1,0,*73",818,2020-02-03 10:12:47:882
-0.167496,0.007172,9.722046,-0.204385,-0.076475,9.804221,0.035395,0.086243,0.048977,-0.031937,-0.007324,-0.030899,436.0,-19.6823,-7.6538,-54.2374,111.112,0.4188,1.2183,8.0,937.8851,32.54437,36.04823,-115.13116,603.0,NaN,0.105530225,0.0,7.504,,8 / 13,"$GPVTG,,T,,M,0.0,N,0.0,K,A*23::$GPGSV,3,3,12,31,17,050,22,01,06,205,,06,09,309,,14,09,094,*7F::$GPGSA,A,3,03,04,07,09,16,22,23,26,,,,,1.4,1.1,0.9,1*28::$GPRMC,181248.00,A,3602.893816,N,11507.869101,W,0.0,,030220,12.3,E,A*33::$GPGGA,181248.00,3602.893816,N,11507.869101,W,1,08,1.1,621.0,M,-18.0,M,,*5E::$GAGSV,1,1,0,*74::$GLGSV,1,1,0,*79::$GBGSV,1,1,0,*77::$PQGSV,1,1,0,*73",828,2020-02-03 10:12:47:892
-0.167496,0.007172,9.722046,-0.204385,-0.076475,9.804221,0.035395,0.086243,0.048977,-0.031937,-0.007324,-0.030899,436.0,-19.6823,-7.6538,-54.2374,111.112,0.4188,1.2183,8.0,937.8851,32.54437,36.04823,-115.13116,603.0,NaN,0.105530225,0.0,7.504,,8 / 13,"$GPVTG,,T,,M,0.0,N,0.0,K,A*23::$GPGSV,3,3,12,31,17,050,22,01,06,205,,06,09,309,,14,09,094,*7F::$GPGSA,A,3,03,04,07,09,16,22,23,26,,,,,1.4,1.1,0.9,1*28::$GPRMC,181248.00,A,3602.893816,N,11507.869101,W,0.0,,030220,12.3,E,A*33::$GPGGA,181248.00,3602.893816,N,11507.869101,W,1,08,1.1,621.0,M,-18.0,M,,*5E::$GAGSV,1,1,0,*74::$GLGSV,1,1,0,*79::$GBGSV,1,1,0,*77::$PQGSV,1,1,0,*73",838,2020-02-03 10:12:47:902
-0.22493,-0.076569,9.667007,-0.204582,-0.080948,9.804182,0.015258,-0.005058,-0.008813,-0.036819,0.013458,-0.021118,436.0,-18.9514,-6.9717,-52.037,110.2938,0.4729,1.1954,8.0,937.8851,32.54437,36.04823,-115.13116,603.0,NaN,0.105530225,0.0,7.504,,8 / 13,"$GPVTG,,T,,M,0.0,N,0.0,K,A*23::$GPGSV,3,3,12,31,17,050,22,01,06,205,,06,09,309,,14,09,094,*7F::$GPGSA,A,3,03,04,07,09,16,22,23,26,,,,,1.4,1.1,0.9,1*28::$GPRMC,181248.00,A,3602.893816,N,11507.869101,W,0.0,,030220,12.3,E,A*33::$GPGGA,181248.00,3602.893816,N,11507.869101,W,1,08,1.1,621.0,M,-18.0,M,,*5E::$GAGSV,1,1,0,*74::$GLGSV,1,1,0,*79::$GBGSV,1,1,0,*77::$PQGSV,1,1,0,*73",850,2020-02-03 10:12:47:914
-0.378067,-0.064606,9.714859,-0.211216,-0.087559,9.803985,-0.157644,0.020605,0.037564,-0.039261,0.018341,-0.012573,436.0,-18.9514,-6.9717,-52.037,110.2938,0.4729,1.1954,8.0,937.8851,32.54437,36.04823,-115.13116,603.0,NaN,0.105530225,0.0,7.504,,8 / 13,"$GPVTG,,T,,M,0.0,N,0.0,K,A*23::$GPGSV,3,3,12,31,17,050,22,01,06,205,,06,09,309,,14,09,094,*7F::$GPGSA,A,3,03,04,07,09,16,22,23,26,,,,,1.4,1.1,0.9,1*28::$GPRMC,181248.00,A,3602.893816,N,11507.869101,W,0.0,,030220,12.3,E,A*33::$GPGGA,181248.00,3602.893816,N,11507.869101,W,1,08,1.1,621.0,M,-18.0,M,,*5E::$GAGSV,1,1,0,*74::$GLGSV,1,1,0,*79::$GBGSV,1,1,0,*77::$PQGSV,1,1,0,*73",859,2020-02-03 10:12:47:923
-0.378067,-0.064606,9.714859,-0.218597,-0.090532,9.803796,-0.119237,0.027151,0.040269,-0.024612,0.036667,-0.022354,436.0,-18.2266,-6.2714,-54.245,110.2938,0.4729,1.1954,8.0,937.8851,32.54437,36.04823,-115.13116,603.0,NaN,0.105530225,0.0,7.504,,8 / 13,"$GPVTG,,T,,M,0.0,N,0.0,K,A*23::$GPGSV,3,3,12,31,17,050,22,01,06,205,,06,09,309,,14,09,094,*7F::$GPGSA,A,3,03,04,07,09,16,22,23,26,,,,,1.4,1.1,0.9,1*28::$GPRMC,181248.00,A,3602.893816,N,11507.869101,W,0.0,,030220,12.3,E,A*33::$GPGGA,181248.00,3602.893816,N,11507.869101,W,1,08,1.1,621.0,M,-18.0,M,,*5E::$GAGSV,1,1,0,*74::$GLGSV,1,1,0,*79::$GBGSV,1,1,0,*77::$PQGSV,1,1,0,*73",868,2020-02-03 10:12:47:932
-0.279953,-0.071777,9.710068,-0.218597,-0.090532,9.803796,-0.119237,0.027151,0.040269,-0.024612,0.036667,-0.022354,436.0,-18.2266,-6.2714,-54.245,110.2938,0.4729,1.1954,8.0,937.8851,32.54437,36.04823,-115.13116,603.0,NaN,0.105530225,0.0,7.504,,8 / 13,"$GPVTG,,T,,M,0.0,N,0.0,K,A*23::$GPGSV,3,3,12,31,17,050,22,01,06,205,,06,09,309,,14,09,094,*7F::$GPGSA,A,3,03,04,07,09,16,22,23,26,,,,,1.4,1.1,0.9,1*28::$GPRMC,181248.00,A,3602.893816,N,11507.869101,W,0.0,,030220,12.3,E,A*33::$GPGGA,181248.00,3602.893816,N,11507.869101,W,1,08,1.1,621.0,M,-18.0,M,,*5E::$GAGSV,1,1,0,*74::$GLGSV,1,1,0,*79::$GBGSV,1,1,0,*77::$PQGSV,1,1,0,*73",878,2020-02-03 10:12:47:942
-0.18425,-0.071777,9.595215,-0.22333,-0.092542,9.80367,0.007485,0.019556,0.018402,-0.027054,0.052551,-0.040665,436.0,-18.9529,-6.9611,-54.2419,110.3589,0.5407,1.305,8.0,937.8795,32.54437,36.04823,-115.13116,603.0,NaN,0.1535837,0.0,7.504,,8 / 13,"$GPVTG,,T,,M,0.0,N,0.0,K,A*23::$GPGSV,3,3,12,31,17,050,22,01,06,205,,06,09,309,,14,09,094,*7F::$GPGSA,A,3,03,04,07,09,16,22,23,26,,,,,1.4,1.1,0.9,1*28::$GPRMC,181248.00,A,3602.893816,N,11507.869101,W,0.0,,030220,12.3,E,A*33::$GPGGA,181248.00,3602.893816,N,11507.869101,W,1,08,1.1,621.0,M,-18.0,M,,*5E::$GAGSV,1,1,0,*74::$GLGSV,1,1,0,*79::$GBGSV,1,1,0,*77::$PQGSV,1,1,0,*73",889,2020-02-03 10:12:47:953
-0.399597,-0.105286,9.566513,-0.235572,-0.101404,9.803296,-0.054667,0.016315,-0.122178,-0.06369,0.068436,-0.05043,436.0,-18.9529,-6.9611,-54.2419,110.3589,0.5407,1.305,8.0,937.8795,32.54437,36.04823,-115.13116,603.0,NaN,0.1535837,0.0,7.504,,8 / 13,"$GPVTG,,T,,M,0.0,N,0.0,K,A*23::$GPGSV,3,3,12,31,17,050,22,01,06,205,,06,09,309,,14,09,094,*7F::$GPGSA,A,3,03,04,07,09,16,22,23,26,,,,,1.4,1.1,0.9,1*28::$GPRMC,181248.00,A,3602.893816,N,11507.869101,W,0.0,,030220,12.3,E,A*33::$GPGGA,181248.00,3602.893816,N,11507.869101,W,1,08,1.1,621.0,M,-18.0,M,,*5E::$GAGSV,1,1,0,*74::$GLGSV,1,1,0,*79::$GBGSV,1,1,0,*77::$PQGSV,1,1,0,*73",898,2020-02-03 10:12:47:962
-0.521637,-0.153137,9.693329,-0.246182,-0.110979,9.802932,-0.27634,-0.03288,-0.020824,-0.067368,0.054993,-0.024796,436.0,-16.7847,-5.5634,-54.248,110.3589,0.5407,1.305,8.0,937.8795,32.54437,36.04823,-115.13116,603.0,NaN,0.1535837,0.0,7.504,,8 / 13,"$GPVTG,,T,,M,0.0,N,0.0,K,A*23::$GPGSV,3,3,12,31,17,050,22,01,06,205,,06,09,309,,14,09,094,*7F::$GPGSA,A,3,03,04,07,09,16,22,23,26,,,,,1.4,1.1,0.9,1*28::$GPRMC,181248.00,A,3602.893816,N,11507.869101,W,0.0,,030220,12.3,E,A*33::$GPGGA,181248.00,3602.893816,N,11507.869101,W,1,08,1.1,621.0,M,-18.0,M,,*5E::$GAGSV,1,1,0,*74::$GLGSV,1,1,0,*79::$GBGSV,1,1,0,*77::$PQGSV,1,1,0,*73",908,2020-02-03 10:12:47:972
-0.521637,-0.153137,9.693329,-0.246182,-0.110979,9.802932,-0.27634,-0.03288,-0.020824,-0.039261,-0.023209,0.048508,436.0,-16.7847,-5.5634,-54.248,110.3589,0.5407,1.305,8.0,937.8795,32.54437,36.04823,-115.13116,603.0,NaN,0.1535837,0.0,7.504,,8 / 13,"$GPVTG,,T,,M,0.0,N,0.0,K,A*23::$GPGSV,3,3,12,31,17,050,22,01,06,205,,06,09,309,,14,09,094,*7F::$GPGSA,A,3,03,04,07,09,16,22,23,26,,,,,1.4,1.1,0.9,1*28::$GPRMC,181248.00,A,3602.893816,N,11507.869101,W,0.0,,030220,12.3,E,A*33::$GPGGA,181248.00,3602.893816,N,11507.869101,W,1,08,1.1,621.0,M,-18.0,M,,*5E::$GAGSV,1,1,0,*74::$GLGSV,1,1,0,*79::$GBGSV,1,1,0,*77::$PQGSV,1,1,0,*73",917,2020-02-03 10:12:47:981
