ACCELEROMETER X (m/s²),ACCELEROMETER Y (m/s²),ACCELEROMETER Z (m/s²),GRAVITY X (m/s²),GRAVITY Y (m/s²),GRAVITY Z (m/s²),LINEAR ACCELERATION X (m/s²),LINEAR ACCELERATION Y (m/s²),LINEAR ACCELERATION Z (m/s²),GYROSCOPE X (rad/s),GYROSCOPE Y (rad/s),GYROSCOPE Z (rad/s),LIGHT (lux),MAGNETIC FIELD X (μT),MAGNETIC FIELD Y (μT),MAGNETIC FIELD Z (μT),ORIENTATION Z (azimuth °),ORIENTATION X (pitch °),ORIENTATION Y (roll °),PROXIMITY (m),ATMOSPHERIC PRESSURE (hPa),SOUND LEVEL (dB),LOCATION Latitude : ,LOCATION Longitude : ,LOCATION Altitude ( m),LOCATION Altitude-google ( m),LOCATION Altitude-atmospheric pressure ( m),LOCATION Speed ( m/s),LOCATION Accuracy ( m),LOCATION ORIENTATION (°),Satellites in range,GPS NMEA,Time since start in ms ,YYYY-MO-DD HH-MI-SS_SSS
0.459427,0.528809,9.726822,-0.063596,0.145519,9.805364,0.467607,0.387326,0.116038,0.001038,0.022003,-0.057755,524.0,-18.1931,-4.9255,-52.7832,102.9402,-0.8502,0.3716,8.0,937.9379,29.39552,36.04823,-115.13116,600.0,NaN,0.0018845618,0.0,5.36,,12 / 13,"$GPVTG,,T,,M,0.0,N,0.0,K,A*23::$GPGSV,3,3,12,22,54,178,19,23,54,317,20,26,46,074,18,31,18,049,20*72::$GPGSA,A,3,01,03,04,06,07,09,14,16,22,23,26,31,1.1,0.8,0.7,1*2B::$GPRMC,181016.00,A,3602.893768,N,11507.869350,W,0.0,,030220,12.3,E,A*3A::$GPGGA,181016.00,3602.893768,N,11507.869350,W,1,12,0.8,618.0,M,-18.0,M,,*5E::$GAGSV,1,1,0,*74::$GLGSV,1,1,0,*79::$GBGSV,1,1,0,*77::$PQGSV,1,1,01,193,00,000,28,0,6*69",20,2020-02-03 10:10:15:699
0.459427,0.528809,9.726822,-0.06247,0.147499,9.805342,0.467607,0.387326,0.116038,0.001038,0.022003,-0.057755,524.0,-18.1931,-4.9255,-52.7832,102.9402,-0.8502,0.3716,8.0,937.9379,29.39552,36.04823,-115.13116,600.0,NaN,0.0018845618,0.0,5.36,,12 / 13,"$GPVTG,,T,,M,0.0,N,0.0,K,A*23::$GPGSV,3,3,12,22,54,178,19,23,54,317,20,26,46,074,18,31,18,049,20*72::$GPGSA,A,3,01,03,04,06,07,09,14,16,22,23,26,31,1.1,0.8,0.7,1*2B::$GPRMC,181016.00,A,3602.893768,N,11507.869350,W,0.0,,030220,12.3,E,A*3A::$GPGGA,181016.00,3602.893768,N,11507.869350,W,1,12,0.8,618.0,M,-18.0,M,,*5E::$GAGSV,1,1,0,*74::$GLGSV,1,1,0,*79::$GBGSV,1,1,0,*77::$PQGSV,1,1,01,193,00,000,28,0,6*69",30,2020-02-03 10:10:15:709
0.459427,0.528809,9.726822,-0.06247,0.147499,9.805342,0.467607,0.387326,0.116038,0.001038,0.022003,-0.057755,524.0,-18.1931,-4.9255,-52.7832,102.9402,-0.8502,0.3716,8.0,937.9379,29.39552,36.04823,-115.13116,600.0,NaN,0.0018845618,0.0,5.36,,12 / 13,"$GPVTG,,T,,M,0.0,N,0.0,K,A*23::$GPGSV,3,3,12,22,54,178,19,23,54,317,20,26,46,074,18,31,18,049,20*72::$GPGSA,A,3,01,03,04,06,07,09,14,16,22,23,26,31,1.1,0.8,0.7,1*2B::$GPRMC,181016.00,A,3602.893768,N,11507.869350,W,0.0,,030220,12.3,E,A*3A::$GPGGA,181016.00,3602.893768,N,11507.869350,W,1,12,0.8,618.0,M,-18.0,M,,*5E::$GAGSV,1,1,0,*74::$GLGSV,1,1,0,*79::$GBGSV,1,1,0,*77::$PQGSV,1,1,01,193,00,000,28,0,6*69",40,2020-02-03 10:10:15:719
0.217743,0.382858,9.702896,-0.065192,0.147381,9.805326,0.26151,0.222381,0.052356,-0.006287,0.053772,-0.05899,524.0,-18.9194,-5.6213,-52.0447,102.9402,-0.8502,0.3716,8.0,937.9379,29.39552,36.04823,-115.13116,600.0,NaN,0.0018845618,0.0,5.36,,12 / 13,"$GPVTG,,T,,M,0.0,N,0.0,K,A*23::$GPGSV,3,3,12,22,54,178,19,23,54,317,20,26,46,074,18,31,18,049,20*72::$GPGSA,A,3,01,03,04,06,07,09,14,16,22,23,26,31,1.1,0.8,0.7,1*2B::$GPRMC,181016.00,A,3602.893768,N,11507.869350,W,0.0,,030220,12.3,E,A*3A::$GPGGA,181016.00,3602.893768,N,11507.869350,W,1,12,0.8,618.0,M,-18.0,M,,*5E::$GAGSV,1,1,0,*74::$GLGSV,1,1,0,*79::$GBGSV,1,1,0,*77::$PQGSV,1,1,01,193,00,000,28,0,6*69",50,2020-02-03 10:10:15:729
0.263214,0.26561,9.762711,-0.098732,0.140837,9.805142,0.345956,0.128291,0.110069,-0.029495,0.156387,-0.080963,524.0,-17.5125,-6.2622,-52.774,105.7904,-0.8229,0.5769,8.0,937.9379,29.39552,36.04823,-115.13116,600.0,NaN,0.0018845618,0.0,5.36,,12 / 13,"$GPVTG,,T,,M,0.0,N,0.0,K,A*23::$GPGSV,3,3,12,22,54,178,19,23,54,317,20,26,46,074,18,31,18,049,20*72::$GPGSA,A,3,01,03,04,06,07,09,14,16,22,23,26,31,1.1,0.8,0.7,1*2B::$GPRMC,181016.00,A,3602.893768,N,11507.869350,W,0.0,,030220,12.3,E,A*3A::$GPGGA,181016.00,3602.893768,N,11507.869350,W,1,12,0.8,618.0,M,-18.0,M,,*5E::$GAGSV,1,1,0,*74::$GLGSV,1,1,0,*79::$GBGSV,1,1,0,*77::$PQGSV,1,1,01,193,00,000,28,0,6*69",60,2020-02-03 10:10:15:739
-0.035889,0.279953,9.640686,-0.123879,0.13856,9.804889,0.112267,0.152057,0.022753,-0.01973,0.184509,-0.101746,524.0,-17.5125,-6.2622,-52.774,105.7904,-0.8229,0.5769,8.0,937.9379,29.39552,36.04823,-115.13116,600.0,NaN,0.0018845618,0.0,5.36,,12 / 13,"$GPVTG,,T,,M,0.0,N,0.0,K,A*23::$GPGSV,3,3,12,22,54,178,19,23,54,317,20,26,46,074,18,31,18,049,20*72::$GPGSA,A,3,01,03,04,06,07,09,14,16,22,23,26,31,1.1,0.8,0.7,1*2B::$GPRMC,181016.00,A,3602.893768,N,11507.869350,W,0.0,,030220,12.3,E,A*3A::$GPGGA,181016.00,3602.893768,N,11507.869350,W,1,12,0.8,618.0,M,-18.0,M,,*5E::$GAGSV,1,1,0,*74::$GLGSV,1,1,0,*79::$GBGSV,1,1,0,*77::$PQGSV,1,1,01,193,00,000,28,0,6*69",70,2020-02-03 10:10:15:749
-0.035889,0.279953,9.640686,-0.123879,0.13856,9.804889,0.112267,0.152057,0.022753,-0.01973,0.184509,-0.101746,524.0,-17.5125,-6.2622,-52.774,105.7904,-0.8229,0.5769,8.0,937.9379,29.39552,36.04823,-115.13116,600.0,NaN,0.0018845618,0.0,5.36,,12 / 13,"$GPVTG,,T,,M,0.0,N,0.0,K,A*23::$GPGSV,3,3,12,22,54,178,19,23,54,317,20,26,46,074,18,31,18,049,20*72::$GPGSA,A,3,01,03,04,06,07,09,14,16,22,23,26,31,1.1,0.8,0.7,1*2B::$GPRMC,181016.00,A,3602.893768,N,11507.869350,W,0.0,,030220,12.3,E,A*3A::$GPGGA,181016.00,3602.893768,N,11507.869350,W,1,12,0.8,618.0,M,-18.0,M,,*5E::$GAGSV,1,1,0,*74::$GLGSV,1,1,0,*79::$GBGSV,1,1,0,*77::$PQGSV,1,1,01,193,00,000,28,0,6*69",80,2020-02-03 10:10:15:759
-0.174683,0.24646,9.568893,-0.133557,0.137348,9.804779,-0.015819,0.120962,-0.05006,-0.031937,0.207718,-0.10907,524.0,-18.2404,-6.9534,-52.7725,105.7904,-0.8229,0.5769,8.0,937.9412,29.39552,36.04823,-115.13116,600.0,NaN,-0.025912771,0.0,5.36,,12 / 13,"$GPVTG,,T,,M,0.0,N,0.0,K,A*23::$GPGSV,3,3,12,22,54,178,19,23,54,317,20,26,46,074,18,31,18,049,20*72::$GPGSA,A,3,01,03,04,06,07,09,14,16,22,23,26,31,1.1,0.8,0.7,1*2B::$GPRMC,181016.00,A,3602.893768,N,11507.869350,W,0.0,,030220,12.3,E,A*3A::$GPGGA,181016.00,3602.893768,N,11507.869350,W,1,12,0.8,618.0,M,-18.0,M,,*5E::$GAGSV,1,1,0,*74::$GLGSV,1,1,0,*79::$GBGSV,1,1,0,*77::$PQGSV,1,1,01,193,00,000,28,0,6*69",93,2020-02-03 10:10:15:772
-0.208176,0.141174,9.734009,-0.168237,0.125869,9.804399,-0.0176,0.023365,0.121356,-0.073456,0.147827,-0.104187,524.0,-17.4637,-4.2358,-52.0493,100.5633,-0.7354,0.9831,8.0,937.9412,29.39552,36.04823,-115.13116,600.0,NaN,-0.025912771,0.0,5.36,,12 / 13,"$GPVTG,,T,,M,0.0,N,0.0,K,A*23::$GPGSV,3,3,12,22,54,178,19,23,54,317,20,26,46,074,18,31,18,049,20*72::$GPGSA,A,3,01,03,04,06,07,09,14,16,22,23,26,31,1.1,0.8,0.7,1*2B::$GPRMC,181016.00,A,3602.893768,N,11507.869350,W,0.0,,030220,12.3,E,A*3A::$GPGGA,181016.00,3602.893768,N,11507.869350,W,1,12,0.8,618.0,M,-18.0,M,,*5E::$GAGSV,1,1,0,*74::$GLGSV,1,1,0,*79::$GBGSV,1,1,0,*77::$PQGSV,1,1,01,193,00,000,28,0,6*69",108,2020-02-03 10:10:15:787
-0.208176,0.141174,9.734009,-0.168237,0.125869,9.804399,-0.0176,0.023365,0.121356,-0.073456,0.147827,-0.104187,524.0,-17.4637,-4.2358,-52.0493,100.5633,-0.7354,0.9831,8.0,937.9412,29.39552,36.04823,-115.13116,600.0,NaN,-0.025912771,0.0,5.36,,12 / 13,"$GPVTG,,T,,M,0.0,N,0.0,K,A*23::$GPGSV,3,3,12,22,54,178,19,23,54,317,20,26,46,074,18,31,18,049,20*72::$GPGSA,A,3,01,03,04,06,07,09,14,16,22,23,26,31,1.1,0.8,0.7,1*2B::$GPRMC,181016.00,A,3602.893768,N,11507.869350,W,0.0,,030220,12.3,E,A*3A::$GPGGA,181016.00,3602.893768,N,11507.869350,W,1,12,0.8,618.0,M,-18.0,M,,*5E::$GAGSV,1,1,0,*74::$GLGSV,1,1,0,*79::$GBGSV,1,1,0,*77::$PQGSV,1,1,01,193,00,000,28,0,6*69",113,2020-02-03 10:10:15:792
-0.241669,0.186646,9.92543,-0.183774,0.119365,9.804201,-0.027407,0.074024,0.297162,0.001038,0.064758,-0.132278,524.0,-18.9041,-4.9438,-52.0477,100.5633,-0.7354,0.9831,8.0,937.9412,29.78336,36.04823,-115.13116,600.0,NaN,-0.025912771,0.0,5.36,,12 / 13,"$GPVTG,,T,,M,0.0,N,0.0,K,A*23::$GPGSV,3,3,12,22,54,178,19,23,54,317,20,26,46,074,18,31,18,049,20*72::$GPGSA,A,3,01,03,04,06,07,09,14,16,22,23,26,31,1.1,0.8,0.7,1*2B::$GPRMC,181016.00,A,3602.893768,N,11507.869350,W,0.0,,030220,12.3,E,A*3A::$GPGGA,181016.00,3602.893768,N,11507.869350,W,1,12,0.8,618.0,M,-18.0,M,,*5E::$GAGSV,1,1,0,*74::$GLGSV,1,1,0,*79::$GBGSV,1,1,0,*77::$PQGSV,1,1,01,193,00,000,28,0,6*69",120,2020-02-03 10:10:15:799
-0.701096,0.088531,9.681366,-0.183774,0.119365,9.804201,-0.027407,0.074024,0.297162,0.01326,0.061096,-0.124954,524.0,-18.9041,-4.9438,-52.0477,100.5633,-0.7354,0.9831,8.0,937.9412,29.78336,36.04823,-115.13116,600.0,NaN,-0.025912771,0.0,5.36,,12 / 13,"$GPVTG,,T,,M,0.0,N,0.0,K,A*23::$GPGSV,3,3,12,22,54,178,19,23,54,317,20,26,46,074,18,31,18,049,20*72::$GPGSA,A,3,01,03,04,06,07,09,14,16,22,23,26,31,1.1,0.8,0.7,1*2B::$GPRMC,181016.00,A,3602.893768,N,11507.869350,W,0.0,,030220,12.3,E,A*3A::$GPGGA,181016.00,3602.893768,N,11507.869350,W,1,12,0.8,618.0,M,-18.0,M,,*5E::$GAGSV,1,1,0,*74::$GLGSV,1,1,0,*79::$GBGSV,1,1,0,*77::$PQGSV,1,1,01,193,00,000,28,0,6*69",130,2020-02-03 10:10:15:809
-0.701096,0.088531,9.681366,-0.19775,0.120911,9.80391,-0.526907,-0.026809,0.013235,0.01326,0.061096,-0.124954,524.0,-18.9041,-4.9438,-52.0477,100.5633,-0.7354,0.9831,8.0,937.9412,29.78336,36.04823,-115.13116,600.0,NaN,-0.025912771,0.0,5.36,,12 / 13,"$GPVTG,,T,,M,0.0,N,0.0,K,A*23::$GPGSV,3,3,12,22,54,178,19,23,54,317,20,26,46,074,18,31,18,049,20*72::$GPGSA,A,3,01,03,04,06,07,09,14,16,22,23,26,31,1.1,0.8,0.7,1*2B::$GPRMC,181016.00,A,3602.893768,N,11507.869350,W,0.0,,030220,12.3,E,A*3A::$GPGGA,181016.00,3602.893768,N,11507.869350,W,1,12,0.8,618.0,M,-18.0,M,,*5E::$GAGSV,1,1,0,*74::$GLGSV,1,1,0,*79::$GBGSV,1,1,0,*77::$PQGSV,1,1,01,193,00,000,28,0,6*69",140,2020-02-03 10:10:15:819
-0.82074,0.098099,9.542572,-0.202755,0.120791,9.803809,-0.600949,-0.0255,-0.076323,-0.001404,0.094086,-0.077316,524.0,-18.2251,-6.2851,-51.3046,105.7773,-0.7064,1.1555,8.0,937.9412,29.78336,36.04823,-115.13116,600.0,NaN,-0.025912771,0.0,5.36,,12 / 13,"$GPVTG,,T,,M,0.0,N,0.0,K,A*23::$GPGSV,3,3,12,22,54,178,19,23,54,317,20,26,46,074,18,31,18,049,20*72::$GPGSA,A,3,01,03,04,06,07,09,14,16,22,23,26,31,1.1,0.8,0.7,1*2B::$GPRMC,181016.00,A,3602.893768,N,11507.869350,W,0.0,,030220,12.3,E,A*3A::$GPGGA,181016.00,3602.893768,N,11507.869350,W,1,12,0.8,618.0,M,-18.0,M,,*5E::$GAGSV,1,1,0,*74::$GLGSV,1,1,0,*79::$GBGSV,1,1,0,*77::$PQGSV,1,1,01,193,00,000,28,0,6*69",149,2020-02-03 10:10:15:828
-0.82074,0.098099,9.542572,-0.202755,0.120791,9.803809,-0.600949,-0.0255,-0.076323,-0.001404,0.094086,-0.077316,524.0,-18.2251,-6.2851,-51.3046,105.7773,-0.7064,1.1555,8.0,937.9412,29.78336,36.04823,-115.13116,600.0,NaN,-0.025912771,0.0,5.36,,12 / 13,"$GPVTG,,T,,M,0.0,N,0.0,K,A*23::$GPGSV,3,3,12,22,54,178,19,23,54,317,20,26,46,074,18,31,18,049,20*72::$GPGSA,A,3,01,03,04,06,07,09,14,16,22,23,26,31,1.1,0.8,0.7,1*2B::$GPRMC,181016.00,A,3602.893768,N,11507.869350,W,0.0,,030220,12.3,E,A*3A::$GPGGA,181016.00,3602.893768,N,11507.869350,W,1,12,0.8,618.0,M,-18.0,M,,*5E::$GAGSV,1,1,0,*74::$GLGSV,1,1,0,*79::$GBGSV,1,1,0,*77::$PQGSV,1,1,01,193,00,000,28,0,6*69",160,2020-02-03 10:10:15:839
-0.82074,0.098099,9.542572,-0.202755,0.120791,9.803809,-0.600949,-0.0255,-0.076323,-0.001404,0.094086,-0.077316,524.0,-18.2251,-6.2851,-51.3046,105.7773,-0.7064,1.1555,8.0,937.9412,29.78336,36.04823,-115.13116,600.0,NaN,-0.025912771,0.0,5.36,,12 / 13,"$GPVTG,,T,,M,0.0,N,0.0,K,A*23::$GPGSV,3,3,12,22,54,178,19,23,54,317,20,26,46,074,18,31,18,049,20*72::$GPGSA,A,3,01,03,04,06,07,09,14,16,22,23,26,31,1.1,0.8,0.7,1*2B::$GPRMC,181016.00,A,3602.893768,N,11507.869350,W,0.0,,030220,12.3,E,A*3A::$GPGGA,181016.00,3602.893768,N,11507.869350,W,1,12,0.8,618.0,M,-18.0,M,,*5E::$GAGSV,1,1,0,*74::$GLGSV,1,1,0,*79::$GBGSV,1,1,0,*77::$PQGSV,1,1,01,193,00,000,28,0,6*69",170,2020-02-03 10:10:15:849
-0.239288,0.004791,9.918243,-0.224043,0.113259,9.803437,-0.003332,-0.089876,0.296622,-0.027054,0.04277,-0.04187,524.0,-18.2266,-6.2759,-53.5095,105.7773,-0.7064,1.1555,8.0,937.9412,29.78336,36.04823,-115.13116,600.0,NaN,-0.025912771,0.0,5.36,,12 / 13,"$GPVTG,,T,,M,0.0,N,0.0,K,A*23::$GPGSV,3,3,12,22,54,178,19,23,54,317,20,26,46,074,18,31,18,049,20*72::$GPGSA,A,3,01,03,04,06,07,09,14,16,22,23,26,31,1.1,0.8,0.7,1*2B::$GPRMC,181016.00,A,3602.893768,N,11507.869350,W,0.0,,030220,12.3,E,A*3A::$GPGGA,181016.00,3602.893768,N,11507.869350,W,1,12,0.8,618.0,M,-18.0,M,,*5E::$GAGSV,1,1,0,*74::$GLGSV,1,1,0,*79::$GBGSV,1,1,0,*77::$PQGSV,1,1,01,193,00,000,28,0,6*69",180,2020-02-03 10:10:15:859
-0.275177,0.076569,9.552155,-0.232194,0.119452,9.803174,-0.046729,-0.051713,-0.053362,0.037689,0.054993,-0.082199,639.0,-18.2266,-6.2759,-53.5095,105.7773,-0.7064,1.1555,8.0,937.9412,29.78336,36.04823,-115.13116,600.0,NaN,-0.025912771,0.0,5.36,,12 / 13,"$GPVTG,,T,,M,0.0,N,0.0,K,A*23::$GPGSV,3,3,12,22,54,178,19,23,54,317,20,26,46,074,18,31,18,049,20*72::$GPGSA,A,3,01,03,04,06,07,09,14,16,22,23,26,31,1.1,0.8,0.7,1*2B::$GPRMC,181016.00,A,3602.893768,N,11507.869350,W,0.0,,030220,12.3,E,A*3A::$GPGGA,181016.00,3602.893768,N,11507.869350,W,1,12,0.8,618.0,M,-18.0,M,,*5E::$GAGSV,1,1,0,*74::$GLGSV,1,1,0,*79::$GBGSV,1,1,0,*77::$PQGSV,1,1,01,193,00,000,28,0,6*69",190,2020-02-03 10:10:15:869
-0.342178,0.169891,9.401398,-0.244414,0.119502,9.802876,-0.094556,0.049932,-0.246076,-0.018494,0.096527,-0.071198,639.0,-17.4973,-5.5756,-54.9835,106.2542,-0.6979,1.3568,8.0,937.9412,29.78336,36.04823,-115.13116,600.0,NaN,-0.025912771,0.0,5.36,,12 / 13,"$GPVTG,,T,,M,0.0,N,0.0,K,A*23::$GPGSV,3,3,12,22,54,178,19,23,54,317,20,26,46,074,18,31,18,049,20*72::$GPGSA,A,3,01,03,04,06,07,09,14,16,22,23,26,31,1.1,0.8,0.7,1*2B::$GPRMC,181016.00,A,3602.893768,N,11507.869350,W,0.0,,030220,12.3,E,A*3A::$GPGGA,181016.00,3602.893768,N,11507.869350,W,1,12,0.8,618.0,M,-18.0,M,,*5E::$GAGSV,1,1,0,*74::$GLGSV,1,1,0,*79::$GBGSV,1,1,0,*77::$PQGSV,1,1,01,193,00,000,28,0,6*69",199,2020-02-03 10:10:15:878
-0.342178,0.169891,9.401398,-0.244414,0.119502,9.802876,-0.094556,0.049932,-0.246076,-0.018494,0.096527,-0.071198,639.0,-17.4973,-5.5756,-54.9835,106.2542,-0.6979,1.3568,8.0,937.9412,29.78336,36.04823,-115.13116,600.0,NaN,-0.025912771,0.0,5.36,,12 / 13,"$GPVTG,,T,,M,0.0,N,0.0,K,A*23::$GPGSV,3,3,12,22,54,178,19,23,54,317,20,26,46,074,18,31,18,049,20*72::$GPGSA,A,3,01,03,04,06,07,09,14,16,22,23,26,31,1.1,0.8,0.7,1*2B::$GPRMC,181016.00,A,3602.893768,N,11507.869350,W,0.0,,030220,12.3,E,A*3A::$GPGGA,181016.00,3602.893768,N,11507.869350,W,1,12,0.8,618.0,M,-18.0,M,,*5E::$GAGSV,1,1,0,*74::$GLGSV,1,1,0,*79::$GBGSV,1,1,0,*77::$PQGSV,1,1,01,193,00,000,28,0,6*69",209,2020-02-03 10:10:15:888
-0.263214,0.155533,9.564117,-0.254472,0.114768,9.802675,-9.14E-4,0.035457,-0.048186,-0.051498,0.102646,-0.069977,639.0,-16.0721,-5.5466,-54.248,106.2542,-0.6979,1.3568,8.0,937.9412,29.78336,36.04823,-115.13116,600.0,NaN,-0.025912771,0.0,5.36,,12 / 13,"$GPVTG,,T,,M,0.0,N,0.0,K,A*23::$GPGSV,3,3,12,22,54,178,19,23,54,317,20,26,46,074,18,31,18,049,20*72::$GPGSA,A,3,01,03,04,06,07,09,14,16,22,23,26,31,1.1,0.8,0.7,1*2B::$GPRMC,181016.00,A,3602.893768,N,11507.869350,W,0.0,,030220,12.3,E,A*3A::$GPGGA,181016.00,3602.893768,N,11507.869350,W,1,12,0.8,618.0,M,-18.0,M,,*5E::$GAGSV,1,1,0,*74::$GLGSV,1,1,0,*79::$GBGSV,1,1,0,*77::$PQGSV,1,1,01,193,00,000,28,0,6*69",226,2020-02-03 10:10:15:905
-0.239288,0.153137,9.879959,-0.266972,0.107034,9.802432,0.023361,0.055023,0.219509,-0.042938,0.07576,-0.074875,639.0,-16.0721,-5.5466,-54.248,106.2542,-0.6979,1.3568,8.0,937.9412,29.78336,36.04823,-115.13116,600.0,NaN,-0.025912771,0.0,5.36,,12 / 13,"$GPVTG,,T,,M,0.0,N,0.0,K,A*23::$GPGSV,3,3,12,22,54,178,19,23,54,317,20,26,46,074,18,31,18,049,20*72::$GPGSA,A,3,01,03,04,06,07,09,14,16,22,23,26,31,1.1,0.8,0.7,1*2B::$GPRMC,181016.00,A,3602.893768,N,11507.869350,W,0.0,,030220,12.3,E,A*3A::$GPGGA,181016.00,3602.893768,N,11507.869350,W,1,12,0.8,618.0,M,-18.0,M,,*5E::$GAGSV,1,1,0,*74::$GLGSV,1,1,0,*79::$GBGSV,1,1,0,*77::$PQGSV,1,1,01,193,00,000,28,0,6*69",230,2020-02-03 10:10:15:909
-0.239288,0.153137,9.879959,-0.266972,0.107034,9.802432,0.023361,0.055023,0.219509,-0.042938,0.07576,-0.074875,639.0,-17.4973,-5.5756,-54.9835,106.2927,-0.6254,1.5601,8.0,937.9463,29.78336,36.04823,-115.13116,600.0,NaN,-0.068786815,0.0,5.36,,12 / 13,"$GPVTG,,T,,M,0.0,N,0.0,K,A*23::$GPGSV,3,3,12,22,54,178,19,23,54,317,20,26,46,074,18,31,18,049,20*72::$GPGSA,A,3,01,03,04,06,07,09,14,16,22,23,26,31,1.1,0.8,0.7,1*2B::$GPRMC,181016.00,A,3602.893768,N,11507.869350,W,0.0,,030220,12.3,E,A*3A::$GPGGA,181016.00,3602.893768,N,11507.869350,W,1,12,0.8,618.0,M,-18.0,M,,*5E::$GAGSV,1,1,0,*74::$GLGSV,1,1,0,*79::$GBGSV,1,1,0,*77::$PQGSV,1,1,01,193,00,000,28,0,6*69",240,2020-02-03 10:10:15:919
-0.37088,0.090927,9.94696,-0.273255,0.105428,9.802275,-0.079286,-0.006829,0.311433,0.021805,-0.009766,-0.08342,639.0,-17.4973,-5.5756,-54.9835,106.2927,-0.6254,1.5601,8.0,937.9463,29.78336,36.04823,-115.13116,600.0,NaN,-0.068786815,0.0,5.36,,12 / 13,"$GPVTG,,T,,M,0.0,N,0.0,K,A*23::$GPGSV,3,3,12,22,54,178,19,23,54,317,20,26,46,074,18,31,18,049,20*72::$GPGSA,A,3,01,03,04,06,07,09,14,16,22,23,26,31,1.1,0.8,0.7,1*2B::$GPRMC,181016.00,A,3602.893768,N,11507.869350,W,0.0,,030220,12.3,E,A*3A::$GPGGA,181016.00,3602.893768,N,11507.869350,W,1,12,0.8,618.0,M,-18.0,M,,*5E::$GAGSV,1,1,0,*74::$GLGSV,1,1,0,*79::$GBGSV,1,1,0,*77::$PQGSV,1,1,01,193,00,000,28,0,6*69",250,2020-02-03 10:10:15:929
-0.397202,0.086136,9.750748,-0.269529,0.111603,9.80231,-0.145141,-0.021291,0.139534,0.058456,-0.035416,-0.073639,639.0,-16.04,-4.1977,-53.5187,106.2927,-0.6254,1.5601,8.0,937.9463,29.78336,36.04823,-115.13116,600.0,NaN,-0.068786815,0.0,5.36,,12 / 13,"$GPVTG,,T,,M,0.0,N,0.0,K,A*23::$GPGSV,3,3,12,22,54,178,19,23,54,317,20,26,46,074,18,31,18,049,20*72::$GPGSA,A,3,01,03,04,06,07,09,14,16,22,23,26,31,1.1,0.8,0.7,1*2B::$GPRMC,181016.00,A,3602.893768,N,11507.869350,W,0.0,,030220,12.3,E,A*3A::$GPGGA,181016.00,3602.893768,N,11507.869350,W,1,12,0.8,618.0,M,-18.0,M,,*5E::$GAGSV,1,1,0,*74::$GLGSV,1,1,0,*79::$GBGSV,1,1,0,*77::$PQGSV,1,1,01,193,00,000,28,0,6*69",259,2020-02-03 10:10:15:938
-0.397202,0.086136,9.750748,-0.269529,0.111603,9.80231,-0.145141,-0.021291,0.139534,0.068237,-0.026855,-0.05899,639.0,-16.04,-4.1977,-53.5187,106.2927,-0.6254,1.5601,8.0,937.9463,29.78336,36.04823,-115.13116,600.0,NaN,-0.068786815,0.0,5.36,,12 / 13,"$GPVTG,,T,,M,0.0,N,0.0,K,A*23::$GPGSV,3,3,12,22,54,178,19,23,54,317,20,26,46,074,18,31,18,049,20*72::$GPGSA,A,3,01,03,04,06,07,09,14,16,22,23,26,31,1.1,0.8,0.7,1*2B::$GPRMC,181016.00,A,3602.893768,N,11507.869350,W,0.0,,030220,12.3,E,A*3A::$GPGGA,181016.00,3602.893768,N,11507.869350,W,1,12,0.8,618.0,M,-18.0,M,,*5E::$GAGSV,1,1,0,*74::$GLGSV,1,1,0,*79::$GBGSV,1,1,0,*77::$PQGSV,1,1,01,193,00,000,28,0,6*69",271,2020-02-03 10:10:15:950
-0.323029,0.093323,9.540192,-0.266719,0.12034,9.802283,-0.073733,-0.028683,-0.076984,0.060913,-0.014648,-0.045547,639.0,-16.0248,-3.5141,-54.9942,100.7809,-0.7031,1.5586,8.0,937.9463,29.78336,36.04823,-115.13116,600.0,NaN,-0.068786815,0.0,5.36,,12 / 13,"$GPVTG,,T,,M,0.0,N,0.0,K,A*23::$GPGSV,3,3,12,22,54,178,19,23,54,317,20,26,46,074,18,31,18,049,20*72::$GPGSA,A,3,01,03,04,06,07,09,14,16,22,23,26,31,1.1,0.8,0.7,1*2B::$GPRMC,181016.00,A,3602.893768,N,11507.869350,W,0.0,,030220,12.3,E,A*3A::$GPGGA,181016.00,3602.893768,N,11507.869350,W,1,12,0.8,618.0,M,-18.0,M,,*5E::$GAGSV,1,1,0,*74::$GLGSV,1,1,0,*79::$GBGSV,1,1,0,*77::$PQGSV,1,1,01,193,00,000,28,0,6*69",280,2020-02-03 10:10:15:959
-0.323029,0.093323,9.540192,-0.266719,0.12034,9.802283,-0.073733,-0.028683,-0.076984,0.060913,-0.014648,-0.045547,639.0,-16.0248,-3.5141,-54.9942,100.7809,-0.7031,1.5586,8.0,937.9463,29.78336,36.04823,-115.13116,600.0,NaN,-0.068786815,0.0,5.36,,12 / 13,"$GPVTG,,T,,M,0.0,N,0.0,K,A*23::$GPGSV,3,3,12,22,54,178,19,23,54,317,20,26,46,074,18,31,18,049,20*72::$GPGSA,A,3,01,03,04,06,07,09,14,16,22,23,26,31,1.1,0.8,0.7,1*2B::$GPRMC,181016.00,A,3602.893768,N,11507.869350,W,0.0,,030220,12.3,E,A*3A::$GPGGA,181016.00,3602.893768,N,11507.869350,W,1,12,0.8,618.0,M,-18.0,M,,*5E::$GAGSV,1,1,0,*74::$GLGSV,1,1,0,*79::$GBGSV,1,1,0,*77::$PQGSV,1,1,01,193,00,000,28,0,6*69",289,2020-02-03 10:10:15:968
-0.361313,0.241669,9.365509,-0.269738,0.12798,9.802104,-0.081557,0.106181,-0.283651,0.020584,0.023224,-0.035782,639.0,-17.4973,-5.5832,-53.5126,100.7809,-0.7031,1.5586,8.0,937.9463,29.78336,36.04823,-115.13116,600.0,NaN,-0.068786815,0.0,5.36,,12 / 13,"$GPVTG,,T,,M,0.0,N,0.0,K,A*23::$GPGSV,3,3,12,22,54,178,19,23,54,317,20,26,46,074,18,31,18,049,20*72::$GPGSA,A,3,01,03,04,06,07,09,14,16,22,23,26,31,1.1,0.8,0.7,1*2B::$GPRMC,181016.00,A,3602.893768,N,11507.869350,W,0.0,,030220,12.3,E,A*3A::$GPGGA,181016.00,3602.893768,N,11507.869350,W,1,12,0.8,618.0,M,-18.0,M,,*5E::$GAGSV,1,1,0,*74::$GLGSV,1,1,0,*79::$GBGSV,1,1,0,*77::$PQGSV,1,1,01,193,00,000,28,0,6*69",299,2020-02-03 10:10:15:978
-0.311066,0.270386,9.434906,-0.268389,0.131338,9.802097,-0.075747,0.124439,-0.21417,0.012039,-0.047623,-0.016235,639.0,-17.4973,-5.5832,-53.5126,100.7809,-0.7031,1.5586,8.0,937.9463,29.78336,36.04823,-115.13116,600.0,NaN,-0.068786815,0.0,5.36,,12 / 13,"$GPVTG,,T,,M,0.0,N,0.0,K,A*23::$GPGSV,3,3,12,22,54,178,19,23,54,317,20,26,46,074,18,31,18,049,20*72::$GPGSA,A,3,01,03,04,06,07,09,14,16,22,23,26,31,1.1,0.8,0.7,1*2B::$GPRMC,181016.00,A,3602.893768,N,11507.869350,W,0.0,,030220,12.3,E,A*3A::$GPGGA,181016.00,3602.893768,N,11507.869350,W,1,12,0.8,618.0,M,-18.0,M,,*5E::$GAGSV,1,1,0,*74::$GLGSV,1,1,0,*79::$GBGSV,1,1,0,*77::$PQGSV,1,1,01,193,00,000,28,0,6*69",310,2020-02-03 10:10:15:989
-0.311066,0.270386,9.434906,-0.268389,0.131338,9.802097,-0.075747,0.124439,-0.21417,0.015701,-0.108704,-0.016235,639.0,-17.482,-4.8981,-54.9866,102.996,-0.7674,1.5684,8.0,937.9463,29.78336,36.04823,-115.13116,600.0,NaN,-0.068786815,0.0,5.36,,12 / 13,"$GPVTG,,T,,M,0.0,N,0.0,K,A*23::$GPGSV,3,3,12,22,54,178,19,23,54,317,20,26,46,074,18,31,18,049,20*72::$GPGSA,A,3,01,03,04,06,07,09,14,16,22,23,26,31,1.1,0.8,0.7,1*2B::$GPRMC,181016.00,A,3602.893768,N,11507.869350,W,0.0,,030220,12.3,E,A*3A::$GPGGA,181016.00,3602.893768,N,11507.869350,W,1,12,0.8,618.0,M,-18.0,M,,*5E::$GAGSV,1,1,0,*74::$GLGSV,1,1,0,*79::$GBGSV,1,1,0,*77::$PQGSV,1,1,01,193,00,000,28,0,6*69",320,2020-02-03 10:10:15:999
0.086136,0.291931,9.387039,-0.252309,0.133979,9.802488,0.275707,0.167308,-0.247251,0.002274,-0.123367,-0.057755,639.0,-17.482,-4.8981,-54.9866,102.996,-0.7674,1.5684,8.0,937.9463,29.78336,36.04823,-115.13116,600.0,NaN,-0.068786815,0.0,5.36,,12 / 13,"$GPVTG,,T,,M,0.0,N,0.0,K,A*23::$GPGSV,3,3,12,22,54,178,19,23,54,317,20,26,46,074,18,31,18,049,20*72::$GPGSA,A,3,01,03,04,06,07,09,14,16,22,23,26,31,1.1,0.8,0.7,1*2B::$GPRMC,181016.00,A,3602.893768,N,11507.869350,W,0.0,,030220,12.3,E,A*3A::$GPGGA,181016.00,3602.893768,N,11507.869350,W,1,12,0.8,618.0,M,-18.0,M,,*5E::$GAGSV,1,1,0,*74::$GLGSV,1,1,0,*79::$GBGSV,1,1,0,*77::$PQGSV,1,1,01,193,00,000,28,0,6*69",334,2020-02-03 10:10:16:013
0.279953,0.251251,9.626328,-0.233919,0.133781,9.802947,0.501682,0.156754,-0.022185,0.002274,-0.123367,-0.057755,639.0,-17.482,-4.9057,-53.5156,102.996,-0.7674,1.5684,8.0,937.9463,29.78336,36.04823,-115.13116,600.0,NaN,-0.068786815,0.0,5.36,,12 / 13,"$GPVTG,,T,,M,0.0,N,0.0,K,A*23::$GPGSV,3,3,12,22,54,178,19,23,54,317,20,26,46,074,18,31,18,049,20*72::$GPGSA,A,3,01,03,04,06,07,09,14,16,22,23,26,31,1.1,0.8,0.7,1*2B::$GPRMC,181016.00,A,3602.893768,N,11507.869350,W,0.0,,030220,12.3,E,A*3A::$GPGGA,181016.00,3602.893768,N,11507.869350,W,1,12,0.8,618.0,M,-18.0,M,,*5E::$GAGSV,1,1,0,*74::$GLGSV,1,1,0,*79::$GBGSV,1,1,0,*77::$PQGSV,1,1,01,193,00,000,28,0,6*69",340,2020-02-03 10:10:16:019
0.148361,0.232101,9.671783,-0.22656,0.13187,9.803145,0.407103,0.103595,0.027859,-0.025833,-0.039093,-0.107849,639.0,-16.7847,-5.5679,-53.5126,106.1382,-0.7705,1.3239,8.0,937.9463,29.78336,36.04823,-115.13116,600.0,NaN,-0.068786815,0.0,5.36,,12 / 13,"$GPVTG,,T,,M,0.0,N,0.0,K,A*23::$GPGSV,3,3,12,22,54,178,19,23,54,317,20,26,46,074,18,31,18,049,20*72::$GPGSA,A,3,01,03,04,06,07,09,14,16,22,23,26,31,1.1,0.8,0.7,1*2B::$GPRMC,181016.00,A,3602.893768,N,11507.869350,W,0.0,,030220,12.3,E,A*3A::$GPGGA,181016.00,3602.893768,N,11507.869350,W,1,12,0.8,618.0,M,-18.0,M,,*5E::$GAGSV,1,1,0,*74::$GLGSV,1,1,0,*79::$GBGSV,1,1,0,*77::$PQGSV,1,1,01,193,00,000,28,0,6*69",350,2020-02-03 10:10:16:029
0.148361,0.232101,9.671783,-0.22656,0.13187,9.803145,0.407103,0.103595,0.027859,-0.025833,-0.039093,-0.107849,639.0,-16.7847,-5.5679,-53.5126,106.1382,-0.7705,1.3239,8.0,937.9463,29.78336,36.04823,-115.13116,600.0,NaN,-0.068786815,0.0,5.36,,12 / 13,"$GPVTG,,T,,M,0.0,N,0.0,K,A*23::$GPGSV,3,3,12,22,54,178,19,23,54,317,20,26,46,074,18,31,18,049,20*72::$GPGSA,A,3,01,03,04,06,07,09,14,16,22,23,26,31,1.1,0.8,0.7,1*2B::$GPRMC,181016.00,A,3602.893768,N,11507.869350,W,0.0,,030220,12.3,E,A*3A::$GPGGA,181016.00,3602.893768,N,11507.869350,W,1,12,0.8,618.0,M,-18.0,M,,*5E::$GAGSV,1,1,0,*74::$GLGSV,1,1,0,*79::$GBGSV,1,1,0,*77::$PQGSV,1,1,01,193,00,000,28,0,6*69",362,2020-02-03 10:10:16:041
-0.272781,0.119644,9.702896,-0.238746,0.12229,9.80298,-0.034354,0.011317,0.044671,-0.080811,0.133179,-0.105408,639.0,-16.7847,-5.5679,-53.5126,106.1382,-0.7705,1.3239,8.0,937.9463,29.78336,36.04823,-115.13116,600.0,NaN,-0.068786815,0.0,5.36,,12 / 13,"$GPVTG,,T,,M,0.0,N,0.0,K,A*23::$GPGSV,3,3,12,22,54,178,19,23,54,317,20,26,46,074,18,31,18,049,20*72::$GPGSA,A,3,01,03,04,06,07,09,14,16,22,23,26,31,1.1,0.8,0.7,1*2B::$GPRMC,181016.00,A,3602.893768,N,11507.869350,W,0.0,,030220,12.3,E,A*3A::$GPGGA,181016.00,3602.893768,N,11507.869350,W,1,12,0.8,618.0,M,-18.0,M,,*5E::$GAGSV,1,1,0,*74::$GLGSV,1,1,0,*79::$GBGSV,1,1,0,*77::$PQGSV,1,1,01,193,00,000,28,0,6*69",370,2020-02-03 10:10:16:049
-0.272781,0.119644,9.702896,-0.238746,0.12229,9.80298,-0.034354,0.011317,0.044671,-0.080811,0.133179,-0.105408,639.0,-16.7847,-5.5679,-53.5126,106.1382,-0.7705,1.3239,8.0,937.9463,29.78336,36.04823,-115.13116,600.0,NaN,-0.068786815,0.0,5.36,,12 / 13,"$GPVTG,,T,,M,0.0,N,0.0,K,A*23::$GPGSV,3,3,12,22,54,178,19,23,54,317,20,26,46,074,18,31,18,049,20*72::$GPGSA,A,3,01,03,04,06,07,09,14,16,22,23,26,31,1.1,0.8,0.7,1*2B::$GPRMC,181016.00,A,3602.893768,N,11507.869350,W,0.0,,030220,12.3,E,A*3A::$GPGGA,181016.00,3602.893768,N,11507.869350,W,1,12,0.8,618.0,M,-18.0,M,,*5E::$GAGSV,1,1,0,*74::$GLGSV,1,1,0,*79::$GBGSV,1,1,0,*77::$PQGSV,1,1,01,193,00,000,28,0,6*69",380,2020-02-03 10:10:16:059
-0.356537,0.08136,9.714859,-0.253676,0.113813,9.802708,-0.097437,-0.038971,0.074666,-0.085693,0.16127,-0.096848,691.0,-18.2404,-6.9534,-52.7725,106.1382,-0.7705,1.3239,8.0,937.9479,29.78336,36.04823,-115.13116,600.0,NaN,-0.08292117,0.0,5.36,,12 / 13,"$GPVTG,,T,,M,0.0,N,0.0,K,A*23::$GPGSV,3,3,12,22,54,178,19,23,54,317,20,26,46,074,18,31,18,049,20*72::$GPGSA,A,3,01,03,04,06,07,09,14,16,22,23,26,31,1.1,0.8,0.7,1*2B::$GPRMC,181016.00,A,3602.893768,N,11507.869350,W,0.0,,030220,12.3,E,A*3A::$GPGGA,181016.00,3602.893768,N,11507.869350,W,1,12,0.8,618.0,M,-18.0,M,,*5E::$GAGSV,1,1,0,*74::$GLGSV,1,1,0,*79::$GBGSV,1,1,0,*77::$PQGSV,1,1,01,193,00,000,28,0,6*69",390,2020-02-03 10:10:16:069
-0.356537,0.08136,9.714859,-0.253676,0.113813,9.802708,-0.097437,-0.038971,0.074666,-0.085693,0.16127,-0.096848,691.0,-18.2404,-6.9534,-52.7725,106.1382,-0.7705,1.3239,8.0,937.9479,29.78336,36.04823,-115.13116,600.0,NaN,-0.08292117,0.0,5.36,,12 / 13,"$GPVTG,,T,,M,0.0,N,0.0,K,A*23::$GPGSV,3,3,12,22,54,178,19,23,54,317,20,26,46,074,18,31,18,049,20*72::$GPGSA,A,3,01,03,04,06,07,09,14,16,22,23,26,31,1.1,0.8,0.7,1*2B::$GPRMC,181016.00,A,3602.893768,N,11507.869350,W,0.0,,030220,12.3,E,A*3A::$GPGGA,181016.00,3602.893768,N,11507.869350,W,1,12,0.8,618.0,M,-18.0,M,,*5E::$GAGSV,1,1,0,*74::$GLGSV,1,1,0,*79::$GBGSV,1,1,0,*77::$PQGSV,1,1,01,193,00,000,28,0,6*69",401,2020-02-03 10:10:16:080
-0.301498,0.078964,9.879959,-0.277124,0.099083,9.802234,-0.028873,-0.01851,0.254803,-0.035614,0.086761,-0.102966,691.0,-18.2083,-5.6061,-52.0447,105.7247,-0.5789,1.6194,8.0,937.9479,29.78336,36.04823,-115.13116,600.0,NaN,-0.08292117,0.0,5.36,,12 / 13,"$GPVTG,,T,,M,0.0,N,0.0,K,A*23::$GPGSV,3,3,12,22,54,178,19,23,54,317,20,26,46,074,18,31,18,049,20*72::$GPGSA,A,3,01,03,04,06,07,09,14,16,22,23,26,31,1.1,0.8,0.7,1*2B::$GPRMC,181016.00,A,3602.893768,N,11507.869350,W,0.0,,030220,12.3,E,A*3A::$GPGGA,181016.00,3602.893768,N,11507.869350,W,1,12,0.8,618.0,M,-18.0,M,,*5E::$GAGSV,1,1,0,*74::$GLGSV,1,1,0,*79::$GBGSV,1,1,0,*77::$PQGSV,1,1,01,193,00,000,28,0,6*69",410,2020-02-03 10:10:16:089
-0.631699,0.112457,9.688538,-0.287382,0.098905,9.801939,-0.372912,0.022341,0.016638,0.015701,0.054993,-0.094406,691.0,-17.4805,-4.9149,-51.3107,105.7247,-0.5789,1.6194,8.0,937.9479,29.78336,36.04823,-115.13116,600.0,NaN,-0.08292117,0.0,5.36,,12 / 13,"$GPVTG,,T,,M,0.0,N,0.0,K,A*23::$GPGSV,3,3,12,22,54,178,19,23,54,317,20,26,46,074,18,31,18,049,20*72::$GPGSA,A,3,01,03,04,06,07,09,14,16,22,23,26,31,1.1,0.8,0.7,1*2B::$GPRMC,181016.00,A,3602.893768,N,11507.869350,W,0.0,,030220,12.3,E,A*3A::$GPGGA,181016.00,3602.893768,N,11507.869350,W,1,12,0.8,618.0,M,-18.0,M,,*5E::$GAGSV,1,1,0,*74::$GLGSV,1,1,0,*79::$GBGSV,1,1,0,*77::$PQGSV,1,1,01,193,00,000,28,0,6*69",420,2020-02-03 10:10:16:099
-0.631699,0.112457,9.688538,-0.287382,0.098905,9.801939,-0.372912,0.022341,0.016638,0.015701,0.054993,-0.094406,691.0,-17.4805,-4.9149,-51.3107,105.7247,-0.5789,1.6194,8.0,937.9479,29.78336,36.04823,-115.13116,600.0,NaN,-0.08292117,0.0,5.36,,12 / 13,"$GPVTG,,T,,M,0.0,N,0.0,K,A*23::$GPGSV,3,3,12,22,54,178,19,23,54,317,20,26,46,074,18,31,18,049,20*72::$GPGSA,A,3,01,03,04,06,07,09,14,16,22,23,26,31,1.1,0.8,0.7,1*2B::$GPRMC,181016.00,A,3602.893768,N,11507.869350,W,0.0,,030220,12.3,E,A*3A::$GPGGA,181016.00,3602.893768,N,11507.869350,W,1,12,0.8,618.0,M,-18.0,M,,*5E::$GAGSV,1,1,0,*74::$GLGSV,1,1,0,*79::$GBGSV,1,1,0,*77::$PQGSV,1,1,01,193,00,000,28,0,6*69",429,2020-02-03 10:10:16:108
-0.713058,0.155533,9.437286,-0.286559,0.100983,9.801943,-0.440743,0.060983,-0.204037,0.004715,-0.048859,-0.03334,691.0,-17.4957,-5.5862,-52.7786,105.7247,-0.5789,1.6194,8.0,937.9479,29.78336,36.04823,-115.13116,600.0,NaN,-0.08292117,0.0,5.36,,12 / 13,"$GPVTG,,T,,M,0.0,N,0.0,K,A*23::$GPGSV,3,3,12,22,54,178,19,23,54,317,20,26,46,074,18,31,18,049,20*72::$GPGSA,A,3,01,03,04,06,07,09,14,16,22,23,26,31,1.1,0.8,0.7,1*2B::$GPRMC,181016.00,A,3602.893768,N,11507.869350,W,0.0,,030220,12.3,E,A*3A::$GPGGA,181016.00,3602.893768,N,11507.869350,W,1,12,0.8,618.0,M,-18.0,M,,*5E::$GAGSV,1,1,0,*74::$GLGSV,1,1,0,*79::$GBGSV,1,1,0,*77::$PQGSV,1,1,01,193,00,000,28,0,6*69",439,2020-02-03 10:10:16:118
-0.713058,0.155533,9.437286,-0.286559,0.100983,9.801943,-0.440743,0.060983,-0.204037,0.010818,-0.125809,0.003311,691.0,-17.4957,-5.5862,-52.7786,105.7247,-0.5789,1.6194,8.0,937.9479,29.78336,36.04823,-115.13116,600.0,NaN,-0.08292117,0.0,5.36,,12 / 13,"$GPVTG,,T,,M,0.0,N,0.0,K,A*23::$GPGSV,3,3,12,22,54,178,19,23,54,317,20,26,46,074,18,31,18,049,20*72::$GPGSA,A,3,01,03,04,06,07,09,14,16,22,23,26,31,1.1,0.8,0.7,1*2B::$GPRMC,181016.00,A,3602.893768,N,11507.869350,W,0.0,,030220,12.3,E,A*3A::$GPGGA,181016.00,3602.893768,N,11507.869350,W,1,12,0.8,618.0,M,-18.0,M,,*5E::$GAGSV,1,1,0,*74::$GLGSV,1,1,0,*79::$GBGSV,1,1,0,*77::$PQGSV,1,1,01,193,00,000,28,0,6*69",450,2020-02-03 10:10:16:129
-0.12442,0.110077,9.793823,-0.26645,0.101924,9.8025,0.10179,0.012207,0.128128,0.010818,-0.125809,0.003311,691.0,-15.3778,-6.2119,-53.508,108.2959,-0.5955,1.557,8.0,937.9479,29.78336,36.04823,-115.13116,600.0,NaN,-0.08292117,0.0,5.36,,12 / 13,"$GPVTG,,T,,M,0.0,N,0.0,K,A*23::$GPGSV,3,3,12,22,54,178,19,23,54,317,20,26,46,074,18,31,18,049,20*72::$GPGSA,A,3,01,03,04,06,07,09,14,16,22,23,26,31,1.1,0.8,0.7,1*2B::$GPRMC,181016.00,A,3602.893768,N,11507.869350,W,0.0,,030220,12.3,E,A*3A::$GPGGA,181016.00,3602.893768,N,11507.869350,W,1,12,0.8,618.0,M,-18.0,M,,*5E::$GAGSV,1,1,0,*74::$GLGSV,1,1,0,*79::$GBGSV,1,1,0,*77::$PQGSV,1,1,01,193,00,000,28,0,6*69",460,2020-02-03 10:10:16:139
-0.076569,0.153137,9.829712,-0.259399,0.103334,9.802674,0.236329,0.078238,0.160885,0.024246,-0.144135,-0.004028,691.0,-15.3778,-6.2119,-53.508,108.2959,-0.5955,1.557,8.0,937.9479,29.78336,36.04823,-115.13116,600.0,NaN,-0.08292117,0.0,5.36,,12 / 13,"$GPVTG,,T,,M,0.0,N,0.0,K,A*23::$GPGSV,3,3,12,22,54,178,19,23,54,317,20,26,46,074,18,31,18,049,20*72::$GPGSA,A,3,01,03,04,06,07,09,14,16,22,23,26,31,1.1,0.8,0.7,1*2B::$GPRMC,181016.00,A,3602.893768,N,11507.869350,W,0.0,,030220,12.3,E,A*3A::$GPGGA,181016.00,3602.893768,N,11507.869350,W,1,12,0.8,618.0,M,-18.0,M,,*5E::$GAGSV,1,1,0,*74::$GLGSV,1,1,0,*79::$GBGSV,1,1,0,*77::$PQGSV,1,1,01,193,00,000,28,0,6*69",470,2020-02-03 10:10:16:149
-0.076569,0.153137,9.829712,-0.259399,0.103334,9.802674,0.236329,0.078238,0.160885,0.024246,-0.144135,-0.004028,691.0,-15.3778,-6.2119,-53.508,108.2959,-0.5955,1.557,8.0,937.9479,29.78336,36.04823,-115.13116,600.0,NaN,-0.08292117,0.0,5.36,,12 / 13,"$GPVTG,,T,,M,0.0,N,0.0,K,A*23::$GPGSV,3,3,12,22,54,178,19,23,54,317,20,26,46,074,18,31,18,049,20*72::$GPGSA,A,3,01,03,04,06,07,09,14,16,22,23,26,31,1.1,0.8,0.7,1*2B::$GPRMC,181016.00,A,3602.893768,N,11507.869350,W,0.0,,030220,12.3,E,A*3A::$GPGGA,181016.00,3602.893768,N,11507.869350,W,1,12,0.8,618.0,M,-18.0,M,,*5E::$GAGSV,1,1,0,*74::$GLGSV,1,1,0,*79::$GBGSV,1,1,0,*77::$PQGSV,1,1,01,193,00,000,28,0,6*69",479,2020-02-03 10:10:16:158
-0.076569,0.153137,9.829712,-0.259399,0.103334,9.802674,0.236329,0.078238,0.160885,0.024246,-0.144135,-0.004028,691.0,-15.3778,-6.2119,-53.508,108.2959,-0.5955,1.557,8.0,937.9479,29.78336,36.04823,-115.13116,600.0,NaN,-0.08292117,0.0,5.36,,12 / 13,"$GPVTG,,T,,M,0.0,N,0.0,K,A*23::$GPGSV,3,3,12,22,54,178,19,23,54,317,20,26,46,074,18,31,18,049,20*72::$GPGSA,A,3,01,03,04,06,07,09,14,16,22,23,26,31,1.1,0.8,0.7,1*2B::$GPRMC,181016.00,A,3602.893768,N,11507.869350,W,0.0,,030220,12.3,E,A*3A::$GPGGA,181016.00,3602.893768,N,11507.869350,W,1,12,0.8,618.0,M,-18.0,M,,*5E::$GAGSV,1,1,0,*74::$GLGSV,1,1,0,*79::$GBGSV,1,1,0,*77::$PQGSV,1,1,01,193,00,000,28,0,6*69",490,2020-02-03 10:10:16:169
-0.014359,0.196213,9.712463,-0.246082,0.107782,9.802969,0.224146,0.080612,0.084086,0.052353,-0.123367,-0.028442,691.0,-17.482,-4.9057,-53.5156,103.5168,-0.6297,1.438,8.0,937.9479,28.64462,36.04823,-115.13116,600.0,NaN,-0.08292117,0.0,5.36,,11 / 13,"$GPVTG,,T,,M,0.0,N,0.0,K,A*23::$GPGSV,3,3,12,22,54,178,19,23,54,317,20,26,46,074,18,31,18,049,20*72::$GPGSA,A,3,01,03,04,06,07,09,14,16,22,23,26,31,1.1,0.8,0.7,1*2B::$GPRMC,181016.00,A,3602.893768,N,11507.869350,W,0.0,,030220,12.3,E,A*3A::$GPGGA,181016.00,3602.893768,N,11507.869350,W,1,12,0.8,618.0,M,-18.0,M,,*5E::$GAGSV,1,1,0,*74::$GLGSV,1,1,0,*79::$GBGSV,1,1,0,*77::$PQGSV,1,1,01,193,00,000,28,0,6*69",500,2020-02-03 10:10:16:179
-0.155533,0.153137,9.707687,-0.248741,0.097314,9.803013,0.085543,0.059814,0.04508,-0.088135,0.076981,-0.026001,691.0,-17.482,-4.9057,-53.5156,103.5168,-0.6297,1.438,8.0,937.9479,28.64462,36.04823,-115.13116,600.0,NaN,-0.08292117,0.0,5.36,,11 / 13,"$GPVTG,,T,,M,0.0,N,0.0,K,A*23::$GPGSV,3,3,12,22,54,178,14,23,54,317,21,26,46,074,18,31,18,049,20*7E::$GPGSA,A,3,01,03,04,07,09,14,16,22,23,26,31,,1.2,0.9,0.8,1*20::$GPRMC,181017.00,A,3602.893768,N,11507.869349,W,0.0,,030220,12.3,E,A*33::$GPGGA,181017.00,3602.893768,N,11507.869349,W,1,11,0.9,618.0,M,-18.0,M,,*55::$GAGSV,1,1,0,*74::$GLGSV,1,1,0,*79::$GBGSV,1,1,0,*77::$PQGSV,1,1,01,193,00,000,28,0,6*69",509,2020-02-03 10:10:16:188
-0.155533,0.153137,9.707687,-0.248741,0.097314,9.803013,0.085543,0.059814,0.04508,-0.073456,0.079422,-0.021118,691.0,-18.1931,-4.9255,-52.7832,103.5168,-0.6297,1.438,8.0,937.9479,28.64462,36.04823,-115.13116,600.0,NaN,-0.08292117,0.0,5.36,,11 / 13,"$GPVTG,,T,,M,0.0,N,0.0,K,A*23::$GPGSV,3,3,12,22,54,178,14,23,54,317,21,26,46,074,18,31,18,049,20*7E::$GPGSA,A,3,01,03,04,07,09,14,16,22,23,26,31,,1.2,0.9,0.8,1*20::$GPRMC,181017.00,A,3602.893768,N,11507.869349,W,0.0,,030220,12.3,E,A*33::$GPGGA,181017.00,3602.893768,N,11507.869349,W,1,11,0.9,618.0,M,-18.0,M,,*55::$GAGSV,1,1,0,*74::$GLGSV,1,1,0,*79::$GBGSV,1,1,0,*77::$PQGSV,1,1,01,193,00,000,28,0,6*69",520,2020-02-03 10:10:16:199
-0.126816,0.107681,9.889542,-0.258336,0.087207,9.802859,0.115334,0.020709,0.218202,-0.061249,0.043991,-0.024796,691.0,-18.1931,-4.9255,-52.7832,103.5168,-0.6297,1.438,8.0,937.9479,28.64462,36.04823,-115.13116,600.0,NaN,-0.08292117,0.0,5.36,,11 / 13,"$GPVTG,,T,,M,0.0,N,0.0,K,A*23::$GPGSV,3,3,12,22,54,178,14,23,54,317,21,26,46,074,18,31,18,049,20*7E::$GPGSA,A,3,01,03,04,07,09,14,16,22,23,26,31,,1.2,0.9,0.8,1*20::$GPRMC,181017.00,A,3602.893768,N,11507.869349,W,0.0,,030220,12.3,E,A*33::$GPGGA,181017.00,3602.893768,N,11507.869349,W,1,11,0.9,618.0,M,-18.0,M,,*55::$GAGSV,1,1,0,*74::$GLGSV,1,1,0,*79::$GBGSV,1,1,0,*77::$PQGSV,1,1,01,193,00,000,28,0,6*69",530,2020-02-03 10:10:16:209
-0.153137,0.100494,10.013962,-0.253681,0.083134,9.803016,0.0785,0.015118,0.362208,-0.008728,-0.040298,-0.038223,691.0,-16.0721,-5.5511,-53.5126,107.5954,-0.5095,1.5096,8.0,937.9539,28.64462,36.04823,-115.13116,600.0,NaN,-0.13286275,0.0,5.36,,11 / 13,"$GPVTG,,T,,M,0.0,N,0.0,K,A*23::$GPGSV,3,3,12,22,54,178,14,23,54,317,21,26,46,074,18,31,18,049,20*7E::$GPGSA,A,3,01,03,04,07,09,14,16,22,23,26,31,,1.2,0.9,0.8,1*20::$GPRMC,181017.00,A,3602.893768,N,11507.869349,W,0.0,,030220,12.3,E,A*33::$GPGGA,181017.00,3602.893768,N,11507.869349,W,1,11,0.9,618.0,M,-18.0,M,,*55::$GAGSV,1,1,0,*74::$GLGSV,1,1,0,*79::$GBGSV,1,1,0,*77::$PQGSV,1,1,01,193,00,000,28,0,6*69",539,2020-02-03 10:10:16:218
-0.385239,0.10289,9.896713,-0.253681,0.083134,9.803016,0.0785,0.015118,0.362208,0.024246,-0.047623,-0.04187,691.0,-16.0721,-5.5511,-53.5126,107.5954,-0.5095,1.5096,8.0,937.9539,28.64462,36.04823,-115.13116,600.0,NaN,-0.13286275,0.0,5.36,,11 / 13,"$GPVTG,,T,,M,0.0,N,0.0,K,A*23::$GPGSV,3,3,12,22,54,178,14,23,54,317,21,26,46,074,18,31,18,049,20*7E::$GPGSA,A,3,01,03,04,07,09,14,16,22,23,26,31,,1.2,0.9,0.8,1*20::$GPRMC,181017.00,A,3602.893768,N,11507.869349,W,0.0,,030220,12.3,E,A*33::$GPGGA,181017.00,3602.893768,N,11507.869349,W,1,11,0.9,618.0,M,-18.0,M,,*55::$GAGSV,1,1,0,*74::$GLGSV,1,1,0,*79::$GBGSV,1,1,0,*77::$PQGSV,1,1,01,193,00,000,28,0,6*69",549,2020-02-03 10:10:16:228
-0.385239,0.10289,9.896713,-0.247295,0.086917,9.803146,-0.211314,0.006612,0.150584,0.032806,-0.041534,-0.021118,691.0,-18.2251,-6.279,-52.7756,107.5954,-0.5095,1.5096,8.0,937.9539,28.64462,36.04823,-115.13116,600.0,NaN,-0.13286275,0.0,5.36,,11 / 13,"$GPVTG,,T,,M,0.0,N,0.0,K,A*23::$GPGSV,3,3,12,22,54,178,14,23,54,317,21,26,46,074,18,31,18,049,20*7E::$GPGSA,A,3,01,03,04,07,09,14,16,22,23,26,31,,1.2,0.9,0.8,1*20::$GPRMC,181017.00,A,3602.893768,N,11507.869349,W,0.0,,030220,12.3,E,A*33::$GPGGA,181017.00,3602.893768,N,11507.869349,W,1,11,0.9,618.0,M,-18.0,M,,*55::$GAGSV,1,1,0,*74::$GLGSV,1,1,0,*79::$GBGSV,1,1,0,*77::$PQGSV,1,1,01,193,00,000,28,0,6*69",560,2020-02-03 10:10:16:239
-0.502487,0.088531,9.717255,-0.244049,0.089316,9.803205,-0.26475,-5.42E-4,0.072556,0.021805,-0.046417,0.00209,691.0,-18.2251,-6.279,-52.7756,107.5954,-0.5095,1.5096,8.0,937.9539,28.64462,36.04823,-115.13116,600.0,NaN,-0.13286275,0.0,5.36,,11 / 13,"$GPVTG,,T,,M,0.0,N,0.0,K,A*23::$GPGSV,3,3,12,22,54,178,14,23,54,317,21,26,46,074,18,31,18,049,20*7E::$GPGSA,A,3,01,03,04,07,09,14,16,22,23,26,31,,1.2,0.9,0.8,1*20::$GPRMC,181017.00,A,3602.893768,N,11507.869349,W,0.0,,030220,12.3,E,A*33::$GPGGA,181017.00,3602.893768,N,11507.869349,W,1,11,0.9,618.0,M,-18.0,M,,*55::$GAGSV,1,1,0,*74::$GLGSV,1,1,0,*79::$GBGSV,1,1,0,*77::$PQGSV,1,1,01,193,00,000,28,0,6*69",569,2020-02-03 10:10:16:248
-0.502487,0.088531,9.717255,-0.244049,0.089316,9.803205,-0.26475,-5.42E-4,0.072556,0.021805,-0.046417,0.00209,691.0,-16.7694,-4.8904,-53.5156,103.8223,-0.5218,1.4261,8.0,937.9539,28.64462,36.04823,-115.13116,600.0,NaN,-0.13286275,0.0,5.36,,11 / 13,"$GPVTG,,T,,M,0.0,N,0.0,K,A*23::$GPGSV,3,3,12,22,54,178,14,23,54,317,21,26,46,074,18,31,18,049,20*7E::$GPGSA,A,3,01,03,04,07,09,14,16,22,23,26,31,,1.2,0.9,0.8,1*20::$GPRMC,181017.00,A,3602.893768,N,11507.869349,W,0.0,,030220,12.3,E,A*33::$GPGGA,181017.00,3602.893768,N,11507.869349,W,1,11,0.9,618.0,M,-18.0,M,,*55::$GAGSV,1,1,0,*74::$GLGSV,1,1,0,*79::$GBGSV,1,1,0,*77::$PQGSV,1,1,01,193,00,000,28,0,6*69",580,2020-02-03 10:10:16:259
-0.241669,0.131607,9.702896,-0.238031,0.092496,9.803325,-0.026601,0.032216,0.057818,0.021805,-0.046417,0.009415,761.0,-16.7694,-4.8904,-53.5156,103.8223,-0.5218,1.4261,8.0,937.9539,28.64462,36.04823,-115.13116,600.0,NaN,-0.13286275,0.0,5.36,,11 / 13,"$GPVTG,,T,,M,0.0,N,0.0,K,A*23::$GPGSV,3,3,12,22,54,178,14,23,54,317,21,26,46,074,18,31,18,049,20*7E::$GPGSA,A,3,01,03,04,07,09,14,16,22,23,26,31,,1.2,0.9,0.8,1*20::$GPRMC,181017.00,A,3602.893768,N,11507.869349,W,0.0,,030220,12.3,E,A*33::$GPGGA,181017.00,3602.893768,N,11507.869349,W,1,11,0.9,618.0,M,-18.0,M,,*55::$GAGSV,1,1,0,*74::$GLGSV,1,1,0,*79::$GBGSV,1,1,0,*77::$PQGSV,1,1,01,193,00,000,28,0,6*69",590,2020-02-03 10:10:16:269
-0.253632,0.169891,9.403793,-0.232458,0.099658,9.803388,-0.033289,0.057477,-0.24552,0.032806,-0.035416,0.003311,761.0,-16.7847,-5.5679,-53.5126,103.8223,-0.5218,1.4261,8.0,937.9539,28.64462,36.04823,-115.13116,600.0,NaN,-0.13286275,0.0,5.36,,11 / 13,"$GPVTG,,T,,M,0.0,N,0.0,K,A*23::$GPGSV,3,3,12,22,54,178,14,23,54,317,21,26,46,074,18,31,18,049,20*7E::$GPGSA,A,3,01,03,04,07,09,14,16,22,23,26,31,,1.2,0.9,0.8,1*20::$GPRMC,181017.00,A,3602.893768,N,11507.869349,W,0.0,,030220,12.3,E,A*33::$GPGGA,181017.00,3602.893768,N,11507.869349,W,1,11,0.9,618.0,M,-18.0,M,,*55::$GAGSV,1,1,0,*74::$GLGSV,1,1,0,*79::$GBGSV,1,1,0,*77::$PQGSV,1,1,01,193,00,000,28,0,6*69",600,2020-02-03 10:10:16:279
-0.253632,0.169891,9.403793,-0.232458,0.099658,9.803388,-0.033289,0.057477,-0.24552,0.014481,0.035446,0.004532,761.0,-16.7847,-5.5679,-53.5126,103.8223,-0.5218,1.4261,8.0,937.9539,28.64462,36.04823,-115.13116,600.0,NaN,-0.13286275,0.0,5.36,,11 / 13,"$GPVTG,,T,,M,0.0,N,0.0,K,A*23::$GPGSV,3,3,12,22,54,178,14,23,54,317,21,26,46,074,18,31,18,049,20*7E::$GPGSA,A,3,01,03,04,07,09,14,16,22,23,26,31,,1.2,0.9,0.8,1*20::$GPRMC,181017.00,A,3602.893768,N,11507.869349,W,0.0,,030220,12.3,E,A*33::$GPGGA,181017.00,3602.893768,N,11507.869349,W,1,11,0.9,618.0,M,-18.0,M,,*55::$GAGSV,1,1,0,*74::$GLGSV,1,1,0,*79::$GBGSV,1,1,0,*77::$PQGSV,1,1,01,193,00,000,28,0,6*69",610,2020-02-03 10:10:16:289
-0.291931,0.12204,9.334396,-0.236301,0.100293,9.803289,-0.058258,0.026953,-0.308104,-0.02095,0.054993,0.015533,761.0,-16.7999,-6.2469,-52.774,106.6426,-0.586,1.3808,8.0,937.9539,28.64462,36.04823,-115.13116,600.0,NaN,-0.13286275,0.0,5.36,,11 / 13,"$GPVTG,,T,,M,0.0,N,0.0,K,A*23::$GPGSV,3,3,12,22,54,178,14,23,54,317,21,26,46,074,18,31,18,049,20*7E::$GPGSA,A,3,01,03,04,07,09,14,16,22,23,26,31,,1.2,0.9,0.8,1*20::$GPRMC,181017.00,A,3602.893768,N,11507.869349,W,0.0,,030220,12.3,E,A*33::$GPGGA,181017.00,3602.893768,N,11507.869349,W,1,11,0.9,618.0,M,-18.0,M,,*55::$GAGSV,1,1,0,*74::$GLGSV,1,1,0,*79::$GBGSV,1,1,0,*77::$PQGSV,1,1,01,193,00,000,28,0,6*69",620,2020-02-03 10:10:16:299
-0.291931,0.12204,9.334396,-0.236301,0.100293,9.803289,-0.058258,0.026953,-0.308104,-0.02095,0.054993,0.015533,761.0,-16.7999,-6.2469,-52.774,106.6426,-0.586,1.3808,8.0,937.9539,28.64462,36.04823,-115.13116,600.0,NaN,-0.13286275,0.0,5.36,,11 / 13,"$GPVTG,,T,,M,0.0,N,0.0,K,A*23::$GPGSV,3,3,12,22,54,178,14,23,54,317,21,26,46,074,18,31,18,049,20*7E::$GPGSA,A,3,01,03,04,07,09,14,16,22,23,26,31,,1.2,0.9,0.8,1*20::$GPRMC,181017.00,A,3602.893768,N,11507.869349,W,0.0,,030220,12.3,E,A*33::$GPGGA,181017.00,3602.893768,N,11507.869349,W,1,11,0.9,618.0,M,-18.0,M,,*55::$GAGSV,1,1,0,*74::$GLGSV,1,1,0,*79::$GBGSV,1,1,0,*77::$PQGSV,1,1,01,193,00,000,28,0,6*69",631,2020-02-03 10:10:16:310
-0.174683,0.145966,9.516251,-0.243967,0.096474,9.803141,0.050961,0.051059,-0.151524,-0.041718,0.045212,0.01918,761.0,-18.1946,-4.9225,-53.5171,106.6426,-0.586,1.3808,8.0,937.9539,28.64462,36.04823,-115.13116,600.0,NaN,-0.13286275,0.0,5.36,,11 / 13,"$GPVTG,,T,,M,0.0,N,0.0,K,A*23::$GPGSV,3,3,12,22,54,178,14,23,54,317,21,26,46,074,18,31,18,049,20*7E::$GPGSA,A,3,01,03,04,07,09,14,16,22,23,26,31,,1.2,0.9,0.8,1*20::$GPRMC,181017.00,A,3602.893768,N,11507.869349,W,0.0,,030220,12.3,E,A*33::$GPGGA,181017.00,3602.893768,N,11507.869349,W,1,11,0.9,618.0,M,-18.0,M,,*55::$GAGSV,1,1,0,*74::$GLGSV,1,1,0,*79::$GBGSV,1,1,0,*77::$PQGSV,1,1,01,193,00,000,28,0,6*69",640,2020-02-03 10:10:16:319
-0.32782,0.134003,9.78186,-0.244411,0.091669,9.803176,-0.108903,0.04382,0.143679,-0.030731,0.004898,-0.001587,761.0,-18.1946,-4.9225,-53.5171,106.6426,-0.586,1.3808,8.0,937.9539,28.64462,36.04823,-115.13116,600.0,NaN,-0.13286275,0.0,5.36,,11 / 13,"$GPVTG,,T,,M,0.0,N,0.0,K,A*23::$GPGSV,3,3,12,22,54,178,14,23,54,317,21,26,46,074,18,31,18,049,20*7E::$GPGSA,A,3,01,03,04,07,09,14,16,22,23,26,31,,1.2,0.9,0.8,1*20::$GPRMC,181017.00,A,3602.893768,N,11507.869349,W,0.0,,030220,12.3,E,A*33::$GPGGA,181017.00,3602.893768,N,11507.869349,W,1,11,0.9,618.0,M,-18.0,M,,*55::$GAGSV,1,1,0,*74::$GLGSV,1,1,0,*79::$GBGSV,1,1,0,*77::$PQGSV,1,1,01,193,00,000,28,0,6*69",650,2020-02-03 10:10:16:329
-0.579056,0.093323,9.714859,-0.239092,0.094552,9.803279,-0.340245,0.007486,0.080893,0.018143,-0.046417,-0.010117,761.0,-18.8889,-4.2618,-53.5202,99.7625,-0.5356,1.4282,8.0,937.9539,28.64462,36.04823,-115.13116,600.0,NaN,-0.13286275,0.0,5.36,,11 / 13,"$GPVTG,,T,,M,0.0,N,0.0,K,A*23::$GPGSV,3,3,12,22,54,178,14,23,54,317,21,26,46,074,18,31,18,049,20*7E::$GPGSA,A,3,01,03,04,07,09,14,16,22,23,26,31,,1.2,0.9,0.8,1*20::$GPRMC,181017.00,A,3602.893768,N,11507.869349,W,0.0,,030220,12.3,E,A*33::$GPGGA,181017.00,3602.893768,N,11507.869349,W,1,11,0.9,618.0,M,-18.0,M,,*55::$GAGSV,1,1,0,*74::$GLGSV,1,1,0,*79::$GBGSV,1,1,0,*77::$PQGSV,1,1,01,193,00,000,28,0,6*69",660,2020-02-03 10:10:16:339
-0.579056,0.093323,9.714859,-0.239092,0.094552,9.803279,-0.340245,0.007486,0.080893,0.018143,-0.046417,-0.010117,761.0,-18.8889,-4.2618,-53.5202,99.7625,-0.5356,1.4282,8.0,937.9539,28.64462,36.04823,-115.13116,600.0,NaN,-0.13286275,0.0,5.36,,11 / 13,"$GPVTG,,T,,M,0.0,N,0.0,K,A*23::$GPGSV,3,3,12,22,54,178,14,23,54,317,21,26,46,074,18,31,18,049,20*7E::$GPGSA,A,3,01,03,04,07,09,14,16,22,23,26,31,,1.2,0.9,0.8,1*20::$GPRMC,181017.00,A,3602.893768,N,11507.869349,W,0.0,,030220,12.3,E,A*33::$GPGGA,181017.00,3602.893768,N,11507.869349,W,1,11,0.9,618.0,M,-18.0,M,,*55::$GAGSV,1,1,0,*74::$GLGSV,1,1,0,*79::$GBGSV,1,1,0,*77::$PQGSV,1,1,01,193,00,000,28,0,6*69",670,2020-02-03 10:10:16:349
-0.545563,0.090927,9.671783,-0.237274,0.096311,9.803306,-0.315725,-0.005017,0.046101,0.036469,-0.046417,0.025299,761.0,-16.7694,-4.8859,-54.2511,99.7625,-0.5356,1.4282,8.0,937.9539,28.64462,36.04823,-115.13116,600.0,NaN,-0.13286275,0.0,5.36,,11 / 13,"$GPVTG,,T,,M,0.0,N,0.0,K,A*23::$GPGSV,3,3,12,22,54,178,14,23,54,317,21,26,46,074,18,31,18,049,20*7E::$GPGSA,A,3,01,03,04,07,09,14,16,22,23,26,31,,1.2,0.9,0.8,1*20::$GPRMC,181017.00,A,3602.893768,N,11507.869349,W,0.0,,030220,12.3,E,A*33::$GPGGA,181017.00,3602.893768,N,11507.869349,W,1,11,0.9,618.0,M,-18.0,M,,*55::$GAGSV,1,1,0,*74::$GLGSV,1,1,0,*79::$GBGSV,1,1,0,*77::$PQGSV,1,1,01,193,00,000,28,0,6*69",680,2020-02-03 10:10:16:359
-0.22493,0.138779,9.626328,-0.235183,0.100688,9.803312,-0.024665,0.049302,-0.030306,0.012039,0.007355,0.054626,761.0,-16.7694,-4.8859,-54.2511,99.7625,-0.5356,1.4282,8.0,937.9539,28.64462,36.04823,-115.13116,600.0,NaN,-0.13286275,0.0,5.36,,11 / 13,"$GPVTG,,T,,M,0.0,N,0.0,K,A*23::$GPGSV,3,3,12,22,54,178,14,23,54,317,21,26,46,074,18,31,18,049,20*7E::$GPGSA,A,3,01,03,04,07,09,14,16,22,23,26,31,,1.2,0.9,0.8,1*20::$GPRMC,181017.00,A,3602.893768,N,11507.869349,W,0.0,,030220,12.3,E,A*33::$GPGGA,181017.00,3602.893768,N,11507.869349,W,1,11,0.9,618.0,M,-18.0,M,,*55::$GAGSV,1,1,0,*74::$GLGSV,1,1,0,*79::$GBGSV,1,1,0,*77::$PQGSV,1,1,01,193,00,000,28,0,6*69",690,2020-02-03 10:10:16:369
0.045471,0.117249,9.714859,-0.235183,0.100688,9.803312,-0.024665,0.049302,-0.030306,0.008377,0.007355,0.044846,761.0,-17.4805,-4.9118,-52.0462,103.7688,-0.5883,1.3743,8.0,937.9525,28.64462,36.04823,-115.13116,600.0,NaN,-0.12155519,0.0,5.36,,11 / 13,"$GPVTG,,T,,M,0.0,N,0.0,K,A*23::$GPGSV,3,3,12,22,54,178,14,23,54,317,21,26,46,074,18,31,18,049,20*7E::$GPGSA,A,3,01,03,04,07,09,14,16,22,23,26,31,,1.2,0.9,0.8,1*20::$GPRMC,181017.00,A,3602.893768,N,11507.869349,W,0.0,,030220,12.3,E,A*33::$GPGGA,181017.00,3602.893768,N,11507.869349,W,1,11,0.9,618.0,M,-18.0,M,,*55::$GAGSV,1,1,0,*74::$GLGSV,1,1,0,*79::$GBGSV,1,1,0,*77::$PQGSV,1,1,01,193,00,000,28,0,6*69",701,2020-02-03 10:10:16:380
0.045471,0.117249,9.714859,-0.235237,0.102464,9.803293,0.297246,0.014046,0.070029,0.025482,-0.009766,0.032623,761.0,-17.4805,-4.9118,-52.0462,103.7688,-0.5883,1.3743,8.0,937.9525,28.64462,36.04823,-115.13116,600.0,NaN,-0.12155519,0.0,5.36,,11 / 13,"$GPVTG,,T,,M,0.0,N,0.0,K,A*23::$GPGSV,3,3,12,22,54,178,14,23,54,317,21,26,46,074,18,31,18,049,20*7E::$GPGSA,A,3,01,03,04,07,09,14,16,22,23,26,31,,1.2,0.9,0.8,1*20::$GPRMC,181017.00,A,3602.893768,N,11507.869349,W,0.0,,030220,12.3,E,A*33::$GPGGA,181017.00,3602.893768,N,11507.869349,W,1,11,0.9,618.0,M,-18.0,M,,*55::$GAGSV,1,1,0,*74::$GLGSV,1,1,0,*79::$GBGSV,1,1,0,*77::$PQGSV,1,1,01,193,00,000,28,0,6*69",710,2020-02-03 10:10:16:389
0.078964,0.172287,9.7005,-0.235237,0.102464,9.803293,0.297246,0.014046,0.070029,0.051132,0.002457,-0.007675,761.0,-18.1763,-4.2496,-52.7863,103.7688,-0.5883,1.3743,8.0,937.9525,28.64462,36.04823,-115.13116,600.0,NaN,-0.12155519,0.0,5.36,,11 / 13,"$GPVTG,,T,,M,0.0,N,0.0,K,A*23::$GPGSV,3,3,12,22,54,178,14,23,54,317,21,26,46,074,18,31,18,049,20*7E::$GPGSA,A,3,01,03,04,07,09,14,16,22,23,26,31,,1.2,0.9,0.8,1*20::$GPRMC,181017.00,A,3602.893768,N,11507.869349,W,0.0,,030220,12.3,E,A*33::$GPGGA,181017.00,3602.893768,N,11507.869349,W,1,11,0.9,618.0,M,-18.0,M,,*55::$GAGSV,1,1,0,*74::$GLGSV,1,1,0,*79::$GBGSV,1,1,0,*77::$PQGSV,1,1,01,193,00,000,28,0,6*69",720,2020-02-03 10:10:16:399
-0.186645,0.172287,9.296112,-0.232839,0.112275,9.803243,0.067552,0.064227,-0.270494,0.051132,0.002457,-0.007675,761.0,-18.1763,-4.2496,-52.7863,103.7688,-0.5883,1.3743,8.0,937.9525,28.64462,36.04823,-115.13116,600.0,NaN,-0.12155519,0.0,5.36,,11 / 13,"$GPVTG,,T,,M,0.0,N,0.0,K,A*23::$GPGSV,3,3,12,22,54,178,14,23,54,317,21,26,46,074,18,31,18,049,20*7E::$GPGSA,A,3,01,03,04,07,09,14,16,22,23,26,31,,1.2,0.9,0.8,1*20::$GPRMC,181017.00,A,3602.893768,N,11507.869349,W,0.0,,030220,12.3,E,A*33::$GPGGA,181017.00,3602.893768,N,11507.869349,W,1,11,0.9,618.0,M,-18.0,M,,*55::$GAGSV,1,1,0,*74::$GLGSV,1,1,0,*79::$GBGSV,1,1,0,*77::$PQGSV,1,1,01,193,00,000,28,0,6*69",729,2020-02-03 10:10:16:408
-0.208176,0.160324,9.260223,-0.233479,0.1135,9.803213,0.032266,0.05465,-0.365726,0.019363,0.014679,-0.017471,761.0,-16.7831,-5.574,-52.0432,106.5048,-0.6631,1.3643,8.0,937.9525,28.64462,36.04823,-115.13116,600.0,NaN,-0.12155519,0.0,5.36,,11 / 13,"$GPVTG,,T,,M,0.0,N,0.0,K,A*23::$GPGSV,3,3,12,22,54,178,14,23,54,317,21,26,46,074,18,31,18,049,20*7E::$GPGSA,A,3,01,03,04,07,09,14,16,22,23,26,31,,1.2,0.9,0.8,1*20::$GPRMC,181017.00,A,3602.893768,N,11507.869349,W,0.0,,030220,12.3,E,A*33::$GPGGA,181017.00,3602.893768,N,11507.869349,W,1,11,0.9,618.0,M,-18.0,M,,*55::$GAGSV,1,1,0,*74::$GLGSV,1,1,0,*79::$GBGSV,1,1,0,*77::$PQGSV,1,1,01,193,00,000,28,0,6*69",739,2020-02-03 10:10:16:418
-0.208176,0.160324,9.260223,-0.233479,0.1135,9.803213,0.032266,0.05465,-0.365726,-0.038055,0.001236,-0.001587,761.0,-16.7831,-5.574,-52.0432,106.5048,-0.6631,1.3643,8.0,937.9525,28.64462,36.04823,-115.13116,600.0,NaN,-0.12155519,0.0,5.36,,11 / 13,"$GPVTG,,T,,M,0.0,N,0.0,K,A*23::$GPGSV,3,3,12,22,54,178,14,23,54,317,21,26,46,074,18,31,18,049,20*7E::$GPGSA,A,3,01,03,04,07,09,14,16,22,23,26,31,,1.2,0.9,0.8,1*20::$GPRMC,181017.00,A,3602.893768,N,11507.869349,W,0.0,,030220,12.3,E,A*33::$GPGGA,181017.00,3602.893768,N,11507.869349,W,1,11,0.9,618.0,M,-18.0,M,,*55::$GAGSV,1,1,0,*74::$GLGSV,1,1,0,*79::$GBGSV,1,1,0,*77::$PQGSV,1,1,01,193,00,000,28,0,6*69",750,2020-02-03 10:10:16:429
-0.20578,0.203384,9.372681,-0.235419,0.107664,9.803233,0.036521,0.093906,-0.260805,-0.039261,0.020782,-0.012573,761.0,-17.4973,-5.5786,-54.248,106.5048,-0.6631,1.3643,8.0,937.9525,28.64462,36.04823,-115.13116,600.0,NaN,-0.12155519,0.0,5.36,,11 / 13,"$GPVTG,,T,,M,0.0,N,0.0,K,A*23::$GPGSV,3,3,12,22,54,178,14,23,54,317,21,26,46,074,18,31,18,049,20*7E::$GPGSA,A,3,01,03,04,07,09,14,16,22,23,26,31,,1.2,0.9,0.8,1*20::$GPRMC,181017.00,A,3602.893768,N,11507.869349,W,0.0,,030220,12.3,E,A*33::$GPGGA,181017.00,3602.893768,N,11507.869349,W,1,11,0.9,618.0,M,-18.0,M,,*55::$GAGSV,1,1,0,*74::$GLGSV,1,1,0,*79::$GBGSV,1,1,0,*77::$PQGSV,1,1,01,193,00,000,28,0,6*69",761,2020-02-03 10:10:16:440
-0.14357,0.129211,9.544968,-0.238181,0.102046,9.803226,0.089472,0.02168,-0.086767,-0.042938,0.023224,-0.022354,761.0,-17.4973,-5.5786,-54.248,106.5048,-0.6631,1.3643,8.0,937.9525,28.64462,36.04823,-115.13116,600.0,NaN,-0.12155519,0.0,5.36,,11 / 13,"$GPVTG,,T,,M,0.0,N,0.0,K,A*23::$GPGSV,3,3,12,22,54,178,14,23,54,317,21,26,46,074,18,31,18,049,20*7E::$GPGSA,A,3,01,03,04,07,09,14,16,22,23,26,31,,1.2,0.9,0.8,1*20::$GPRMC,181017.00,A,3602.893768,N,11507.869349,W,0.0,,030220,12.3,E,A*33::$GPGGA,181017.00,3602.893768,N,11507.869349,W,1,11,0.9,618.0,M,-18.0,M,,*55::$GAGSV,1,1,0,*74::$GLGSV,1,1,0,*79::$GBGSV,1,1,0,*77::$PQGSV,1,1,01,193,00,000,28,0,6*69",771,2020-02-03 10:10:16:450
-0.14357,0.129211,9.544968,-0.238181,0.102046,9.803226,0.089472,0.02168,-0.086767,-0.05394,0.046432,-0.013794,761.0,-18.1763,-4.2496,-52.7863,100.1528,-0.5962,1.3918,8.0,937.9525,28.64462,36.04823,-115.13116,600.0,NaN,-0.12155519,0.0,5.36,,11 / 13,"$GPVTG,,T,,M,0.0,N,0.0,K,A*23::$GPGSV,3,3,12,22,54,178,14,23,54,317,21,26,46,074,18,31,18,049,20*7E::$GPGSA,A,3,01,03,04,07,09,14,16,22,23,26,31,,1.2,0.9,0.8,1*20::$GPRMC,181017.00,A,3602.893768,N,11507.869349,W,0.0,,030220,12.3,E,A*33::$GPGGA,181017.00,3602.893768,N,11507.869349,W,1,11,0.9,618.0,M,-18.0,M,,*55::$GAGSV,1,1,0,*74::$GLGSV,1,1,0,*79::$GBGSV,1,1,0,*77::$PQGSV,1,1,01,193,00,000,28,0,6*69",780,2020-02-03 10:10:16:459
-0.473785,0.114853,9.561722,-0.243805,0.094695,9.803162,-0.208882,0.019344,-0.074479,-0.068573,0.059875,0.009415,974.0,-18.1763,-4.2496,-52.7863,100.1528,-0.5962,1.3918,8.0,937.9525,28.64462,36.04823,-115.13116,600.0,NaN,-0.12155519,0.0,5.36,,11 / 13,"$GPVTG,,T,,M,0.0,N,0.0,K,A*23::$GPGSV,3,3,12,22,54,178,14,23,54,317,21,26,46,074,18,31,18,049,20*7E::$GPGSA,A,3,01,03,04,07,09,14,16,22,23,26,31,,1.2,0.9,0.8,1*20::$GPRMC,181017.00,A,3602.893768,N,11507.869349,W,0.0,,030220,12.3,E,A*33::$GPGGA,181017.00,3602.893768,N,11507.869349,W,1,11,0.9,618.0,M,-18.0,M,,*55::$GAGSV,1,1,0,*74::$GLGSV,1,1,0,*79::$GBGSV,1,1,0,*77::$PQGSV,1,1,01,193,00,000,28,0,6*69",789,2020-02-03 10:10:16:468
-0.239288,0.086136,9.769897,-0.254741,0.085206,9.802972,-0.208882,0.019344,-0.074479,-0.073456,0.029327,0.01918,974.0,-18.1763,-4.2496,-52.7863,100.1528,-0.5962,1.3918,8.0,937.9525,28.64462,36.04823,-115.13116,600.0,NaN,-0.12155519,0.0,5.36,,11 / 13,"$GPVTG,,T,,M,0.0,N,0.0,K,A*23::$GPGSV,3,3,12,22,54,178,14,23,54,317,21,26,46,074,18,31,18,049,20*7E::$GPGSA,A,3,01,03,04,07,09,14,16,22,23,26,31,,1.2,0.9,0.8,1*20::$GPRMC,181017.00,A,3602.893768,N,11507.869349,W,0.0,,030220,12.3,E,A*33::$GPGGA,181017.00,3602.893768,N,11507.869349,W,1,11,0.9,618.0,M,-18.0,M,,*55::$GAGSV,1,1,0,*74::$GLGSV,1,1,0,*79::$GBGSV,1,1,0,*77::$PQGSV,1,1,01,193,00,000,28,0,6*69",800,2020-02-03 10:10:16:479
-0.239288,0.086136,9.769897,-0.254741,0.085206,9.802972,-0.023451,0.002336,0.102404,-0.073456,0.029327,0.01918,974.0,-16.0721,-5.5511,-53.5126,100.1528,-0.5962,1.3918,8.0,937.9525,28.64462,36.04823,-115.13116,600.0,NaN,-0.12155519,0.0,5.36,,11 / 13,"$GPVTG,,T,,M,0.0,N,0.0,K,A*23::$GPGSV,3,3,12,22,54,178,14,23,54,317,21,26,46,074,18,31,18,049,20*7E::$GPGSA,A,3,01,03,04,07,09,14,16,22,23,26,31,,1.2,0.9,0.8,1*20::$GPRMC,181017.00,A,3602.893768,N,11507.869349,W,0.0,,030220,12.3,E,A*33::$GPGGA,181017.00,3602.893768,N,11507.869349,W,1,11,0.9,618.0,M,-18.0,M,,*55::$GAGSV,1,1,0,*74::$GLGSV,1,1,0,*79::$GBGSV,1,1,0,*77::$PQGSV,1,1,01,193,00,000,28,0,6*69",811,2020-02-03 10:10:16:490
0.10289,0.239288,9.84407,-0.248628,0.079033,9.803179,0.352308,0.157941,0.211823,-0.008728,-0.015869,-0.004028,974.0,-16.7511,-4.2175,-52.7847,101.0354,-0.4618,1.4528,8.0,937.9525,28.64462,36.04823,-115.13116,600.0,NaN,-0.12155519,0.0,5.36,,11 / 13,"$GPVTG,,T,,M,0.0,N,0.0,K,A*23::$GPGSV,3,3,12,22,54,178,14,23,54,317,21,26,46,074,18,31,18,049,20*7E::$GPGSA,A,3,01,03,04,07,09,14,16,22,23,26,31,,1.2,0.9,0.8,1*20::$GPRMC,181017.00,A,3602.893768,N,11507.869349,W,0.0,,030220,12.3,E,A*33::$GPGGA,181017.00,3602.893768,N,11507.869349,W,1,11,0.9,618.0,M,-18.0,M,,*55::$GAGSV,1,1,0,*74::$GLGSV,1,1,0,*79::$GBGSV,1,1,0,*77::$PQGSV,1,1,01,193,00,000,28,0,6*69",821,2020-02-03 10:10:16:500
-0.186645,0.193817,9.523438,-0.248889,0.079108,9.803173,0.090542,0.125564,-0.088512,-0.009964,0.030563,-0.032104,974.0,-16.7511,-4.2175,-52.7847,101.0354,-0.4618,1.4528,8.0,937.9525,28.26489,36.04823,-115.13116,600.0,NaN,-0.12155519,0.0,5.36,,11 / 13,"$GPVTG,,T,,M,0.0,N,0.0,K,A*23::$GPGSV,3,3,12,22,54,178,14,23,54,317,21,26,46,074,18,31,18,049,20*7E::$GPGSA,A,3,01,03,04,07,09,14,16,22,23,26,31,,1.2,0.9,0.8,1*20::$GPRMC,181017.00,A,3602.893768,N,11507.869349,W,0.0,,030220,12.3,E,A*33::$GPGGA,181017.00,3602.893768,N,11507.869349,W,1,11,0.9,618.0,M,-18.0,M,,*55::$GAGSV,1,1,0,*74::$GLGSV,1,1,0,*79::$GBGSV,1,1,0,*77::$PQGSV,1,1,01,193,00,000,28,0,6*69",830,2020-02-03 10:10:16:509
-0.186645,0.193817,9.523438,-0.248889,0.079108,9.803173,0.090542,0.125564,-0.088512,-0.009964,0.030563,-0.032104,974.0,-16.0721,-5.5511,-53.5126,101.0354,-0.4618,1.4528,8.0,937.9525,28.26489,36.04823,-115.13116,600.0,NaN,-0.12155519,0.0,5.36,,11 / 13,"$GPVTG,,T,,M,0.0,N,0.0,K,A*23::$GPGSV,3,3,12,22,54,178,14,23,54,317,21,26,46,074,18,31,18,049,20*7E::$GPGSA,A,3,01,03,04,07,09,14,16,22,23,26,31,,1.2,0.9,0.8,1*20::$GPRMC,181017.00,A,3602.893768,N,11507.869349,W,0.0,,030220,12.3,E,A*33::$GPGGA,181017.00,3602.893768,N,11507.869349,W,1,11,0.9,618.0,M,-18.0,M,,*55::$GAGSV,1,1,0,*74::$GLGSV,1,1,0,*79::$GBGSV,1,1,0,*77::$PQGSV,1,1,01,193,00,000,28,0,6*69",839,2020-02-03 10:10:16:518
-0.334991,0.12204,9.456436,-0.258221,0.072129,9.802984,-0.095305,0.053473,-0.208331,-0.075897,0.074539,-0.013794,974.0,-16.0721,-5.5511,-53.5126,101.0354,-0.4618,1.4528,8.0,937.9525,28.26489,36.04823,-115.13116,600.0,NaN,-0.12155519,0.0,5.36,,11 / 13,"$GPVTG,,T,,M,0.0,N,0.0,K,A*23::$GPGSV,3,3,12,22,54,178,14,23,54,317,21,26,46,074,18,31,18,049,20*7E::$GPGSA,A,3,01,03,04,07,09,14,16,22,23,26,31,,1.2,0.9,0.8,1*20::$GPRMC,181017.00,A,3602.893768,N,11507.869349,W,0.0,,030220,12.3,E,A*33::$GPGGA,181017.00,3602.893768,N,11507.869349,W,1,11,0.9,618.0,M,-18.0,M,,*55::$GAGSV,1,1,0,*74::$GLGSV,1,1,0,*79::$GBGSV,1,1,0,*77::$PQGSV,1,1,01,193,00,000,28,0,6*69",850,2020-02-03 10:10:16:529
-0.334991,0.12204,9.456436,-0.264361,0.060421,9.802899,0.126086,0.054218,0.137391,-0.071014,0.018341,-0.005234,974.0,-18.2098,-5.5954,-54.2496,106.1061,-0.4214,1.5089,8.0,937.9541,28.26489,36.04823,-115.13116,600.0,NaN,-0.13474734,0.0,5.36,,11 / 13,"$GPVTG,,T,,M,0.0,N,0.0,K,A*23::$GPGSV,3,3,12,22,54,178,14,23,54,317,21,26,46,074,18,31,18,049,20*7E::$GPGSA,A,3,01,03,04,07,09,14,16,22,23,26,31,,1.2,0.9,0.8,1*20::$GPRMC,181017.00,A,3602.893768,N,11507.869349,W,0.0,,030220,12.3,E,A*33::$GPGGA,181017.00,3602.893768,N,11507.869349,W,1,11,0.9,618.0,M,-18.0,M,,*55::$GAGSV,1,1,0,*74::$GLGSV,1,1,0,*79::$GBGSV,1,1,0,*77::$PQGSV,1,1,01,193,00,000,28,0,6*69",860,2020-02-03 10:10:16:539
-0.100494,0.119644,9.84407,-0.264047,0.056792,9.80293,0.052808,0.064957,0.078197,-0.008728,-0.004883,-0.022354,974.0,-18.2098,-5.5954,-54.2496,106.1061,-0.4214,1.5089,8.0,937.9541,28.26489,36.04823,-115.13116,600.0,NaN,-0.13474734,0.0,5.36,,11 / 13,"$GPVTG,,T,,M,0.0,N,0.0,K,A*23::$GPGSV,3,3,12,22,54,178,14,23,54,317,21,26,46,074,18,31,18,049,20*7E::$GPGSA,A,3,01,03,04,07,09,14,16,22,23,26,31,,1.2,0.9,0.8,1*20::$GPRMC,181017.00,A,3602.893768,N,11507.869349,W,0.0,,030220,12.3,E,A*33::$GPGGA,181017.00,3602.893768,N,11507.869349,W,1,11,0.9,618.0,M,-18.0,M,,*55::$GAGSV,1,1,0,*74::$GLGSV,1,1,0,*79::$GBGSV,1,1,0,*77::$PQGSV,1,1,01,193,00,000,28,0,6*69",871,2020-02-03 10:10:16:550
