,ACCELEROMETER X (m/s²),ACCELEROMETER Y (m/s²),ACCELEROMETER Z (m/s²),GRAVITY X (m/s²),GRAVITY Y (m/s²),GRAVITY Z (m/s²),LINEAR ACCELERATION X (m/s²),LINEAR ACCELERATION Y (m/s²),LINEAR ACCELERATION Z (m/s²),GYROSCOPE X (rad/s),GYROSCOPE Y (rad/s),GYROSCOPE Z (rad/s),LIGHT (lux),MAGNETIC FIELD X (μT),MAGNETIC FIELD Y (μT),MAGNETIC FIELD Z (μT),ORIENTATION Z (azimuth °),ORIENTATION X (pitch °),ORIENTATION Y (roll °),PROXIMITY (m),ATMOSPHERIC PRESSURE (hPa),SOUND LEVEL (dB),LOCATION Latitude : ,LOCATION Longitude : ,LOCATION Altitude ( m),LOCATION Altitude-google ( m),LOCATION Altitude-atmospheric pressure ( m),LOCATION Speed ( m/s),LOCATION Accuracy ( m),LOCATION ORIENTATION (°),Satellites in range,GPS NMEA,Time since start in ms ,YYYY-MO-DD HH-MI-SS_SSS,EARTH ACCELERATION X,EARTH ACCELERATION Y,EARTH ACCELERATION Z,EARTH GRAVITY X,EARTH GRAVITY Y,EARTH GRAVITY Z,EARTH LINEAR ACCELERATION X,EARTH LINEAR ACCELERATION Y,EARTH LINEAR ACCELERATION Z,x_ifft,y_ifft,z_ifft
0,0.45942700000000003,0.528809,9.726822,-0.063596,0.145519,9.805363999999999,0.467607,0.387326,0.11603800000000002,0.001038,0.022003,-0.057754999999999994,524.0,-18.1931,-4.9255,-52.7832,1.796645422661467,-0.014838789300455789,0.006485643500410928,8.0,937.9379,29.39552,36.04823,-115.13116000000001,600.0,,0.0018845618,0.0,5.36,,12 / 13,"$GPVTG,,T,,M,0.0,N,0.0,K,A*23::$GPGSV,3,3,12,22,54,178,19,23,54,317,20,26,46,074,18,31,18,049,20*72::$GPGSA,A,3,01,03,04,06,07,09,14,16,22,23,26,31,1.1,0.8,0.7,1*2B::$GPRMC,181016.00,A,3602.893768,N,11507.869350,W,0.0,,030220,12.3,E,A*3A::$GPGGA,181016.00,3602.893768,N,11507.869350,W,1,12,0.8,618.0,M,-18.0,M,,*5E::$GAGSV,1,1,0,*74::$GLGSV,1,1,0,*79::$GBGSV,1,1,0,*77::$PQGSV,1,1,01,193,00,000,28,0,6*69",20,2020-02-03 10:10:15:699,0.2576434618943672,-0.5953602444966505,9.730413371091178,7.029093537003206e-06,-7.760945657353524e-06,9.806649958215258,0.2708822110566626,-0.5428322589862677,0.11873719091303765,0.09093925138502912,-0.17936098437365663,0.033655311711413644
1,0.45942700000000003,0.528809,9.726822,-0.062470000000000005,0.147499,9.805342,0.467607,0.387326,0.11603800000000002,0.001038,0.022003,-0.057754999999999994,524.0,-18.1931,-4.9255,-52.7832,1.796645422661467,-0.014838789300455789,0.006485643500410928,8.0,937.9379,29.39552,36.04823,-115.13116000000001,600.0,,0.0018845618,0.0,5.36,,12 / 13,"$GPVTG,,T,,M,0.0,N,0.0,K,A*23::$GPGSV,3,3,12,22,54,178,19,23,54,317,20,26,46,074,18,31,18,049,20*72::$GPGSA,A,3,01,03,04,06,07,09,14,16,22,23,26,31,1.1,0.8,0.7,1*2B::$GPRMC,181016.00,A,3602.893768,N,11507.869350,W,0.0,,030220,12.3,E,A*3A::$GPGGA,181016.00,3602.893768,N,11507.869350,W,1,12,0.8,618.0,M,-18.0,M,,*5E::$GAGSV,1,1,0,*74::$GLGSV,1,1,0,*79::$GBGSV,1,1,0,*77::$PQGSV,1,1,01,193,00,000,28,0,6*69",30,2020-02-03 10:10:15:709,0.2576434618943672,-0.5953602444966505,9.730413371091178,0.0016846962700413637,-0.001548602546408654,9.80665003742326,0.2708822110566626,-0.5428322589862677,0.11873719091303765,0.061138853369841074,-0.05376414480289614,0.09437362298957702
2,0.45942700000000003,0.528809,9.726822,-0.062470000000000005,0.147499,9.805342,0.467607,0.387326,0.11603800000000002,0.001038,0.022003,-0.057754999999999994,524.0,-18.1931,-4.9255,-52.7832,1.796645422661467,-0.014838789300455789,0.006485643500410928,8.0,937.9379,29.39552,36.04823,-115.13116000000001,600.0,,0.0018845618,0.0,5.36,,12 / 13,"$GPVTG,,T,,M,0.0,N,0.0,K,A*23::$GPGSV,3,3,12,22,54,178,19,23,54,317,20,26,46,074,18,31,18,049,20*72::$GPGSA,A,3,01,03,04,06,07,09,14,16,22,23,26,31,1.1,0.8,0.7,1*2B::$GPRMC,181016.00,A,3602.893768,N,11507.869350,W,0.0,,030220,12.3,E,A*3A::$GPGGA,181016.00,3602.893768,N,11507.869350,W,1,12,0.8,618.0,M,-18.0,M,,*5E::$GAGSV,1,1,0,*74::$GLGSV,1,1,0,*79::$GBGSV,1,1,0,*77::$PQGSV,1,1,01,193,00,000,28,0,6*69",40,2020-02-03 10:10:15:719,0.2576434618943672,-0.5953602444966505,9.730413371091178,0.0016846962700413637,-0.001548602546408654,9.80665003742326,0.2708822110566626,-0.5428322589862677,0.11873719091303765,0.06266907926357462,-0.050226065672502956,0.13340565459891185
3,0.217743,0.382858,9.702896,-0.065192,0.14738099999999998,9.805325999999999,0.26150999999999996,0.222381,0.05235599999999999,-0.006287,0.053772,-0.05899,524.0,-18.9194,-5.6213,-52.0447,1.796645422661467,-0.014838789300455789,0.006485643500410928,8.0,937.9379,29.39552,36.04823,-115.13116000000001,600.0,,0.0018845618,0.0,5.36,,12 / 13,"$GPVTG,,T,,M,0.0,N,0.0,K,A*23::$GPGSV,3,3,12,22,54,178,19,23,54,317,20,26,46,074,18,31,18,049,20*72::$GPGSA,A,3,01,03,04,06,07,09,14,16,22,23,26,31,1.1,0.8,0.7,1*2B::$GPRMC,181016.00,A,3602.893768,N,11507.869350,W,0.0,,030220,12.3,E,A*3A::$GPGGA,181016.00,3602.893768,N,11507.869350,W,1,12,0.8,618.0,M,-18.0,M,,*5E::$GAGSV,1,1,0,*74::$GLGSV,1,1,0,*79::$GBGSV,1,1,0,*77::$PQGSV,1,1,01,193,00,000,28,0,6*69",50,2020-02-03 10:10:15:729,0.16991866208339265,-0.3270537343855065,9.70589236248421,0.0021794982430516363,0.0011306949358586525,9.806649942443002,0.1573119146099479,-0.30483438314913874,0.053952760530268505,-0.019193532733503486,0.08844516634536138,0.08888429435959962
4,0.263214,0.26561,9.762711,-0.098732,0.140837,9.805142,0.345956,0.12829100000000002,0.110069,-0.029495,0.156387,-0.080963,524.0,-17.5125,-6.2622,-52.773999999999994,1.8463907970018094,-0.014362314414661338,0.010068804454755286,8.0,937.9379,29.39552,36.04823,-115.13116000000001,600.0,,0.0018845618,0.0,5.36,,12 / 13,"$GPVTG,,T,,M,0.0,N,0.0,K,A*23::$GPGSV,3,3,12,22,54,178,19,23,54,317,20,26,46,074,18,31,18,049,20*72::$GPGSA,A,3,01,03,04,06,07,09,14,16,22,23,26,31,1.1,0.8,0.7,1*2B::$GPRMC,181016.00,A,3602.893768,N,11507.869350,W,0.0,,030220,12.3,E,A*3A::$GPGGA,181016.00,3602.893768,N,11507.869350,W,1,12,0.8,618.0,M,-18.0,M,,*5E::$GAGSV,1,1,0,*74::$GLGSV,1,1,0,*79::$GBGSV,1,1,0,*77::$PQGSV,1,1,01,193,00,000,28,0,6*69",60,2020-02-03 10:10:15:739,0.02226307489953852,-0.3819995901252156,9.762373534138979,6.166775281535308e-07,-8.049097387004267e-06,9.806650432665162,0.02747286175398105,-0.36844481386183975,0.10841116355505512,-0.10132930466098772,-0.11802396701606195,0.15240140137438823
5,-0.035889,0.279953,9.640686,-0.123879,0.13856,9.804889,0.112267,0.152057,0.022753,-0.01973,0.18450899999999998,-0.101746,524.0,-17.5125,-6.2622,-52.773999999999994,1.8463907970018094,-0.014362314414661338,0.010068804454755286,8.0,937.9379,29.39552,36.04823,-115.13116000000001,600.0,,0.0018845618,0.0,5.36,,12 / 13,"$GPVTG,,T,,M,0.0,N,0.0,K,A*23::$GPGSV,3,3,12,22,54,178,19,23,54,317,20,26,46,074,18,31,18,049,20*72::$GPGSA,A,3,01,03,04,06,07,09,14,16,22,23,26,31,1.1,0.8,0.7,1*2B::$GPRMC,181016.00,A,3602.893768,N,11507.869350,W,0.0,,030220,12.3,E,A*3A::$GPGGA,181016.00,3602.893768,N,11507.869350,W,1,12,0.8,618.0,M,-18.0,M,,*5E::$GAGSV,1,1,0,*74::$GLGSV,1,1,0,*79::$GBGSV,1,1,0,*77::$PQGSV,1,1,01,193,00,000,28,0,6*69",70,2020-02-03 10:10:15:749,0.1194709898522732,-0.09739759565479968,9.643584844033384,0.004656677751739002,0.02481009725310955,9.806617967321282,0.11537262758498357,-0.14955096677522878,0.023802829405999218,0.03091217557408051,-0.02146023775854738,0.06609380405501375
6,-0.035889,0.279953,9.640686,-0.123879,0.13856,9.804889,0.112267,0.152057,0.022753,-0.01973,0.18450899999999998,-0.101746,524.0,-17.5125,-6.2622,-52.773999999999994,1.8463907970018094,-0.014362314414661338,0.010068804454755286,8.0,937.9379,29.39552,36.04823,-115.13116000000001,600.0,,0.0018845618,0.0,5.36,,12 / 13,"$GPVTG,,T,,M,0.0,N,0.0,K,A*23::$GPGSV,3,3,12,22,54,178,19,23,54,317,20,26,46,074,18,31,18,049,20*72::$GPGSA,A,3,01,03,04,06,07,09,14,16,22,23,26,31,1.1,0.8,0.7,1*2B::$GPRMC,181016.00,A,3602.893768,N,11507.869350,W,0.0,,030220,12.3,E,A*3A::$GPGGA,181016.00,3602.893768,N,11507.869350,W,1,12,0.8,618.0,M,-18.0,M,,*5E::$GAGSV,1,1,0,*74::$GLGSV,1,1,0,*79::$GBGSV,1,1,0,*77::$PQGSV,1,1,01,193,00,000,28,0,6*69",80,2020-02-03 10:10:15:759,0.1194709898522732,-0.09739759565479968,9.643584844033384,0.004656677751739002,0.02481009725310955,9.806617967321282,0.11537262758498357,-0.14955096677522878,0.023802829405999218,0.058274608605027735,-0.08599776595026988,0.04649130076114072
7,-0.174683,0.24645999999999998,9.568893,-0.13355699999999998,0.137348,9.804779,-0.015819,0.12096199999999999,-0.05006,-0.031937,0.20771799999999999,-0.10907,524.0,-18.2404,-6.9534,-52.7725,1.8463907970018094,-0.014362314414661338,0.010068804454755286,8.0,937.9412,29.39552,36.04823,-115.13116000000001,600.0,,-0.025912771,0.0,5.36,,12 / 13,"$GPVTG,,T,,M,0.0,N,0.0,K,A*23::$GPGSV,3,3,12,22,54,178,19,23,54,317,20,26,46,074,18,31,18,049,20*72::$GPGSA,A,3,01,03,04,06,07,09,14,16,22,23,26,31,1.1,0.8,0.7,1*2B::$GPRMC,181016.00,A,3602.893768,N,11507.869350,W,0.0,,030220,12.3,E,A*3A::$GPGGA,181016.00,3602.893768,N,11507.869350,W,1,12,0.8,618.0,M,-18.0,M,,*5E::$GAGSV,1,1,0,*74::$GLGSV,1,1,0,*79::$GBGSV,1,1,0,*77::$PQGSV,1,1,01,193,00,000,28,0,6*69",93,2020-02-03 10:10:15:772,0.12620196203708298,0.045684783176864585,9.57271935726218,0.006125838181369969,0.03445299095573141,9.806588022840298,0.12151396338260331,-0.01741889691907632,-0.04815587750393434,0.07302597829421428,0.03603685199137814,-0.06758584842442342
8,-0.20817600000000003,0.141174,9.734009,-0.168237,0.125869,9.804399,-0.0176,0.023365,0.12135599999999999,-0.073456,0.147827,-0.10418699999999999,524.0,-17.4637,-4.2358,-52.0493,1.7551606916708136,-0.0128351513191663,0.017158331876356254,8.0,937.9412,29.39552,36.04823,-115.13116000000001,600.0,,-0.025912771,0.0,5.36,,12 / 13,"$GPVTG,,T,,M,0.0,N,0.0,K,A*23::$GPGSV,3,3,12,22,54,178,19,23,54,317,20,26,46,074,18,31,18,049,20*72::$GPGSA,A,3,01,03,04,06,07,09,14,16,22,23,26,31,1.1,0.8,0.7,1*2B::$GPRMC,181016.00,A,3602.893768,N,11507.869350,W,0.0,,030220,12.3,E,A*3A::$GPGGA,181016.00,3602.893768,N,11507.869350,W,1,12,0.8,618.0,M,-18.0,M,,*5E::$GAGSV,1,1,0,*74::$GLGSV,1,1,0,*79::$GBGSV,1,1,0,*77::$PQGSV,1,1,01,193,00,000,28,0,6*69",108,2020-02-03 10:10:15:787,0.023490915202730306,0.03744505045384294,9.737157932499219,1.7025536420411935e-05,-2.4032330992629358e-05,9.806650113247825,0.02427932669427363,0.011249997510385405,0.12192995453246529,-0.026953296850884045,0.07218680726648043,0.04621345506830842
9,-0.20817600000000003,0.141174,9.734009,-0.168237,0.125869,9.804399,-0.0176,0.023365,0.12135599999999999,-0.073456,0.147827,-0.10418699999999999,524.0,-17.4637,-4.2358,-52.0493,1.7551606916708136,-0.0128351513191663,0.017158331876356254,8.0,937.9412,29.39552,36.04823,-115.13116000000001,600.0,,-0.025912771,0.0,5.36,,12 / 13,"$GPVTG,,T,,M,0.0,N,0.0,K,A*23::$GPGSV,3,3,12,22,54,178,19,23,54,317,20,26,46,074,18,31,18,049,20*72::$GPGSA,A,3,01,03,04,06,07,09,14,16,22,23,26,31,1.1,0.8,0.7,1*2B::$GPRMC,181016.00,A,3602.893768,N,11507.869350,W,0.0,,030220,12.3,E,A*3A::$GPGGA,181016.00,3602.893768,N,11507.869350,W,1,12,0.8,618.0,M,-18.0,M,,*5E::$GAGSV,1,1,0,*74::$GLGSV,1,1,0,*79::$GBGSV,1,1,0,*77::$PQGSV,1,1,01,193,00,000,28,0,6*69",113,2020-02-03 10:10:15:792,0.023490915202730306,0.03744505045384294,9.737157932499219,1.7025536420411935e-05,-2.4032330992629358e-05,9.806650113247825,0.02427932669427363,0.011249997510385405,0.12192995453246529,-0.032789850037874095,0.0491527195057624,-0.0029495851982484483
10,-0.241669,0.186646,9.92543,-0.183774,0.11936500000000001,9.804200999999999,-0.027407,0.074024,0.297162,0.001038,0.06475800000000001,-0.132278,524.0,-18.9041,-4.9438,-52.0477,1.7551606916708136,-0.0128351513191663,0.017158331876356254,8.0,937.9412,29.78336,36.04823,-115.13116000000001,600.0,,-0.025912771,0.0,5.36,,12 / 13,"$GPVTG,,T,,M,0.0,N,0.0,K,A*23::$GPGSV,3,3,12,22,54,178,19,23,54,317,20,26,46,074,18,31,18,049,20*72::$GPGSA,A,3,01,03,04,06,07,09,14,16,22,23,26,31,1.1,0.8,0.7,1*2B::$GPRMC,181016.00,A,3602.893768,N,11507.869350,W,0.0,,030220,12.3,E,A*3A::$GPGGA,181016.00,3602.893768,N,11507.869350,W,1,12,0.8,618.0,M,-18.0,M,,*5E::$GAGSV,1,1,0,*74::$GLGSV,1,1,0,*79::$GBGSV,1,1,0,*77::$PQGSV,1,1,01,193,00,000,28,0,6*69",120,2020-02-03 10:10:15:799,0.07130862415152653,0.05924245040811854,9.92969318418088,-0.00352499074243362,0.016443921073721973,9.806635269377667,0.07310011260261057,0.009040909618153887,0.2985139627551147,0.009755042308286598,-0.03909332135080268,0.15363491071110702
11,-0.701096,0.088531,9.681366,-0.183774,0.11936500000000001,9.804200999999999,-0.027407,0.074024,0.297162,0.01326,0.061096000000000004,-0.124954,524.0,-18.9041,-4.9438,-52.0477,1.7551606916708136,-0.0128351513191663,0.017158331876356254,8.0,937.9412,29.78336,36.04823,-115.13116000000001,600.0,,-0.025912771,0.0,5.36,,12 / 13,"$GPVTG,,T,,M,0.0,N,0.0,K,A*23::$GPGSV,3,3,12,22,54,178,19,23,54,317,20,26,46,074,18,31,18,049,20*72::$GPGSA,A,3,01,03,04,06,07,09,14,16,22,23,26,31,1.1,0.8,0.7,1*2B::$GPRMC,181016.00,A,3602.893768,N,11507.869350,W,0.0,,030220,12.3,E,A*3A::$GPGGA,181016.00,3602.893768,N,11507.869350,W,1,12,0.8,618.0,M,-18.0,M,,*5E::$GAGSV,1,1,0,*74::$GLGSV,1,1,0,*79::$GBGSV,1,1,0,*77::$PQGSV,1,1,01,193,00,000,28,0,6*69",130,2020-02-03 10:10:15:809,0.06292585832326802,0.5323653784607625,9.692308724205168,-0.00352499074243362,0.016443921073721973,9.806635269377667,0.07310011260261057,0.009040909618153887,0.2985139627551147,0.000744151263048239,-0.18531674140526808,0.1703821108645524
12,-0.701096,0.088531,9.681366,-0.19775,0.12091099999999999,9.80391,-0.526907,-0.026808999999999996,0.013235,0.01326,0.061096000000000004,-0.124954,524.0,-18.9041,-4.9438,-52.0477,1.7551606916708136,-0.0128351513191663,0.017158331876356254,8.0,937.9412,29.78336,36.04823,-115.13116000000001,600.0,,-0.025912771,0.0,5.36,,12 / 13,"$GPVTG,,T,,M,0.0,N,0.0,K,A*23::$GPGSV,3,3,12,22,54,178,19,23,54,317,20,26,46,074,18,31,18,049,20*72::$GPGSA,A,3,01,03,04,06,07,09,14,16,22,23,26,31,1.1,0.8,0.7,1*2B::$GPRMC,181016.00,A,3602.893768,N,11507.869350,W,0.0,,030220,12.3,E,A*3A::$GPGGA,181016.00,3602.893768,N,11507.869350,W,1,12,0.8,618.0,M,-18.0,M,,*5E::$GAGSV,1,1,0,*74::$GLGSV,1,1,0,*79::$GBGSV,1,1,0,*77::$PQGSV,1,1,01,193,00,000,28,0,6*69",140,2020-02-03 10:10:15:819,0.06292585832326802,0.5323653784607625,9.692308724205168,0.0005609354515765663,0.029901543464750602,9.806603968936995,0.07001924331284809,0.5226292456842556,0.021928325891462055,-0.014963591450639083,0.16306534387150826,-0.06515817528905563
13,-0.8207399999999999,0.098099,9.542572,-0.202755,0.12079100000000001,9.803809,-0.600949,-0.0255,-0.076323,-0.0014039999999999999,0.094086,-0.077316,524.0,-18.2251,-6.2851,-51.3046,1.8461621588697978,-0.012329005836087944,0.020167279506794478,8.0,937.9412,29.78336,36.04823,-115.13116000000001,600.0,,-0.025912771,0.0,5.36,,12 / 13,"$GPVTG,,T,,M,0.0,N,0.0,K,A*23::$GPGSV,3,3,12,22,54,178,19,23,54,317,20,26,46,074,18,31,18,049,20*72::$GPGSA,A,3,01,03,04,06,07,09,14,16,22,23,26,31,1.1,0.8,0.7,1*2B::$GPRMC,181016.00,A,3602.893768,N,11507.869350,W,0.0,,030220,12.3,E,A*3A::$GPGGA,181016.00,3602.893768,N,11507.869350,W,1,12,0.8,618.0,M,-18.0,M,,*5E::$GAGSV,1,1,0,*74::$GLGSV,1,1,0,*79::$GBGSV,1,1,0,*77::$PQGSV,1,1,01,193,00,000,28,0,6*69",149,2020-02-03 10:10:15:828,0.15196841087620125,0.6097816450954997,9.557666550156759,0.0012753262416432265,0.004831263883892073,9.80664805102229,0.1401524558394409,0.5863552990160092,-0.06449731287441204,0.04467417979950769,0.10526598209778545,-0.10930184872087291
14,-0.8207399999999999,0.098099,9.542572,-0.202755,0.12079100000000001,9.803809,-0.600949,-0.0255,-0.076323,-0.0014039999999999999,0.094086,-0.077316,524.0,-18.2251,-6.2851,-51.3046,1.8461621588697978,-0.012329005836087944,0.020167279506794478,8.0,937.9412,29.78336,36.04823,-115.13116000000001,600.0,,-0.025912771,0.0,5.36,,12 / 13,"$GPVTG,,T,,M,0.0,N,0.0,K,A*23::$GPGSV,3,3,12,22,54,178,19,23,54,317,20,26,46,074,18,31,18,049,20*72::$GPGSA,A,3,01,03,04,06,07,09,14,16,22,23,26,31,1.1,0.8,0.7,1*2B::$GPRMC,181016.00,A,3602.893768,N,11507.869350,W,0.0,,030220,12.3,E,A*3A::$GPGGA,181016.00,3602.893768,N,11507.869350,W,1,12,0.8,618.0,M,-18.0,M,,*5E::$GAGSV,1,1,0,*74::$GLGSV,1,1,0,*79::$GBGSV,1,1,0,*77::$PQGSV,1,1,01,193,00,000,28,0,6*69",160,2020-02-03 10:10:15:839,0.15196841087620125,0.6097816450954997,9.557666550156759,0.0012753262416432265,0.004831263883892073,9.80664805102229,0.1401524558394409,0.5863552990160092,-0.06449731287441204,0.04670568142141634,0.08069538079308682,-0.08205278667971996
15,-0.8207399999999999,0.098099,9.542572,-0.202755,0.12079100000000001,9.803809,-0.600949,-0.0255,-0.076323,-0.0014039999999999999,0.094086,-0.077316,524.0,-18.2251,-6.2851,-51.3046,1.8461621588697978,-0.012329005836087944,0.020167279506794478,8.0,937.9412,29.78336,36.04823,-115.13116000000001,600.0,,-0.025912771,0.0,5.36,,12 / 13,"$GPVTG,,T,,M,0.0,N,0.0,K,A*23::$GPGSV,3,3,12,22,54,178,19,23,54,317,20,26,46,074,18,31,18,049,20*72::$GPGSA,A,3,01,03,04,06,07,09,14,16,22,23,26,31,1.1,0.8,0.7,1*2B::$GPRMC,181016.00,A,3602.893768,N,11507.869350,W,0.0,,030220,12.3,E,A*3A::$GPGGA,181016.00,3602.893768,N,11507.869350,W,1,12,0.8,618.0,M,-18.0,M,,*5E::$GAGSV,1,1,0,*74::$GLGSV,1,1,0,*79::$GBGSV,1,1,0,*77::$PQGSV,1,1,01,193,00,000,28,0,6*69",170,2020-02-03 10:10:15:849,0.15196841087620125,0.6097816450954997,9.557666550156759,0.0012753262416432265,0.004831263883892073,9.80664805102229,0.1401524558394409,0.5863552990160092,-0.06449731287441204,0.06766358348641732,0.16734509555969893,-0.0681406066874793
16,-0.239288,0.004790999999999999,9.918242999999999,-0.224043,0.113259,9.803436999999999,-0.003332,-0.089876,0.296622,-0.027054,0.042769999999999996,-0.04187,524.0,-18.2266,-6.2759,-53.5095,1.8461621588697978,-0.012329005836087944,0.020167279506794478,8.0,937.9412,29.78336,36.04823,-115.13116000000001,600.0,,-0.025912771,0.0,5.36,,12 / 13,"$GPVTG,,T,,M,0.0,N,0.0,K,A*23::$GPGSV,3,3,12,22,54,178,19,23,54,317,20,26,46,074,18,31,18,049,20*72::$GPGSA,A,3,01,03,04,06,07,09,14,16,22,23,26,31,1.1,0.8,0.7,1*2B::$GPRMC,181016.00,A,3602.893768,N,11507.869350,W,0.0,,030220,12.3,E,A*3A::$GPGGA,181016.00,3602.893768,N,11507.869350,W,1,12,0.8,618.0,M,-18.0,M,,*5E::$GAGSV,1,1,0,*74::$GLGSV,1,1,0,*79::$GBGSV,1,1,0,*77::$PQGSV,1,1,01,193,00,000,28,0,6*69",180,2020-02-03 10:10:15:859,-0.10239194832836308,0.06970944690769737,9.920356968859705,-0.00017838957982668768,0.027368650732503552,9.806612606044618,-0.09071703133614743,0.022901120777805827,0.2954985065557469,-0.1289679781605155,-0.23390889710034707,0.3072392390511095
17,-0.275177,0.07656900000000001,9.552155,-0.232194,0.119452,9.803174,-0.046729,-0.051713,-0.053362,0.037689,0.05499299999999999,-0.082199,639.0,-18.2266,-6.2759,-53.5095,1.8461621588697978,-0.012329005836087944,0.020167279506794478,8.0,937.9412,29.78336,36.04823,-115.13116000000001,600.0,,-0.025912771,0.0,5.36,,12 / 13,"$GPVTG,,T,,M,0.0,N,0.0,K,A*23::$GPGSV,3,3,12,22,54,178,19,23,54,317,20,26,46,074,18,31,18,049,20*72::$GPGSA,A,3,01,03,04,06,07,09,14,16,22,23,26,31,1.1,0.8,0.7,1*2B::$GPRMC,181016.00,A,3602.893768,N,11507.869350,W,0.0,,030220,12.3,E,A*3A::$GPGGA,181016.00,3602.893768,N,11507.869350,W,1,12,0.8,618.0,M,-18.0,M,,*5E::$GAGSV,1,1,0,*74::$GLGSV,1,1,0,*79::$GBGSV,1,1,0,*77::$PQGSV,1,1,01,193,00,000,28,0,6*69",190,2020-02-03 10:10:15:869,-0.017221540464414542,0.09058392099637946,9.555979714760594,0.008000782809070295,0.03352997075246181,9.806590387935646,-0.03612882589746007,0.05988799039488505,-0.05304218509576292,-0.0439856421158526,-0.028120633228555073,-0.014069877941351153
18,-0.34217800000000004,0.16989100000000001,9.401398,-0.244414,0.119502,9.802876,-0.094556,0.049932,-0.24607600000000002,-0.018494,0.096527,-0.071198,639.0,-17.4973,-5.5756,-54.9835,1.8544856340725588,-0.012180652849668424,0.023680627291059065,8.0,937.9412,29.78336,36.04823,-115.13116000000001,600.0,,-0.025912771,0.0,5.36,,12 / 13,"$GPVTG,,T,,M,0.0,N,0.0,K,A*23::$GPGSV,3,3,12,22,54,178,19,23,54,317,20,26,46,074,18,31,18,049,20*72::$GPGSA,A,3,01,03,04,06,07,09,14,16,22,23,26,31,1.1,0.8,0.7,1*2B::$GPRMC,181016.00,A,3602.893768,N,11507.869350,W,0.0,,030220,12.3,E,A*3A::$GPGGA,181016.00,3602.893768,N,11507.869350,W,1,12,0.8,618.0,M,-18.0,M,,*5E::$GAGSV,1,1,0,*74::$GLGSV,1,1,0,*79::$GBGSV,1,1,0,*77::$PQGSV,1,1,01,193,00,000,28,0,6*69",199,2020-02-03 10:10:15:878,0.08658405542689912,0.09916838456955218,9.40823585603681,0.0035050731086109232,0.011698185281777795,9.806643037742305,0.07889559856672936,0.0815167956661509,-0.2431418024263218,0.07971190379520778,0.10338951426878687,-0.174651364634346
19,-0.34217800000000004,0.16989100000000001,9.401398,-0.244414,0.119502,9.802876,-0.094556,0.049932,-0.24607600000000002,-0.018494,0.096527,-0.071198,639.0,-17.4973,-5.5756,-54.9835,1.8544856340725588,-0.012180652849668424,0.023680627291059065,8.0,937.9412,29.78336,36.04823,-115.13116000000001,600.0,,-0.025912771,0.0,5.36,,12 / 13,"$GPVTG,,T,,M,0.0,N,0.0,K,A*23::$GPGSV,3,3,12,22,54,178,19,23,54,317,20,26,46,074,18,31,18,049,20*72::$GPGSA,A,3,01,03,04,06,07,09,14,16,22,23,26,31,1.1,0.8,0.7,1*2B::$GPRMC,181016.00,A,3602.893768,N,11507.869350,W,0.0,,030220,12.3,E,A*3A::$GPGGA,181016.00,3602.893768,N,11507.869350,W,1,12,0.8,618.0,M,-18.0,M,,*5E::$GAGSV,1,1,0,*74::$GLGSV,1,1,0,*79::$GBGSV,1,1,0,*77::$PQGSV,1,1,01,193,00,000,28,0,6*69",209,2020-02-03 10:10:15:888,0.08658405542689912,0.09916838456955218,9.40823585603681,0.0035050731086109232,0.011698185281777795,9.806643037742305,0.07889559856672936,0.0815167956661509,-0.2431418024263218,0.06168805547127303,0.12739080938303138,-0.17113693349835726
20,-0.263214,0.155533,9.564117,-0.254472,0.11476800000000001,9.802675,-0.0009140000000000001,0.035457,-0.048186,-0.051498,0.102646,-0.069977,639.0,-16.0721,-5.5466,-54.248000000000005,1.8544856340725588,-0.012180652849668424,0.023680627291059065,8.0,937.9412,29.78336,36.04823,-115.13116000000001,600.0,,-0.025912771,0.0,5.36,,12 / 13,"$GPVTG,,T,,M,0.0,N,0.0,K,A*23::$GPGSV,3,3,12,22,54,178,19,23,54,317,20,26,46,074,18,31,18,049,20*72::$GPGSA,A,3,01,03,04,06,07,09,14,16,22,23,26,31,1.1,0.8,0.7,1*2B::$GPRMC,181016.00,A,3602.893768,N,11507.869350,W,0.0,,030220,12.3,E,A*3A::$GPGGA,181016.00,3602.893768,N,11507.869350,W,1,12,0.8,618.0,M,-18.0,M,,*5E::$GAGSV,1,1,0,*74::$GLGSV,1,1,0,*79::$GBGSV,1,1,0,*77::$PQGSV,1,1,01,193,00,000,28,0,6*69",226,2020-02-03 10:10:15:905,0.047725251306856925,0.024260459149007346,9.568852587645166,0.0017791346934297458,0.022681592801238132,9.80662262087518,0.03517292442841111,-0.008125250725685127,-0.047715516646034906,-0.013126129575584592,-0.0015211104025672356,-0.025131396841951606
21,-0.239288,0.153137,9.879959,-0.266972,0.10703399999999999,9.802432000000001,0.023361,0.055023,0.219509,-0.042938,0.07576000000000001,-0.074875,639.0,-16.0721,-5.5466,-54.248000000000005,1.8544856340725588,-0.012180652849668424,0.023680627291059065,8.0,937.9412,29.78336,36.04823,-115.13116000000001,600.0,,-0.025912771,0.0,5.36,,12 / 13,"$GPVTG,,T,,M,0.0,N,0.0,K,A*23::$GPGSV,3,3,12,22,54,178,19,23,54,317,20,26,46,074,18,31,18,049,20*72::$GPGSA,A,3,01,03,04,06,07,09,14,16,22,23,26,31,1.1,0.8,0.7,1*2B::$GPRMC,181016.00,A,3602.893768,N,11507.869350,W,0.0,,030220,12.3,E,A*3A::$GPGGA,181016.00,3602.893768,N,11507.869350,W,1,12,0.8,618.0,M,-18.0,M,,*5E::$GAGSV,1,1,0,*74::$GLGSV,1,1,0,*79::$GBGSV,1,1,0,*77::$PQGSV,1,1,01,193,00,000,28,0,6*69",230,2020-02-03 10:10:15:909,0.03294398226182388,-0.004133897523716734,9.883986904803042,-0.0021423437744890195,0.036850012670277627,9.806581510775985,0.042256906051289324,-0.04207709015918271,0.2195480364423889,-0.025991464025260834,-0.08651841211217733,0.1395878171189905
22,-0.239288,0.153137,9.879959,-0.266972,0.10703399999999999,9.802432000000001,0.023361,0.055023,0.219509,-0.042938,0.07576000000000001,-0.074875,639.0,-17.4973,-5.5756,-54.9835,1.8551575858345766,-0.010915289141972536,0.027228881660363538,8.0,937.9463,29.78336,36.04823,-115.13116000000001,600.0,,-0.068786815,0.0,5.36,,12 / 13,"$GPVTG,,T,,M,0.0,N,0.0,K,A*23::$GPGSV,3,3,12,22,54,178,19,23,54,317,20,26,46,074,18,31,18,049,20*72::$GPGSA,A,3,01,03,04,06,07,09,14,16,22,23,26,31,1.1,0.8,0.7,1*2B::$GPRMC,181016.00,A,3602.893768,N,11507.869350,W,0.0,,030220,12.3,E,A*3A::$GPGGA,181016.00,3602.893768,N,11507.869350,W,1,12,0.8,618.0,M,-18.0,M,,*5E::$GAGSV,1,1,0,*74::$GLGSV,1,1,0,*79::$GBGSV,1,1,0,*77::$PQGSV,1,1,01,193,00,000,28,0,6*69",240,2020-02-03 10:10:15:919,0.03510367204989634,-0.04132488014656455,9.883893944993716,2.6656013144832347e-05,-2.7743879309621855e-05,9.806650979773051,0.042277991493046146,-0.042929437565186745,0.2193789022596536,-0.017079276214066946,-0.10797105095310797,0.02093546833263517
23,-0.37088000000000004,0.090927,9.94696,-0.273255,0.105428,9.802275,-0.079286,-0.006829000000000001,0.311433,0.021805,-0.009766,-0.08342000000000001,639.0,-17.4973,-5.5756,-54.9835,1.8551575858345766,-0.010915289141972536,0.027228881660363538,8.0,937.9463,29.78336,36.04823,-115.13116000000001,600.0,,-0.068786815,0.0,5.36,,12 / 13,"$GPVTG,,T,,M,0.0,N,0.0,K,A*23::$GPGSV,3,3,12,22,54,178,19,23,54,317,20,26,46,074,18,31,18,049,20*72::$GPGSA,A,3,01,03,04,06,07,09,14,16,22,23,26,31,1.1,0.8,0.7,1*2B::$GPRMC,181016.00,A,3602.893768,N,11507.869350,W,0.0,,030220,12.3,E,A*3A::$GPGGA,181016.00,3602.893768,N,11507.869350,W,1,12,0.8,618.0,M,-18.0,M,,*5E::$GAGSV,1,1,0,*74::$GLGSV,1,1,0,*79::$GBGSV,1,1,0,*77::$PQGSV,1,1,01,193,00,000,28,0,6*69",250,2020-02-03 10:10:15:929,0.011090748082542012,0.10085946632680284,9.953770004309334,0.0002502281482024693,0.006455309256095415,9.80664758213541,0.010039830819155729,0.07080714244127778,0.31338310245197226,-0.014236159234686147,0.020090482235296164,0.03976177049159407
24,-0.397202,0.086136,9.750748,-0.269529,0.111603,9.80231,-0.14514100000000002,-0.021291,0.139534,0.058455999999999994,-0.035416,-0.073639,639.0,-16.04,-4.1977,-53.5187,1.8551575858345766,-0.010915289141972536,0.027228881660363538,8.0,937.9463,29.78336,36.04823,-115.13116000000001,600.0,,-0.068786815,0.0,5.36,,12 / 13,"$GPVTG,,T,,M,0.0,N,0.0,K,A*23::$GPGSV,3,3,12,22,54,178,19,23,54,317,20,26,46,074,18,31,18,049,20*72::$GPGSA,A,3,01,03,04,06,07,09,14,16,22,23,26,31,1.1,0.8,0.7,1*2B::$GPRMC,181016.00,A,3602.893768,N,11507.869350,W,0.0,,030220,12.3,E,A*3A::$GPGGA,181016.00,3602.893768,N,11507.869350,W,1,12,0.8,618.0,M,-18.0,M,,*5E::$GAGSV,1,1,0,*74::$GLGSV,1,1,0,*79::$GBGSV,1,1,0,*77::$PQGSV,1,1,01,193,00,000,28,0,6*69",259,2020-02-03 10:10:15:938,0.017428808399414714,0.13198671839267456,9.758306776362879,0.005130823685204233,0.00114543992050814,9.806648500388178,0.017742867318327346,0.1420206035100848,0.14319320010376024,0.031963443693326404,0.10929522359515786,-0.11491910637989275
25,-0.397202,0.086136,9.750748,-0.269529,0.111603,9.80231,-0.14514100000000002,-0.021291,0.139534,0.068237,-0.026855,-0.05899,639.0,-16.04,-4.1977,-53.5187,1.8551575858345766,-0.010915289141972536,0.027228881660363538,8.0,937.9463,29.78336,36.04823,-115.13116000000001,600.0,,-0.068786815,0.0,5.36,,12 / 13,"$GPVTG,,T,,M,0.0,N,0.0,K,A*23::$GPGSV,3,3,12,22,54,178,19,23,54,317,20,26,46,074,18,31,18,049,20*72::$GPGSA,A,3,01,03,04,06,07,09,14,16,22,23,26,31,1.1,0.8,0.7,1*2B::$GPRMC,181016.00,A,3602.893768,N,11507.869350,W,0.0,,030220,12.3,E,A*3A::$GPGGA,181016.00,3602.893768,N,11507.869350,W,1,12,0.8,618.0,M,-18.0,M,,*5E::$GAGSV,1,1,0,*74::$GLGSV,1,1,0,*79::$GBGSV,1,1,0,*77::$PQGSV,1,1,01,193,00,000,28,0,6*69",271,2020-02-03 10:10:15:950,0.017428808399414714,0.13198671839267456,9.758306776362879,0.005130823685204233,0.00114543992050814,9.806648500388178,0.017742867318327346,0.1420206035100848,0.14319320010376024,0.04599504684152718,0.09482888444482071,-0.0037848952776749593
26,-0.323029,0.093323,9.540192,-0.266719,0.12034,9.802283000000001,-0.073733,-0.028682999999999997,-0.076984,0.060913,-0.014648,-0.045547000000000004,639.0,-16.0248,-3.5141,-54.9942,1.7589585281231532,-0.01227140997077213,0.02720270172158362,8.0,937.9463,29.78336,36.04823,-115.13116000000001,600.0,,-0.068786815,0.0,5.36,,12 / 13,"$GPVTG,,T,,M,0.0,N,0.0,K,A*23::$GPGSV,3,3,12,22,54,178,19,23,54,317,20,26,46,074,18,31,18,049,20*72::$GPGSA,A,3,01,03,04,06,07,09,14,16,22,23,26,31,1.1,0.8,0.7,1*2B::$GPRMC,181016.00,A,3602.893768,N,11507.869350,W,0.0,,030220,12.3,E,A*3A::$GPGGA,181016.00,3602.893768,N,11507.869350,W,1,12,0.8,618.0,M,-18.0,M,,*5E::$GAGSV,1,1,0,*74::$GLGSV,1,1,0,*79::$GBGSV,1,1,0,*77::$PQGSV,1,1,01,193,00,000,28,0,6*69",280,2020-02-03 10:10:15:959,-0.011472201920825403,0.06673469600250173,9.545875296847665,4.2417939469713284e-05,-2.3820006848751518e-05,9.806649415079715,-0.013066234235989514,0.07965915167488481,-0.07529607633421515,-0.00882554430778898,-0.019560674135331718,-0.05893953611280893
27,-0.323029,0.093323,9.540192,-0.266719,0.12034,9.802283000000001,-0.073733,-0.028682999999999997,-0.076984,0.060913,-0.014648,-0.045547000000000004,639.0,-16.0248,-3.5141,-54.9942,1.7589585281231532,-0.01227140997077213,0.02720270172158362,8.0,937.9463,29.78336,36.04823,-115.13116000000001,600.0,,-0.068786815,0.0,5.36,,12 / 13,"$GPVTG,,T,,M,0.0,N,0.0,K,A*23::$GPGSV,3,3,12,22,54,178,19,23,54,317,20,26,46,074,18,31,18,049,20*72::$GPGSA,A,3,01,03,04,06,07,09,14,16,22,23,26,31,1.1,0.8,0.7,1*2B::$GPRMC,181016.00,A,3602.893768,N,11507.869350,W,0.0,,030220,12.3,E,A*3A::$GPGGA,181016.00,3602.893768,N,11507.869350,W,1,12,0.8,618.0,M,-18.0,M,,*5E::$GAGSV,1,1,0,*74::$GLGSV,1,1,0,*79::$GBGSV,1,1,0,*77::$PQGSV,1,1,01,193,00,000,28,0,6*69",289,2020-02-03 10:10:15:968,-0.011472201920825403,0.06673469600250173,9.545875296847665,4.2417939469713284e-05,-2.3820006848751518e-05,9.806649415079715,-0.013066234235989514,0.07965915167488481,-0.07529607633421515,-0.060358426653299664,-0.07118460208409591,0.0886974572006323
28,-0.361313,0.241669,9.365509,-0.26973800000000003,0.12797999999999998,9.802104,-0.081557,0.106181,-0.28365100000000004,0.020584,0.023224,-0.035782,639.0,-17.4973,-5.5832,-53.5126,1.7589585281231532,-0.01227140997077213,0.02720270172158362,8.0,937.9463,29.78336,36.04823,-115.13116000000001,600.0,,-0.068786815,0.0,5.36,,12 / 13,"$GPVTG,,T,,M,0.0,N,0.0,K,A*23::$GPGSV,3,3,12,22,54,178,19,23,54,317,20,26,46,074,18,31,18,049,20*72::$GPGSA,A,3,01,03,04,06,07,09,14,16,22,23,26,31,1.1,0.8,0.7,1*2B::$GPRMC,181016.00,A,3602.893768,N,11507.869350,W,0.0,,030220,12.3,E,A*3A::$GPGGA,181016.00,3602.893768,N,11507.869350,W,1,12,0.8,618.0,M,-18.0,M,,*5E::$GAGSV,1,1,0,*74::$GLGSV,1,1,0,*79::$GBGSV,1,1,0,*77::$PQGSV,1,1,01,193,00,000,28,0,6*69",299,2020-02-03 10:10:15:978,0.14438812100899162,0.08079990710224497,9.374131067151492,0.008114102328013045,0.0015136791281729067,9.806646326139171,0.12440460276652758,0.06712026311230056,-0.2800039355102675,0.025787354936942203,-0.07736262879202707,-0.03797996505739895
29,-0.311066,0.270386,9.434906,-0.268389,0.131338,9.802097,-0.07574700000000001,0.12443900000000001,-0.21416999999999997,0.012039,-0.047623,-0.016235,639.0,-17.4973,-5.5832,-53.5126,1.7589585281231532,-0.01227140997077213,0.02720270172158362,8.0,937.9463,29.78336,36.04823,-115.13116000000001,600.0,,-0.068786815,0.0,5.36,,12 / 13,"$GPVTG,,T,,M,0.0,N,0.0,K,A*23::$GPGSV,3,3,12,22,54,178,19,23,54,317,20,26,46,074,18,31,18,049,20*72::$GPGSA,A,3,01,03,04,06,07,09,14,16,22,23,26,31,1.1,0.8,0.7,1*2B::$GPRMC,181016.00,A,3602.893768,N,11507.869350,W,0.0,,030220,12.3,E,A*3A::$GPGGA,181016.00,3602.893768,N,11507.869350,W,1,12,0.8,618.0,M,-18.0,M,,*5E::$GAGSV,1,1,0,*74::$GLGSV,1,1,0,*79::$GBGSV,1,1,0,*77::$PQGSV,1,1,01,193,00,000,28,0,6*69",310,2020-02-03 10:10:15:989,0.16200932729041995,0.024382602264594738,9.442482742412913,0.011160252177199514,-0.0004400298721291829,9.80664382845217,0.1400604373290436,0.056297106688837764,-0.21048793624258527,0.0168609108026783,0.00995534438605564,0.027941042979695054
30,-0.311066,0.270386,9.434906,-0.268389,0.131338,9.802097,-0.07574700000000001,0.12443900000000001,-0.21416999999999997,0.015701,-0.108704,-0.016235,639.0,-17.482,-4.8981,-54.9866,1.79761931638408,-0.013393656679804486,0.027373743988279065,8.0,937.9463,29.78336,36.04823,-115.13116000000001,600.0,,-0.068786815,0.0,5.36,,12 / 13,"$GPVTG,,T,,M,0.0,N,0.0,K,A*23::$GPGSV,3,3,12,22,54,178,19,23,54,317,20,26,46,074,18,31,18,049,20*72::$GPGSA,A,3,01,03,04,06,07,09,14,16,22,23,26,31,1.1,0.8,0.7,1*2B::$GPRMC,181016.00,A,3602.893768,N,11507.869350,W,0.0,,030220,12.3,E,A*3A::$GPGGA,181016.00,3602.893768,N,11507.869350,W,1,12,0.8,618.0,M,-18.0,M,,*5E::$GAGSV,1,1,0,*74::$GLGSV,1,1,0,*79::$GBGSV,1,1,0,*77::$PQGSV,1,1,01,193,00,000,28,0,6*69",320,2020-02-03 10:10:15:999,0.1521464269240698,0.01890617721759391,9.442659365635574,3.809431286283527e-05,-3.1591939735425845e-05,9.806650188546788,0.14237137491331495,0.050819170503116254,-0.21033132230998666,0.030199876846034965,0.17329135480361066,-0.027304977248857425
31,0.086136,0.291931,9.387039,-0.252309,0.133979,9.802488,0.27570700000000004,0.16730799999999998,-0.24725100000000003,0.002274,-0.123367,-0.057754999999999994,639.0,-17.482,-4.8981,-54.9866,1.79761931638408,-0.013393656679804486,0.027373743988279065,8.0,937.9463,29.78336,36.04823,-115.13116000000001,600.0,,-0.068786815,0.0,5.36,,12 / 13,"$GPVTG,,T,,M,0.0,N,0.0,K,A*23::$GPGSV,3,3,12,22,54,178,19,23,54,317,20,26,46,074,18,31,18,049,20*72::$GPGSA,A,3,01,03,04,06,07,09,14,16,22,23,26,31,1.1,0.8,0.7,1*2B::$GPRMC,181016.00,A,3602.893768,N,11507.869350,W,0.0,,030220,12.3,E,A*3A::$GPGGA,181016.00,3602.893768,N,11507.869350,W,1,12,0.8,618.0,M,-18.0,M,,*5E::$GAGSV,1,1,0,*74::$GLGSV,1,1,0,*79::$GBGSV,1,1,0,*77::$PQGSV,1,1,01,193,00,000,28,0,6*69",334,2020-02-03 10:10:16:013,0.08476465870223157,-0.37169687753471453,9.384231491744226,-0.0010112748581356523,-0.016297900435337825,9.8066362505107,0.1057639201627444,-0.30037673844708684,-0.25244243285489676,0.028339621098483928,-0.008404547950872924,-0.1307093653391665
32,0.279953,0.251251,9.626327999999999,-0.23391900000000002,0.13378099999999998,9.802947,0.501682,0.156754,-0.022185,0.002274,-0.123367,-0.057754999999999994,639.0,-17.482,-4.9057,-53.5156,1.79761931638408,-0.013393656679804486,0.027373743988279065,8.0,937.9463,29.78336,36.04823,-115.13116000000001,600.0,,-0.068786815,0.0,5.36,,12 / 13,"$GPVTG,,T,,M,0.0,N,0.0,K,A*23::$GPGSV,3,3,12,22,54,178,19,23,54,317,20,26,46,074,18,31,18,049,20*72::$GPGSA,A,3,01,03,04,06,07,09,14,16,22,23,26,31,1.1,0.8,0.7,1*2B::$GPRMC,181016.00,A,3602.893768,N,11507.869350,W,0.0,,030220,12.3,E,A*3A::$GPGGA,181016.00,3602.893768,N,11507.869350,W,1,12,0.8,618.0,M,-18.0,M,,*5E::$GAGSV,1,1,0,*74::$GLGSV,1,1,0,*79::$GBGSV,1,1,0,*77::$PQGSV,1,1,01,193,00,000,28,0,6*69",340,2020-02-03 10:10:16:019,-0.0030317603853964314,-0.5569770696808778,9.61755992251011,-0.005347034171327675,-0.03417640562830612,9.806589046241047,0.04036080052714735,-0.5234280239165077,-0.03380723923463197,6.910288479742971e-06,-0.1389279915025963,0.050902929100894674
33,0.148361,0.23210100000000003,9.671783,-0.22655999999999998,0.13187000000000001,9.803144999999999,0.407103,0.103595,0.027859,-0.025833,-0.039093,-0.107849,639.0,-16.7847,-5.5679,-53.5126,1.8524610521402454,-0.013447761886616309,0.02310641396715293,8.0,937.9463,29.78336,36.04823,-115.13116000000001,600.0,,-0.068786815,0.0,5.36,,12 / 13,"$GPVTG,,T,,M,0.0,N,0.0,K,A*23::$GPGSV,3,3,12,22,54,178,19,23,54,317,20,26,46,074,18,31,18,049,20*72::$GPGSA,A,3,01,03,04,06,07,09,14,16,22,23,26,31,1.1,0.8,0.7,1*2B::$GPRMC,181016.00,A,3602.893768,N,11507.869350,W,0.0,,030220,12.3,E,A*3A::$GPGGA,181016.00,3602.893768,N,11507.869350,W,1,12,0.8,618.0,M,-18.0,M,,*5E::$GAGSV,1,1,0,*74::$GLGSV,1,1,0,*79::$GBGSV,1,1,0,*77::$PQGSV,1,1,01,193,00,000,28,0,6*69",350,2020-02-03 10:10:16:029,-0.0053531780664540785,-0.38553819434029135,9.668019440599013,2.589937111141527e-05,-2.450482505339524e-05,9.80664932687275,-0.014170137139062613,-0.42029352226343836,0.019835898564289557,-0.030172078086030164,-0.05754942174717627,0.09048664572876502
34,0.148361,0.23210100000000003,9.671783,-0.22655999999999998,0.13187000000000001,9.803144999999999,0.407103,0.103595,0.027859,-0.025833,-0.039093,-0.107849,639.0,-16.7847,-5.5679,-53.5126,1.8524610521402454,-0.013447761886616309,0.02310641396715293,8.0,937.9463,29.78336,36.04823,-115.13116000000001,600.0,,-0.068786815,0.0,5.36,,12 / 13,"$GPVTG,,T,,M,0.0,N,0.0,K,A*23::$GPGSV,3,3,12,22,54,178,19,23,54,317,20,26,46,074,18,31,18,049,20*72::$GPGSA,A,3,01,03,04,06,07,09,14,16,22,23,26,31,1.1,0.8,0.7,1*2B::$GPRMC,181016.00,A,3602.893768,N,11507.869350,W,0.0,,030220,12.3,E,A*3A::$GPGGA,181016.00,3602.893768,N,11507.869350,W,1,12,0.8,618.0,M,-18.0,M,,*5E::$GAGSV,1,1,0,*74::$GLGSV,1,1,0,*79::$GBGSV,1,1,0,*77::$PQGSV,1,1,01,193,00,000,28,0,6*69",362,2020-02-03 10:10:16:041,-0.0053531780664540785,-0.38553819434029135,9.668019440599013,2.589937111141527e-05,-2.450482505339524e-05,9.80664932687275,-0.014170137139062613,-0.42029352226343836,0.019835898564289557,-0.01915091153191716,-0.1698660363327721,0.07612763062448383
35,-0.272781,0.119644,9.702896,-0.238746,0.12229000000000001,9.80298,-0.034354,0.011317,0.044670999999999995,-0.08081100000000001,0.133179,-0.10540799999999999,639.0,-16.7847,-5.5679,-53.5126,1.8524610521402454,-0.013447761886616309,0.02310641396715293,8.0,937.9463,29.78336,36.04823,-115.13116000000001,600.0,,-0.068786815,0.0,5.36,,12 / 13,"$GPVTG,,T,,M,0.0,N,0.0,K,A*23::$GPGSV,3,3,12,22,54,178,19,23,54,317,20,26,46,074,18,31,18,049,20*72::$GPGSA,A,3,01,03,04,06,07,09,14,16,22,23,26,31,1.1,0.8,0.7,1*2B::$GPRMC,181016.00,A,3602.893768,N,11507.869350,W,0.0,,030220,12.3,E,A*3A::$GPGGA,181016.00,3602.893768,N,11507.869350,W,1,12,0.8,618.0,M,-18.0,M,,*5E::$GAGSV,1,1,0,*74::$GLGSV,1,1,0,*79::$GBGSV,1,1,0,*77::$PQGSV,1,1,01,193,00,000,28,0,6*69",370,2020-02-03 10:10:16:049,0.0030664300382319265,0.04961489109708511,9.70733969257805,-0.00578548393636677,0.014346643237551443,9.806637144251818,0.019551519543255663,0.029018362351046795,0.045600907622689285,0.021126694429348263,0.1403585302356679,0.067041475987615
36,-0.272781,0.119644,9.702896,-0.238746,0.12229000000000001,9.80298,-0.034354,0.011317,0.044670999999999995,-0.08081100000000001,0.133179,-0.10540799999999999,639.0,-16.7847,-5.5679,-53.5126,1.8524610521402454,-0.013447761886616309,0.02310641396715293,8.0,937.9463,29.78336,36.04823,-115.13116000000001,600.0,,-0.068786815,0.0,5.36,,12 / 13,"$GPVTG,,T,,M,0.0,N,0.0,K,A*23::$GPGSV,3,3,12,22,54,178,19,23,54,317,20,26,46,074,18,31,18,049,20*72::$GPGSA,A,3,01,03,04,06,07,09,14,16,22,23,26,31,1.1,0.8,0.7,1*2B::$GPRMC,181016.00,A,3602.893768,N,11507.869350,W,0.0,,030220,12.3,E,A*3A::$GPGGA,181016.00,3602.893768,N,11507.869350,W,1,12,0.8,618.0,M,-18.0,M,,*5E::$GAGSV,1,1,0,*74::$GLGSV,1,1,0,*79::$GBGSV,1,1,0,*77::$PQGSV,1,1,01,193,00,000,28,0,6*69",380,2020-02-03 10:10:16:059,0.0030664300382319265,0.04961489109708511,9.70733969257805,-0.00578548393636677,0.014346643237551443,9.806637144251818,0.019551519543255663,0.029018362351046795,0.045600907622689285,0.02924884645068676,0.03216194803019892,0.014867901328327913
37,-0.356537,0.08136,9.714858999999999,-0.253676,0.11381300000000001,9.802708,-0.097437,-0.038971,0.074666,-0.08569299999999999,0.16127,-0.096848,691.0,-18.2404,-6.9534,-52.7725,1.8524610521402454,-0.013447761886616309,0.02310641396715293,8.0,937.9479,29.78336,36.04823,-115.13116000000001,600.0,,-0.08292117,0.0,5.36,,12 / 13,"$GPVTG,,T,,M,0.0,N,0.0,K,A*23::$GPGSV,3,3,12,22,54,178,19,23,54,317,20,26,46,074,18,31,18,049,20*72::$GPGSA,A,3,01,03,04,06,07,09,14,16,22,23,26,31,1.1,0.8,0.7,1*2B::$GPRMC,181016.00,A,3602.893768,N,11507.869350,W,0.0,,030220,12.3,E,A*3A::$GPGGA,181016.00,3602.893768,N,11507.869350,W,1,12,0.8,618.0,M,-18.0,M,,*5E::$GAGSV,1,1,0,*74::$GLGSV,1,1,0,*79::$GBGSV,1,1,0,*77::$PQGSV,1,1,01,193,00,000,28,0,6*69",390,2020-02-03 10:10:16:069,-0.010659474098485472,0.1404798615586998,9.720718865184734,-0.009772948450386038,0.031048046337390223,9.806596226698957,-0.011796627459150102,0.10303736258568716,0.07636662136022296,0.0025776891196932026,0.043792208945571655,0.0028444855120102314
38,-0.356537,0.08136,9.714858999999999,-0.253676,0.11381300000000001,9.802708,-0.097437,-0.038971,0.074666,-0.08569299999999999,0.16127,-0.096848,691.0,-18.2404,-6.9534,-52.7725,1.8524610521402454,-0.013447761886616309,0.02310641396715293,8.0,937.9479,29.78336,36.04823,-115.13116000000001,600.0,,-0.08292117,0.0,5.36,,12 / 13,"$GPVTG,,T,,M,0.0,N,0.0,K,A*23::$GPGSV,3,3,12,22,54,178,19,23,54,317,20,26,46,074,18,31,18,049,20*72::$GPGSA,A,3,01,03,04,06,07,09,14,16,22,23,26,31,1.1,0.8,0.7,1*2B::$GPRMC,181016.00,A,3602.893768,N,11507.869350,W,0.0,,030220,12.3,E,A*3A::$GPGGA,181016.00,3602.893768,N,11507.869350,W,1,12,0.8,618.0,M,-18.0,M,,*5E::$GAGSV,1,1,0,*74::$GLGSV,1,1,0,*79::$GBGSV,1,1,0,*77::$PQGSV,1,1,01,193,00,000,28,0,6*69",401,2020-02-03 10:10:16:080,-0.010659474098485472,0.1404798615586998,9.720718865184734,-0.009772948450386038,0.031048046337390223,9.806596226698957,-0.011796627459150102,0.10303736258568716,0.07636662136022296,-0.008770655308085264,-0.0009392790441702928,0.0002000440130131899
39,-0.301498,0.07896399999999999,9.879959,-0.277124,0.099083,9.802234,-0.028873000000000003,-0.01851,0.254803,-0.035614,0.086761,-0.102966,691.0,-18.2083,-5.6061,-52.0447,1.8452441156832489,-0.010103711039795172,0.028263861906796174,8.0,937.9479,29.78336,36.04823,-115.13116000000001,600.0,,-0.08292117,0.0,5.36,,12 / 13,"$GPVTG,,T,,M,0.0,N,0.0,K,A*23::$GPGSV,3,3,12,22,54,178,19,23,54,317,20,26,46,074,18,31,18,049,20*72::$GPGSA,A,3,01,03,04,06,07,09,14,16,22,23,26,31,1.1,0.8,0.7,1*2B::$GPRMC,181016.00,A,3602.893768,N,11507.869350,W,0.0,,030220,12.3,E,A*3A::$GPGGA,181016.00,3602.893768,N,11507.869350,W,1,12,0.8,618.0,M,-18.0,M,,*5E::$GAGSV,1,1,0,*74::$GLGSV,1,1,0,*79::$GBGSV,1,1,0,*77::$PQGSV,1,1,01,193,00,000,28,0,6*69",410,2020-02-03 10:10:16:089,-0.014075917562553747,0.026985387552239698,9.884826748931133,3.565891580620262e-05,-2.3479824349303957e-05,9.806651137936852,-0.01442249984359478,0.02656944432305828,0.25531724415837137,-0.04641468160819945,-0.141426849808489,0.2274269561872452
40,-0.631699,0.11245699999999999,9.688538000000001,-0.287382,0.09890499999999999,9.801938999999999,-0.37291199999999997,0.022341,0.016638,0.015701,0.05499299999999999,-0.09440599999999999,691.0,-17.4805,-4.9149,-51.3107,1.8452441156832489,-0.010103711039795172,0.028263861906796174,8.0,937.9479,29.78336,36.04823,-115.13116000000001,600.0,,-0.08292117,0.0,5.36,,12 / 13,"$GPVTG,,T,,M,0.0,N,0.0,K,A*23::$GPGSV,3,3,12,22,54,178,19,23,54,317,20,26,46,074,18,31,18,049,20*72::$GPGSA,A,3,01,03,04,06,07,09,14,16,22,23,26,31,1.1,0.8,0.7,1*2B::$GPRMC,181016.00,A,3602.893768,N,11507.869350,W,0.0,,030220,12.3,E,A*3A::$GPGGA,181016.00,3602.893768,N,11507.869350,W,1,12,0.8,618.0,M,-18.0,M,,*5E::$GAGSV,1,1,0,*74::$GLGSV,1,1,0,*79::$GBGSV,1,1,0,*77::$PQGSV,1,1,01,193,00,000,28,0,6*69",420,2020-02-03 10:10:16:099,0.11094084743904939,0.3402985139156506,9.703161744023971,0.002648437315540153,0.009902174620766008,9.806644365193812,0.12223737002785069,0.35234480349310965,0.027394668990083956,0.039625889306112244,0.09561164842169244,0.0788870692746086
41,-0.631699,0.11245699999999999,9.688538000000001,-0.287382,0.09890499999999999,9.801938999999999,-0.37291199999999997,0.022341,0.016638,0.015701,0.05499299999999999,-0.09440599999999999,691.0,-17.4805,-4.9149,-51.3107,1.8452441156832489,-0.010103711039795172,0.028263861906796174,8.0,937.9479,29.78336,36.04823,-115.13116000000001,600.0,,-0.08292117,0.0,5.36,,12 / 13,"$GPVTG,,T,,M,0.0,N,0.0,K,A*23::$GPGSV,3,3,12,22,54,178,19,23,54,317,20,26,46,074,18,31,18,049,20*72::$GPGSA,A,3,01,03,04,06,07,09,14,16,22,23,26,31,1.1,0.8,0.7,1*2B::$GPRMC,181016.00,A,3602.893768,N,11507.869350,W,0.0,,030220,12.3,E,A*3A::$GPGGA,181016.00,3602.893768,N,11507.869350,W,1,12,0.8,618.0,M,-18.0,M,,*5E::$GAGSV,1,1,0,*74::$GLGSV,1,1,0,*79::$GBGSV,1,1,0,*77::$PQGSV,1,1,01,193,00,000,28,0,6*69",429,2020-02-03 10:10:16:108,0.11094084743904939,0.3402985139156506,9.703161744023971,0.002648437315540153,0.009902174620766008,9.806644365193812,0.12223737002785069,0.35234480349310965,0.027394668990083956,-0.003768073323058021,0.021476767677570733,0.14951138752317228
42,-0.713058,0.155533,9.437286,-0.286559,0.100983,9.801943,-0.44074300000000005,0.060983,-0.204037,0.004715,-0.048859,-0.033339999999999995,691.0,-17.4957,-5.5862,-52.7786,1.8452441156832489,-0.010103711039795172,0.028263861906796174,8.0,937.9479,29.78336,36.04823,-115.13116000000001,600.0,,-0.08292117,0.0,5.36,,12 / 13,"$GPVTG,,T,,M,0.0,N,0.0,K,A*23::$GPGSV,3,3,12,22,54,178,19,23,54,317,20,26,46,074,18,31,18,049,20*72::$GPGSA,A,3,01,03,04,06,07,09,14,16,22,23,26,31,1.1,0.8,0.7,1*2B::$GPRMC,181016.00,A,3602.893768,N,11507.869350,W,0.0,,030220,12.3,E,A*3A::$GPGGA,181016.00,3602.893768,N,11507.869350,W,1,12,0.8,618.0,M,-18.0,M,,*5E::$GAGSV,1,1,0,*74::$GLGSV,1,1,0,*79::$GBGSV,1,1,0,*77::$PQGSV,1,1,01,193,00,000,28,0,6*69",439,2020-02-03 10:10:16:118,0.17880776793883013,0.4130422139627261,9.454757172072613,0.004425379119704281,0.008546481498259872,9.806646092099614,0.18164041252533675,0.412526828568596,-0.19087375921210797,0.04351960371137138,0.08053040705480148,-0.042648545878551096
43,-0.713058,0.155533,9.437286,-0.286559,0.100983,9.801943,-0.44074300000000005,0.060983,-0.204037,0.010818000000000001,-0.125809,0.003311,691.0,-17.4957,-5.5862,-52.7786,1.8452441156832489,-0.010103711039795172,0.028263861906796174,8.0,937.9479,29.78336,36.04823,-115.13116000000001,600.0,,-0.08292117,0.0,5.36,,12 / 13,"$GPVTG,,T,,M,0.0,N,0.0,K,A*23::$GPGSV,3,3,12,22,54,178,19,23,54,317,20,26,46,074,18,31,18,049,20*72::$GPGSA,A,3,01,03,04,06,07,09,14,16,22,23,26,31,1.1,0.8,0.7,1*2B::$GPRMC,181016.00,A,3602.893768,N,11507.869350,W,0.0,,030220,12.3,E,A*3A::$GPGGA,181016.00,3602.893768,N,11507.869350,W,1,12,0.8,618.0,M,-18.0,M,,*5E::$GAGSV,1,1,0,*74::$GLGSV,1,1,0,*79::$GBGSV,1,1,0,*77::$PQGSV,1,1,01,193,00,000,28,0,6*69",450,2020-02-03 10:10:16:129,0.17880776793883013,0.4130422139627261,9.454757172072613,0.004425379119704281,0.008546481498259872,9.806646092099614,0.18164041252533675,0.412526828568596,-0.19087375921210797,0.07131190559674583,0.1842288381077954,-0.07153965246533475
44,-0.12442,0.110077,9.793823,-0.26645,0.101924,9.8025,0.10178999999999999,0.012206999999999999,0.128128,0.010818000000000001,-0.125809,0.003311,691.0,-15.3778,-6.2119,-53.508,1.890120021410527,-0.010393435695626231,0.027174776453551708,8.0,937.9479,29.78336,36.04823,-115.13116000000001,600.0,,-0.08292117,0.0,5.36,,12 / 13,"$GPVTG,,T,,M,0.0,N,0.0,K,A*23::$GPGSV,3,3,12,22,54,178,19,23,54,317,20,26,46,074,18,31,18,049,20*72::$GPGSA,A,3,01,03,04,06,07,09,14,16,22,23,26,31,1.1,0.8,0.7,1*2B::$GPRMC,181016.00,A,3602.893768,N,11507.869350,W,0.0,,030220,12.3,E,A*3A::$GPGGA,181016.00,3602.893768,N,11507.869350,W,1,12,0.8,618.0,M,-18.0,M,,*5E::$GAGSV,1,1,0,*74::$GLGSV,1,1,0,*79::$GBGSV,1,1,0,*77::$PQGSV,1,1,01,193,00,000,28,0,6*69",460,2020-02-03 10:10:16:139,-0.036637546137077454,-0.13718858634097802,9.794202531071573,3.335047830230198e-05,-2.2334239179883086e-05,9.806650312551422,-0.02271156777572364,-0.10333097365558286,0.12543481935076062,-0.07929842622403276,-0.14832904069256359,0.18018879123364245
45,-0.07656900000000001,0.153137,9.829711999999999,-0.259399,0.103334,9.802674,0.23632899999999998,0.078238,0.160885,0.024246,-0.14413499999999999,-0.004028,691.0,-15.3778,-6.2119,-53.508,1.890120021410527,-0.010393435695626231,0.027174776453551708,8.0,937.9479,29.78336,36.04823,-115.13116000000001,600.0,,-0.08292117,0.0,5.36,,12 / 13,"$GPVTG,,T,,M,0.0,N,0.0,K,A*23::$GPGSV,3,3,12,22,54,178,19,23,54,317,20,26,46,074,18,31,18,049,20*72::$GPGSA,A,3,01,03,04,06,07,09,14,16,22,23,26,31,1.1,0.8,0.7,1*2B::$GPRMC,181016.00,A,3602.893768,N,11507.869350,W,0.0,,030220,12.3,E,A*3A::$GPGGA,181016.00,3602.893768,N,11507.869350,W,1,12,0.8,618.0,M,-18.0,M,,*5E::$GAGSV,1,1,0,*74::$GLGSV,1,1,0,*79::$GBGSV,1,1,0,*77::$PQGSV,1,1,01,193,00,000,28,0,6*69",470,2020-02-03 10:10:16:149,-0.011436654938964952,-0.19694096534479,9.829223530603363,-0.0008439908503319049,-0.00716132857528623,9.80664730221728,-0.0028499432145164772,-0.2525050616652173,0.1552083624265099,-0.008033830214881162,-0.10766529668978903,0.14493000521551108
46,-0.07656900000000001,0.153137,9.829711999999999,-0.259399,0.103334,9.802674,0.23632899999999998,0.078238,0.160885,0.024246,-0.14413499999999999,-0.004028,691.0,-15.3778,-6.2119,-53.508,1.890120021410527,-0.010393435695626231,0.027174776453551708,8.0,937.9479,29.78336,36.04823,-115.13116000000001,600.0,,-0.08292117,0.0,5.36,,12 / 13,"$GPVTG,,T,,M,0.0,N,0.0,K,A*23::$GPGSV,3,3,12,22,54,178,19,23,54,317,20,26,46,074,18,31,18,049,20*72::$GPGSA,A,3,01,03,04,06,07,09,14,16,22,23,26,31,1.1,0.8,0.7,1*2B::$GPRMC,181016.00,A,3602.893768,N,11507.869350,W,0.0,,030220,12.3,E,A*3A::$GPGGA,181016.00,3602.893768,N,11507.869350,W,1,12,0.8,618.0,M,-18.0,M,,*5E::$GAGSV,1,1,0,*74::$GLGSV,1,1,0,*79::$GBGSV,1,1,0,*77::$PQGSV,1,1,01,193,00,000,28,0,6*69",479,2020-02-03 10:10:16:158,-0.011436654938964952,-0.19694096534479,9.829223530603363,-0.0008439908503319049,-0.00716132857528623,9.80664730221728,-0.0028499432145164772,-0.2525050616652173,0.1552083624265099,0.016582533010121844,0.011483256627732629,0.1085300103973094
47,-0.07656900000000001,0.153137,9.829711999999999,-0.259399,0.103334,9.802674,0.23632899999999998,0.078238,0.160885,0.024246,-0.14413499999999999,-0.004028,691.0,-15.3778,-6.2119,-53.508,1.890120021410527,-0.010393435695626231,0.027174776453551708,8.0,937.9479,29.78336,36.04823,-115.13116000000001,600.0,,-0.08292117,0.0,5.36,,12 / 13,"$GPVTG,,T,,M,0.0,N,0.0,K,A*23::$GPGSV,3,3,12,22,54,178,19,23,54,317,20,26,46,074,18,31,18,049,20*72::$GPGSA,A,3,01,03,04,06,07,09,14,16,22,23,26,31,1.1,0.8,0.7,1*2B::$GPRMC,181016.00,A,3602.893768,N,11507.869350,W,0.0,,030220,12.3,E,A*3A::$GPGGA,181016.00,3602.893768,N,11507.869350,W,1,12,0.8,618.0,M,-18.0,M,,*5E::$GAGSV,1,1,0,*74::$GLGSV,1,1,0,*79::$GBGSV,1,1,0,*77::$PQGSV,1,1,01,193,00,000,28,0,6*69",490,2020-02-03 10:10:16:169,-0.011436654938964952,-0.19694096534479,9.829223530603363,-0.0008439908503319049,-0.00716132857528623,9.80664730221728,-0.0028499432145164772,-0.2525050616652173,0.1552083624265099,0.0089740263844854,0.025602047759146866,0.10761750885315638
48,-0.014359,0.196213,9.712463,-0.24608200000000002,0.10778199999999999,9.802969000000001,0.224146,0.080612,0.08408600000000001,0.052353,-0.123367,-0.028442000000000002,691.0,-17.482,-4.9057,-53.5156,1.806708991128466,-0.010990338299808293,0.02509783464367846,8.0,937.9479,28.64462,36.04823,-115.13116000000001,600.0,,-0.08292117,0.0,5.36,,11 / 13,"$GPVTG,,T,,M,0.0,N,0.0,K,A*23::$GPGSV,3,3,12,22,54,178,19,23,54,317,20,26,46,074,18,31,18,049,20*72::$GPGSA,A,3,01,03,04,06,07,09,14,16,22,23,26,31,1.1,0.8,0.7,1*2B::$GPRMC,181016.00,A,3602.893768,N,11507.869350,W,0.0,,030220,12.3,E,A*3A::$GPGGA,181016.00,3602.893768,N,11507.869350,W,1,12,0.8,618.0,M,-18.0,M,,*5E::$GAGSV,1,1,0,*74::$GLGSV,1,1,0,*79::$GBGSV,1,1,0,*77::$PQGSV,1,1,01,193,00,000,28,0,6*69",500,2020-02-03 10:10:16:179,0.033359424315139635,-0.24397601866612495,9.71133389909667,3.4445341101502214e-05,-2.6623335191988673e-05,9.806649505479113,0.02460428664701678,-0.2385663885487179,0.0793151094648024,0.011710466938111438,-0.0259345302093523,0.04966110634211611
49,-0.155533,0.153137,9.707687,-0.248741,0.097314,9.803013,0.085543,0.059814,0.04508,-0.088135,0.076981,-0.026001,691.0,-17.482,-4.9057,-53.5156,1.806708991128466,-0.010990338299808293,0.02509783464367846,8.0,937.9479,28.64462,36.04823,-115.13116000000001,600.0,,-0.08292117,0.0,5.36,,11 / 13,"$GPVTG,,T,,M,0.0,N,0.0,K,A*23::$GPGSV,3,3,12,22,54,178,14,23,54,317,21,26,46,074,18,31,18,049,20*7E::$GPGSA,A,3,01,03,04,07,09,14,16,22,23,26,31,,1.2,0.9,0.8,1*20::$GPRMC,181017.00,A,3602.893768,N,11507.869349,W,0.0,,030220,12.3,E,A*33::$GPGGA,181017.00,3602.893768,N,11507.869349,W,1,11,0.9,618.0,M,-18.0,M,,*55::$GAGSV,1,1,0,*74::$GLGSV,1,1,0,*79::$GBGSV,1,1,0,*77::$PQGSV,1,1,01,193,00,000,28,0,6*69",509,2020-02-03 10:10:16:188,0.024547194382850995,-0.09657218933585646,9.709629220125853,-0.009521751189078637,0.005006301303129068,9.806645208788149,0.037416048004909386,-0.09812702840411315,0.04357351825676557,0.005791538531207745,0.03046400875769282,0.022996886442192034
50,-0.155533,0.153137,9.707687,-0.248741,0.097314,9.803013,0.085543,0.059814,0.04508,-0.073456,0.079422,-0.021118,691.0,-18.1931,-4.9255,-52.7832,1.806708991128466,-0.010990338299808293,0.02509783464367846,8.0,937.9479,28.64462,36.04823,-115.13116000000001,600.0,,-0.08292117,0.0,5.36,,11 / 13,"$GPVTG,,T,,M,0.0,N,0.0,K,A*23::$GPGSV,3,3,12,22,54,178,14,23,54,317,21,26,46,074,18,31,18,049,20*7E::$GPGSA,A,3,01,03,04,07,09,14,16,22,23,26,31,,1.2,0.9,0.8,1*20::$GPRMC,181017.00,A,3602.893768,N,11507.869349,W,0.0,,030220,12.3,E,A*33::$GPGGA,181017.00,3602.893768,N,11507.869349,W,1,11,0.9,618.0,M,-18.0,M,,*55::$GAGSV,1,1,0,*74::$GLGSV,1,1,0,*79::$GBGSV,1,1,0,*77::$PQGSV,1,1,01,193,00,000,28,0,6*69",520,2020-02-03 10:10:16:199,0.024547194382850995,-0.09657218933585646,9.709629220125853,-0.009521751189078637,0.005006301303129068,9.806645208788149,0.037416048004909386,-0.09812702840411315,0.04357351825676557,0.007142452111257406,-0.021421220786770875,0.001867792821385023
51,-0.126816,0.107681,9.889542,-0.258336,0.087207,9.802859,0.11533399999999999,0.020709,0.218202,-0.061249,0.043991,-0.024796000000000002,691.0,-18.1931,-4.9255,-52.7832,1.806708991128466,-0.010990338299808293,0.02509783464367846,8.0,937.9479,28.64462,36.04823,-115.13116000000001,600.0,,-0.08292117,0.0,5.36,,11 / 13,"$GPVTG,,T,,M,0.0,N,0.0,K,A*23::$GPGSV,3,3,12,22,54,178,14,23,54,317,21,26,46,074,18,31,18,049,20*7E::$GPGSA,A,3,01,03,04,07,09,14,16,22,23,26,31,,1.2,0.9,0.8,1*20::$GPRMC,181017.00,A,3602.893768,N,11507.869349,W,0.0,,030220,12.3,E,A*33::$GPGGA,181017.00,3602.893768,N,11507.869349,W,1,11,0.9,618.0,M,-18.0,M,,*55::$GAGSV,1,1,0,*74::$GLGSV,1,1,0,*79::$GBGSV,1,1,0,*77::$PQGSV,1,1,01,193,00,000,28,0,6*69",530,2020-02-03 10:10:16:209,-0.029363921514453745,-0.1178188524866196,9.89019590015754,-0.01710307033505326,0.016700838684562513,9.806621012897272,-0.010427172613881232,-0.12171300953756342,0.2154532998623816,-0.023200851646986827,-0.05754498878515217,0.11998797644108301
52,-0.153137,0.100494,10.013962,-0.253681,0.083134,9.803016,0.0785,0.015118000000000001,0.362208,-0.008728,-0.040298,-0.038223,691.0,-16.0721,-5.5511,-53.5126,1.8778939900003069,-0.008892452538911109,0.026347490388106402,8.0,937.9539,28.64462,36.04823,-115.13116000000001,600.0,,-0.13286275,0.0,5.36,,11 / 13,"$GPVTG,,T,,M,0.0,N,0.0,K,A*23::$GPGSV,3,3,12,22,54,178,14,23,54,317,21,26,46,074,18,31,18,049,20*7E::$GPGSA,A,3,01,03,04,07,09,14,16,22,23,26,31,,1.2,0.9,0.8,1*20::$GPRMC,181017.00,A,3602.893768,N,11507.869349,W,0.0,,030220,12.3,E,A*33::$GPGGA,181017.00,3602.893768,N,11507.869349,W,1,11,0.9,618.0,M,-18.0,M,,*55::$GAGSV,1,1,0,*74::$GLGSV,1,1,0,*79::$GBGSV,1,1,0,*77::$PQGSV,1,1,01,193,00,000,28,0,6*69",539,2020-02-03 10:10:16:218,-0.022569242066461992,-0.10901945357968404,10.015018238141293,-0.0052640370398296665,-0.0032311863542200947,9.806648247863373,-0.015267335852418733,-0.0874963964438237,0.3601343197382258,-0.0115787579615974,-0.03003115819364435,0.19683264142676515
53,-0.385239,0.10289000000000001,9.896713,-0.253681,0.083134,9.803016,0.0785,0.015118000000000001,0.362208,0.024246,-0.047623,-0.04187,691.0,-16.0721,-5.5511,-53.5126,1.8778939900003069,-0.008892452538911109,0.026347490388106402,8.0,937.9539,28.64462,36.04823,-115.13116000000001,600.0,,-0.13286275,0.0,5.36,,11 / 13,"$GPVTG,,T,,M,0.0,N,0.0,K,A*23::$GPGSV,3,3,12,22,54,178,14,23,54,317,21,26,46,074,18,31,18,049,20*7E::$GPGSA,A,3,01,03,04,07,09,14,16,22,23,26,31,,1.2,0.9,0.8,1*20::$GPRMC,181017.00,A,3602.893768,N,11507.869349,W,0.0,,030220,12.3,E,A*33::$GPGGA,181017.00,3602.893768,N,11507.869349,W,1,11,0.9,618.0,M,-18.0,M,,*55::$GAGSV,1,1,0,*74::$GLGSV,1,1,0,*79::$GBGSV,1,1,0,*77::$PQGSV,1,1,01,193,00,000,28,0,6*69",549,2020-02-03 10:10:16:228,0.051780486554794336,0.11405110557491668,9.903950462826401,-0.0052640370398296665,-0.0032311863542200947,9.806648247863373,-0.015267335852418733,-0.0874963964438237,0.3601343197382258,-0.012578807973803606,-0.07086046684893607,0.14624628234274845
54,-0.385239,0.10289000000000001,9.896713,-0.247295,0.086917,9.803146,-0.21131399999999997,0.006612000000000001,0.150584,0.032806,-0.041533999999999995,-0.021118,691.0,-18.2251,-6.279,-52.7756,1.8778939900003069,-0.008892452538911109,0.026347490388106402,8.0,937.9539,28.64462,36.04823,-115.13116000000001,600.0,,-0.13286275,0.0,5.36,,11 / 13,"$GPVTG,,T,,M,0.0,N,0.0,K,A*23::$GPGSV,3,3,12,22,54,178,14,23,54,317,21,26,46,074,18,31,18,049,20*7E::$GPGSA,A,3,01,03,04,07,09,14,16,22,23,26,31,,1.2,0.9,0.8,1*20::$GPRMC,181017.00,A,3602.893768,N,11507.869349,W,0.0,,030220,12.3,E,A*33::$GPGGA,181017.00,3602.893768,N,11507.869349,W,1,11,0.9,618.0,M,-18.0,M,,*55::$GAGSV,1,1,0,*74::$GLGSV,1,1,0,*79::$GBGSV,1,1,0,*77::$PQGSV,1,1,01,193,00,000,28,0,6*69",560,2020-02-03 10:10:16:239,0.051780486554794336,0.11405110557491668,9.903950462826401,-0.0035903479624371792,-0.010463594540763427,9.806643590027159,0.06768302654854998,0.19598107097169007,0.15615150954767504,0.04860131807976148,0.12893448951704226,-0.061016634905159385
55,-0.502487,0.088531,9.717255,-0.244049,0.08931599999999999,9.803205,-0.26475,-0.000542,0.072556,0.021805,-0.046417,0.00209,691.0,-18.2251,-6.279,-52.7756,1.8778939900003069,-0.008892452538911109,0.026347490388106402,8.0,937.9539,28.64462,36.04823,-115.13116000000001,600.0,,-0.13286275,0.0,5.36,,11 / 13,"$GPVTG,,T,,M,0.0,N,0.0,K,A*23::$GPGSV,3,3,12,22,54,178,14,23,54,317,21,26,46,074,18,31,18,049,20*7E::$GPGSA,A,3,01,03,04,07,09,14,16,22,23,26,31,,1.2,0.9,0.8,1*20::$GPRMC,181017.00,A,3602.893768,N,11507.869349,W,0.0,,030220,12.3,E,A*33::$GPGGA,181017.00,3602.893768,N,11507.869349,W,1,11,0.9,618.0,M,-18.0,M,,*55::$GAGSV,1,1,0,*74::$GLGSV,1,1,0,*79::$GBGSV,1,1,0,*77::$PQGSV,1,1,01,193,00,000,28,0,6*69",569,2020-02-03 10:10:16:248,0.07647606517225822,0.23414248217576794,9.727523033519443,-0.0022857192563760786,-0.014283688097073699,9.8066383784671,0.0782950050010847,0.2508131131510096,0.07949782301031236,0.028368375497633273,0.09139524368235163,-0.07882600694919568
56,-0.502487,0.088531,9.717255,-0.244049,0.08931599999999999,9.803205,-0.26475,-0.000542,0.072556,0.021805,-0.046417,0.00209,691.0,-16.7694,-4.8904,-53.5156,1.8120409719933086,-0.009107128036906413,0.024890140462691134,8.0,937.9539,28.64462,36.04823,-115.13116000000001,600.0,,-0.13286275,0.0,5.36,,11 / 13,"$GPVTG,,T,,M,0.0,N,0.0,K,A*23::$GPGSV,3,3,12,22,54,178,14,23,54,317,21,26,46,074,18,31,18,049,20*7E::$GPGSA,A,3,01,03,04,07,09,14,16,22,23,26,31,,1.2,0.9,0.8,1*20::$GPRMC,181017.00,A,3602.893768,N,11507.869349,W,0.0,,030220,12.3,E,A*33::$GPGGA,181017.00,3602.893768,N,11507.869349,W,1,11,0.9,618.0,M,-18.0,M,,*55::$GAGSV,1,1,0,*74::$GLGSV,1,1,0,*79::$GBGSV,1,1,0,*77::$PQGSV,1,1,01,193,00,000,28,0,6*69",580,2020-02-03 10:10:16:259,0.062263562766349284,0.25293152724679113,9.72715397993839,2.998248447835805e-05,-2.2489033170314254e-05,9.806649047094389,0.06163292420870371,0.2555376628995427,0.07911456814850124,-0.010559851794199488,0.04897449386547632,0.03292230432031129
57,-0.241669,0.131607,9.702896,-0.238031,0.09249600000000001,9.803325,-0.026601,0.032216,0.057817999999999994,0.021805,-0.046417,0.009415,761.0,-16.7694,-4.8904,-53.5156,1.8120409719933086,-0.009107128036906413,0.024890140462691134,8.0,937.9539,28.64462,36.04823,-115.13116000000001,600.0,,-0.13286275,0.0,5.36,,11 / 13,"$GPVTG,,T,,M,0.0,N,0.0,K,A*23::$GPGSV,3,3,12,22,54,178,14,23,54,317,21,26,46,074,18,31,18,049,20*7E::$GPGSA,A,3,01,03,04,07,09,14,16,22,23,26,31,,1.2,0.9,0.8,1*20::$GPRMC,181017.00,A,3602.893768,N,11507.869349,W,0.0,,030220,12.3,E,A*33::$GPGGA,181017.00,3602.893768,N,11507.869349,W,1,11,0.9,618.0,M,-18.0,M,,*55::$GAGSV,1,1,0,*74::$GLGSV,1,1,0,*79::$GBGSV,1,1,0,*77::$PQGSV,1,1,01,193,00,000,28,0,6*69",590,2020-02-03 10:10:16:269,0.04200733203502954,-0.010239738846923002,9.706701068160575,0.0016784955627831277,-0.006627451401248929,9.806648182847315,0.036778273162164574,0.016847706159516966,0.05875302886976789,-0.03801271172474928,-0.15819067568956785,0.1464105567776871
