,ACCELEROMETER X (m/s²),ACCELEROMETER Y (m/s²),ACCELEROMETER Z (m/s²),GRAVITY X (m/s²),GRAVITY Y (m/s²),GRAVITY Z (m/s²),LINEAR ACCELERATION X (m/s²),LINEAR ACCELERATION Y (m/s²),LINEAR ACCELERATION Z (m/s²),GYROSCOPE X (rad/s),GYROSCOPE Y (rad/s),GYROSCOPE Z (rad/s),LIGHT (lux),MAGNETIC FIELD X (μT),MAGNETIC FIELD Y (μT),MAGNETIC FIELD Z (μT),ORIENTATION Z (azimuth °),ORIENTATION X (pitch °),ORIENTATION Y (roll °),PROXIMITY (m),ATMOSPHERIC PRESSURE (hPa),SOUND LEVEL (dB),LOCATION Latitude : ,LOCATION Longitude : ,LOCATION Altitude ( m),LOCATION Altitude-google ( m),LOCATION Altitude-atmospheric pressure ( m),LOCATION Speed ( m/s),LOCATION Accuracy ( m),LOCATION ORIENTATION (°),Satellites in range,GPS NMEA,Time since start in ms ,YYYY-MO-DD HH-MI-SS_SSS,EARTH ACCELERATION X,EARTH ACCELERATION Y,EARTH ACCELERATION Z,EARTH GRAVITY X,EARTH GRAVITY Y,EARTH GRAVITY Z,EARTH LINEAR ACCELERATION X,EARTH LINEAR ACCELERATION Y,EARTH LINEAR ACCELERATION Z,x_ifft,y_ifft,z_ifft
0,-0.277573,-0.067001,9.74118,-0.23253400000000002,-0.180784,9.802226,-0.04124,0.11116,0.035692,-0.044174,-0.064728,-0.010117000000000001,420.0,-18.9209,-5.6107,-54.2496,1.900653083446313,0.01784599160164202,0.024401448272132722,8.0,937.8898,32.668929999999996,36.04823,-115.13116000000001,601.0,,0.065956555,0.0,7.504,,8 / 13,"$GPVTG,,T,,M,0.0,N,0.0,K,A*23::$GPGSV,3,3,12,31,17,050,22,01,06,205,,06,09,309,,14,09,094,*7F::$GPGSA,A,3,03,04,07,09,16,22,23,26,,,,,1.4,1.1,0.9,1*28::$GPRMC,181247.00,A,3602.893661,N,11507.869367,W,0.0,,030220,12.3,E,A*30::$GPGGA,181247.00,3602.893661,N,11507.869367,W,1,08,1.1,619.0,M,-18.0,M,,*56::$GAGSV,1,1,0,*74::$GLGSV,1,1,0,*79::$GBGSV,1,1,0,*77::$PQGSV,1,1,0,*73",18,2020-02-03 10:12:47:082,0.11398070643538552,0.00307003094348679,9.74469715641284,-0.007702874645201474,-0.004487540301372439,9.806646215633162,0.11884068307100737,0.002020974092424293,0.034698843999968226,0.09786940902331691,-0.11247766077715153,-0.3353161292219238
1,-0.277573,-0.067001,9.74118,-0.23253400000000002,-0.180784,9.802226,-0.04124,0.11116,0.035692,0.01326,-0.054962000000000004,-0.016235,420.0,-18.9209,-5.6107,-54.2496,1.900653083446313,0.01784599160164202,0.024401448272132722,8.0,937.8898,32.668929999999996,36.04823,-115.13116000000001,601.0,,0.065956555,0.0,7.504,,8 / 13,"$GPVTG,,T,,M,0.0,N,0.0,K,A*23::$GPGSV,3,3,12,31,17,050,22,01,06,205,,06,09,309,,14,09,094,*7F::$GPGSA,A,3,03,04,07,09,16,22,23,26,,,,,1.4,1.1,0.9,1*28::$GPRMC,181247.00,A,3602.893661,N,11507.869367,W,0.0,,030220,12.3,E,A*30::$GPGGA,181247.00,3602.893661,N,11507.869367,W,1,08,1.1,619.0,M,-18.0,M,,*56::$GAGSV,1,1,0,*74::$GLGSV,1,1,0,*79::$GBGSV,1,1,0,*77::$PQGSV,1,1,0,*73",28,2020-02-03 10:12:47:092,0.11398070643538552,0.00307003094348679,9.74469715641284,-0.007702874645201474,-0.004487540301372439,9.806646215633162,0.11884068307100737,0.002020974092424293,0.034698843999968226,0.049570368225206586,0.05750415332535535,-0.33598793004126554
2,-0.1651,-0.047852,9.789032,-0.22095700000000001,-0.17723599999999998,9.802559,0.044367000000000004,0.130473,0.12698299999999998,0.015701,-0.048859,-0.018677000000000003,420.0,-18.9529,-6.9656,-53.5065,1.900653083446313,0.01784599160164202,0.024401448272132722,8.0,937.8898,32.668929999999996,36.04823,-115.13116000000001,601.0,,0.065956555,0.0,7.504,,8 / 13,"$GPVTG,,T,,M,0.0,N,0.0,K,A*23::$GPGSV,3,3,12,31,17,050,22,01,06,205,,06,09,309,,14,09,094,*7F::$GPGSA,A,3,03,04,07,09,16,22,23,26,,,,,1.4,1.1,0.9,1*28::$GPRMC,181247.00,A,3602.893661,N,11507.869367,W,0.0,,030220,12.3,E,A*30::$GPGGA,181247.00,3602.893661,N,11507.869367,W,1,08,1.1,619.0,M,-18.0,M,,*56::$GAGSV,1,1,0,*74::$GLGSV,1,1,0,*79::$GBGSV,1,1,0,*77::$PQGSV,1,1,0,*73",38,2020-02-03 10:12:47:102,0.09610694134774166,-0.1108823743454922,9.789441448612495,-0.0080919560562248,-0.016594338840094036,9.806633300587498,0.11021171900783988,-0.08782807691909471,0.12351486795131396,0.003861681253624578,0.06387965780275755,-0.152492123716734
3,-0.1651,-0.047852,9.789032,-0.22095700000000001,-0.17723599999999998,9.802559,0.044367000000000004,0.130473,0.12698299999999998,0.015701,-0.048859,-0.018677000000000003,420.0,-18.9529,-6.9656,-53.5065,1.900653083446313,0.01784599160164202,0.024401448272132722,8.0,937.8926,32.668929999999996,36.04823,-115.13116000000001,601.0,,0.043342944,0.0,7.504,,8 / 13,"$GPVTG,,T,,M,0.0,N,0.0,K,A*23::$GPGSV,3,3,12,31,17,050,22,01,06,205,,06,09,309,,14,09,094,*7F::$GPGSA,A,3,03,04,07,09,16,22,23,26,,,,,1.4,1.1,0.9,1*28::$GPRMC,181247.00,A,3602.893661,N,11507.869367,W,0.0,,030220,12.3,E,A*30::$GPGGA,181247.00,3602.893661,N,11507.869367,W,1,08,1.1,619.0,M,-18.0,M,,*56::$GAGSV,1,1,0,*74::$GLGSV,1,1,0,*79::$GBGSV,1,1,0,*77::$PQGSV,1,1,0,*73",48,2020-02-03 10:12:47:112,0.09610694134774166,-0.1108823743454922,9.789441448612495,-0.0080919560562248,-0.016594338840094036,9.806633300587498,0.11021171900783988,-0.08782807691909471,0.12351486795131396,-0.0011479815863646011,0.047179338376590614,-0.04092110315563469
4,-0.186645,-0.100494,9.712463,-0.21577800000000003,-0.170718,9.80279,0.033323,0.1181,0.05296699999999999,0.023041,-0.021973,-0.005234,420.0,-18.9697,-7.6370000000000005,-54.2374,1.9873976925996832,0.017409659288643436,0.022008601867648494,8.0,937.8926,32.668929999999996,36.04823,-115.13116000000001,601.0,,0.043342944,0.0,7.504,,8 / 13,"$GPVTG,,T,,M,0.0,N,0.0,K,A*23::$GPGSV,3,3,12,31,17,050,22,01,06,205,,06,09,309,,14,09,094,*7F::$GPGSA,A,3,03,04,07,09,16,22,23,26,,,,,1.4,1.1,0.9,1*28::$GPRMC,181247.00,A,3602.893661,N,11507.869367,W,0.0,,030220,12.3,E,A*30::$GPGGA,181247.00,3602.893661,N,11507.869367,W,1,08,1.1,619.0,M,-18.0,M,,*56::$GAGSV,1,1,0,*74::$GLGSV,1,1,0,*79::$GBGSV,1,1,0,*77::$PQGSV,1,1,0,*73",58,2020-02-03 10:12:47:122,0.051750600604783495,-0.052585589640701064,9.714495846801787,-4.857288498102963e-05,-1.705808745378068e-05,9.806650629152529,0.09489135678090622,-0.07964551183925346,0.050157335157901835,0.002021595895375098,-0.03396693693126354,-0.04784077651975474
5,-0.241669,-0.145966,9.626327999999999,-0.21577800000000003,-0.170718,9.80279,0.033323,0.1181,0.05296699999999999,0.010818000000000001,-0.04274,0.042404000000000004,420.0,-18.9697,-7.6370000000000005,-54.2374,1.9873976925996832,0.017409659288643436,0.022008601867648494,8.0,937.8926,32.668929999999996,36.04823,-115.13116000000001,601.0,,0.043342944,0.0,7.504,,8 / 13,"$GPVTG,,T,,M,0.0,N,0.0,K,A*23::$GPGSV,3,3,12,31,17,050,22,01,06,205,,06,09,309,,14,09,094,*7F::$GPGSA,A,3,03,04,07,09,16,22,23,26,,,,,1.4,1.1,0.9,1*28::$GPRMC,181247.00,A,3602.893661,N,11507.869367,W,0.0,,030220,12.3,E,A*30::$GPGGA,181247.00,3602.893661,N,11507.869367,W,1,08,1.1,619.0,M,-18.0,M,,*56::$GAGSV,1,1,0,*74::$GLGSV,1,1,0,*79::$GBGSV,1,1,0,*77::$PQGSV,1,1,0,*73",68,2020-02-03 10:12:47:132,0.03182311075404182,0.018441688985140148,9.63039708091158,-4.857288498102963e-05,-1.705808745378068e-05,9.806650629152529,0.09489135678090622,-0.07964551183925346,0.050157335157901835,0.018447560535385866,-0.107637567856069,-0.04557597697883951
6,-0.241669,-0.145966,9.626327999999999,-0.21577800000000003,-0.170718,9.80279,0.033323,0.1181,0.05296699999999999,0.010818000000000001,-0.04274,0.042404000000000004,420.0,-18.9697,-7.6370000000000005,-54.2374,1.9873976925996832,0.017409659288643436,0.022008601867648494,8.0,937.8926,32.668929999999996,36.04823,-115.13116000000001,601.0,,0.043342944,0.0,7.504,,8 / 13,"$GPVTG,,T,,M,0.0,N,0.0,K,A*23::$GPGSV,3,3,12,31,17,050,22,01,06,205,,06,09,309,,14,09,094,*7F::$GPGSA,A,3,03,04,07,09,16,22,23,26,,,,,1.4,1.1,0.9,1*28::$GPRMC,181247.00,A,3602.893661,N,11507.869367,W,0.0,,030220,12.3,E,A*30::$GPGGA,181247.00,3602.893661,N,11507.869367,W,1,08,1.1,619.0,M,-18.0,M,,*56::$GAGSV,1,1,0,*74::$GLGSV,1,1,0,*79::$GBGSV,1,1,0,*77::$PQGSV,1,1,0,*73",78,2020-02-03 10:12:47:142,0.03182311075404182,0.018441688985140148,9.63039708091158,-4.857288498102963e-05,-1.705808745378068e-05,9.806650629152529,0.09489135678090622,-0.07964551183925346,0.050157335157901835,0.013063271641733383,-0.09250075024410935,-0.08192179191273413
7,-0.23210100000000003,-0.136398,9.626327999999999,-0.208828,-0.166045,9.80302,-0.041736,0.015366999999999999,-0.050673,0.012039,-0.058609,0.06072999999999999,420.0,-18.9377,-6.2912,-53.5095,1.9873976925996832,0.017409659288643436,0.022008601867648494,8.0,937.8926,32.668929999999996,36.04823,-115.13116000000001,601.0,,0.043342944,0.0,7.504,,8 / 13,"$GPVTG,,T,,M,0.0,N,0.0,K,A*23::$GPGSV,3,3,12,31,17,050,22,01,06,205,,06,09,309,,14,09,094,*7F::$GPGSA,A,3,03,04,07,09,16,22,23,26,,,,,1.4,1.1,0.9,1*28::$GPRMC,181247.00,A,3602.893661,N,11507.869367,W,0.0,,030220,12.3,E,A*30::$GPGGA,181247.00,3602.893661,N,11507.869367,W,1,08,1.1,619.0,M,-18.0,M,,*56::$GAGSV,1,1,0,*74::$GLGSV,1,1,0,*79::$GBGSV,1,1,0,*77::$PQGSV,1,1,0,*73",88,2020-02-03 10:12:47:152,0.03670211227446893,0.005826365102015452,9.630019992742136,0.0014147634748856303,-0.008266358458108192,9.806646259643056,0.03058196938398717,0.03332163683559046,-0.05000202977073923,-0.0765519307152319,0.1300906863215322,-0.2092213183718616
8,-0.023926,0.1651,9.748352,-0.188556,-0.15659700000000001,9.803587,0.145235,0.295578,0.06891,0.008376999999999999,-0.068375,0.022858,420.0,-18.9377,-6.2912,-53.5095,1.9873976925996832,0.017409659288643436,0.022008601867648494,8.0,937.8926,32.668929999999996,36.04823,-115.13116000000001,601.0,,0.043342944,0.0,7.504,,8 / 13,"$GPVTG,,T,,M,0.0,N,0.0,K,A*23::$GPGSV,3,3,12,31,17,050,22,01,06,205,,06,09,309,,14,09,094,*7F::$GPGSA,A,3,03,04,07,09,16,22,23,26,,,,,1.4,1.1,0.9,1*28::$GPRMC,181247.00,A,3602.893661,N,11507.869367,W,0.0,,030220,12.3,E,A*30::$GPGGA,181247.00,3602.893661,N,11507.869367,W,1,08,1.1,619.0,M,-18.0,M,,*56::$GAGSV,1,1,0,*74::$GLGSV,1,1,0,*79::$GBGSV,1,1,0,*77::$PQGSV,1,1,0,*73",98,2020-02-03 10:12:47:162,0.22905528936493663,-0.3096906408918886,9.742167241468293,0.001857628224007396,-0.030634687201762323,9.806602475744157,0.21202958174039171,-0.2541382170176447,0.06054230361562937,0.081001831992731,-0.021146800849814962,-0.07928339906185933
9,-0.023926,0.1651,9.748352,-0.188556,-0.15659700000000001,9.803587,0.145235,0.295578,0.06891,0.008376999999999999,-0.068375,0.022858,420.0,-20.4102,-8.3511,-53.4988,1.9689303637843312,0.015969762655748117,0.01923178302772552,8.0,937.8926,32.668929999999996,36.04823,-115.13116000000001,601.0,,0.043342944,0.0,7.504,,8 / 13,"$GPVTG,,T,,M,0.0,N,0.0,K,A*23::$GPGSV,3,3,12,31,17,050,22,01,06,205,,06,09,309,,14,09,094,*7F::$GPGSA,A,3,03,04,07,09,16,22,23,26,,,,,1.4,1.1,0.9,1*28::$GPRMC,181247.00,A,3602.893661,N,11507.869367,W,0.0,,030220,12.3,E,A*30::$GPGGA,181247.00,3602.893661,N,11507.869367,W,1,08,1.1,619.0,M,-18.0,M,,*56::$GAGSV,1,1,0,*74::$GLGSV,1,1,0,*79::$GBGSV,1,1,0,*77::$PQGSV,1,1,0,*73",108,2020-02-03 10:12:47:172,0.23228664268101232,-0.2750396980413273,9.743130567713509,-3.3262360911057165e-05,-2.0459225627156297e-05,9.806650501093076,0.21666372392866515,-0.24999586109635605,0.061376278618491084,0.08649215469161088,0.04852284001384043,-0.009556183396433826
10,0.090927,0.035889,9.712463,-0.177029,-0.147765,9.803939,0.279895,0.209161,0.043742,-0.016052,0.025664999999999997,-0.098083,420.0,-20.4102,-8.3511,-53.4988,1.9689303637843312,0.015969762655748117,0.01923178302772552,8.0,937.8926,32.668929999999996,36.04823,-115.13116000000001,601.0,,0.043342944,0.0,7.504,,8 / 13,"$GPVTG,,T,,M,0.0,N,0.0,K,A*23::$GPGSV,3,3,12,31,17,050,22,01,06,205,,06,09,309,,14,09,094,*7F::$GPGSA,A,3,03,04,07,09,16,22,23,26,,,,,1.4,1.1,0.9,1*28::$GPRMC,181247.00,A,3602.893661,N,11507.869367,W,0.0,,030220,12.3,E,A*30::$GPGGA,181247.00,3602.893661,N,11507.869367,W,1,08,1.1,619.0,M,-18.0,M,,*56::$GAGSV,1,1,0,*74::$GLGSV,1,1,0,*79::$GBGSV,1,1,0,*77::$PQGSV,1,1,0,*73",118,2020-02-03 10:12:47:182,0.06840064675494853,-0.3299796988796885,9.707107087895436,0.0036423427465096525,-0.014073560932555407,9.806639707158054,0.08462486217852606,-0.34002366030501086,0.035006294348988845,-0.013507565367020179,-0.10896854972242838,0.050064634194696145
11,-0.30867,-0.19860799999999998,9.552155,-0.18629400000000002,-0.15542899999999998,9.803649,-0.006512,-0.008232999999999999,-0.100467,-0.07713300000000001,0.102646,-0.132278,420.0,-18.9362,-6.2943,-52.7756,1.9689303637843312,0.015969762655748117,0.01923178302772552,8.0,937.8926,32.668929999999996,36.04823,-115.13116000000001,603.0,,0.043342944,0.0,7.504,,8 / 13,"$GPVTG,,T,,M,0.0,N,0.0,K,A*23::$GPGSV,3,3,12,31,17,050,22,01,06,205,,06,09,309,,14,09,094,*7F::$GPGSA,A,3,03,04,07,09,16,22,23,26,,,,,1.4,1.1,0.9,1*28::$GPRMC,181247.00,A,3602.893661,N,11507.869367,W,0.0,,030220,12.3,E,A*30::$GPGGA,181247.00,3602.893661,N,11507.869367,W,1,08,1.1,619.0,M,-18.0,M,,*56::$GAGSV,1,1,0,*74::$GLGSV,1,1,0,*79::$GBGSV,1,1,0,*77::$PQGSV,1,1,0,*73",128,2020-02-03 10:12:47:192,0.005974246505788233,0.13296523200847613,9.558277669436302,0.00016702298665272064,-0.002559080456043611,9.80665033367095,-0.005794775380782727,0.011593460740063392,-0.10017893375533045,-0.057258467527219116,0.056428848277304884,-0.02791175571415832
12,-0.641281,-0.289536,9.647858,-0.18629400000000002,-0.15542899999999998,9.803649,-0.006512,-0.008232999999999999,-0.100467,-0.09668,0.108734,-0.09440599999999999,420.0,-18.9362,-6.2943,-52.7756,1.9689303637843312,0.015969762655748117,0.01923178302772552,8.0,937.8926,32.668929999999996,36.04823,-115.13116000000001,603.0,,0.043342944,0.0,7.504,,8 / 13,"$GPVTG,,T,,M,0.0,N,0.0,K,A*23::$GPGSV,3,3,12,31,17,050,22,01,06,205,,06,09,309,,14,09,094,*7F::$GPGSA,A,3,03,04,07,09,16,22,23,26,,,,,1.4,1.1,0.9,1*28::$GPRMC,181248.00,A,3602.893816,N,11507.869101,W,0.0,,030220,12.3,E,A*33::$GPGGA,181248.00,3602.893816,N,11507.869101,W,1,08,1.1,621.0,M,-18.0,M,,*5E::$GAGSV,1,1,0,*74::$GLGSV,1,1,0,*79::$GBGSV,1,1,0,*77::$PQGSV,1,1,0,*73",138,2020-02-03 10:12:47:202,0.0517823688551424,0.47243838918724174,9.661798846960068,0.00016702298665272064,-0.002559080456043611,9.80665033367095,-0.005794775380782727,0.011593460740063392,-0.10017893375533045,-0.02435852623826277,-0.16566669388583777,-0.028490067337828974
13,-0.641281,-0.289536,9.647858,-0.20836999999999997,-0.170888,9.802947,-0.413091,-0.101905,-0.028676999999999998,-0.074692,0.061096000000000004,-0.010117000000000001,420.0,-18.985,-8.3145,-54.2343,1.9881900720800885,0.017427112581163383,0.021252874301534948,8.0,937.8926,32.668929999999996,36.04823,-115.13116000000001,603.0,,0.043342944,0.0,7.504,,8 / 13,"$GPVTG,,T,,M,0.0,N,0.0,K,A*23::$GPGSV,3,3,12,31,17,050,22,01,06,205,,06,09,309,,14,09,094,*7F::$GPGSA,A,3,03,04,07,09,16,22,23,26,,,,,1.4,1.1,0.9,1*28::$GPRMC,181248.00,A,3602.893816,N,11507.869101,W,0.0,,030220,12.3,E,A*33::$GPGGA,181248.00,3602.893816,N,11507.869101,W,1,08,1.1,621.0,M,-18.0,M,,*5E::$GAGSV,1,1,0,*74::$GLGSV,1,1,0,*79::$GBGSV,1,1,0,*77::$PQGSV,1,1,0,*73",148,2020-02-03 10:12:47:212,0.06581110476693361,0.44779630227514533,9.662886927548053,-4.446120077096494e-05,-1.728503572240303e-05,9.80665032760817,0.07405345264823954,0.41957027272664715,-0.018112041021426203,0.054375025579102954,0.08584499647672794,0.001937038640216557
14,-0.605377,-0.263214,9.714858999999999,-0.21786599999999998,-0.178662,9.802601,-0.43723100000000004,-0.10378699999999999,0.036008,-0.057587,0.031784,0.020416,420.0,-18.985,-8.3145,-54.2343,1.9881900720800885,0.017427112581163383,0.021252874301534948,8.0,937.8926,32.668929999999996,36.04823,-115.13116000000001,603.0,,0.043342944,0.0,7.504,,8 / 13,"$GPVTG,,T,,M,0.0,N,0.0,K,A*23::$GPGSV,3,3,12,31,17,050,22,01,06,205,,06,09,309,,14,09,094,*7F::$GPGSA,A,3,03,04,07,09,16,22,23,26,,,,,1.4,1.1,0.9,1*28::$GPRMC,181248.00,A,3602.893816,N,11507.869101,W,0.0,,030220,12.3,E,A*33::$GPGGA,181248.00,3602.893816,N,11507.869101,W,1,08,1.1,621.0,M,-18.0,M,,*5E::$GAGSV,1,1,0,*74::$GLGSV,1,1,0,*79::$GBGSV,1,1,0,*77::$PQGSV,1,1,0,*73",158,2020-02-03 10:12:47:222,0.07581239109950694,0.4025475313788373,9.728641029359782,-0.0033050588884245002,0.011818982801144018,9.806641701297762,0.08258992791425597,0.4406816233072434,0.047094325352539546,0.0299021636940376,0.07849722000970522,0.0018827827262144798
15,-0.605377,-0.263214,9.714858999999999,-0.21786599999999998,-0.178662,9.802601,-0.43723100000000004,-0.10378699999999999,0.036008,0.036469,-0.080612,0.063171,420.0,-20.3629,-6.3232,-53.5095,1.9881900720800885,0.017427112581163383,0.021252874301534948,8.0,937.8926,32.668929999999996,36.04823,-115.13116000000001,603.0,,0.043342944,0.0,7.504,,8 / 13,"$GPVTG,,T,,M,0.0,N,0.0,K,A*23::$GPGSV,3,3,12,31,17,050,22,01,06,205,,06,09,309,,14,09,094,*7F::$GPGSA,A,3,03,04,07,09,16,22,23,26,,,,,1.4,1.1,0.9,1*28::$GPRMC,181248.00,A,3602.893816,N,11507.869101,W,0.0,,030220,12.3,E,A*33::$GPGGA,181248.00,3602.893816,N,11507.869101,W,1,08,1.1,621.0,M,-18.0,M,,*5E::$GAGSV,1,1,0,*74::$GLGSV,1,1,0,*79::$GBGSV,1,1,0,*77::$PQGSV,1,1,0,*73",168,2020-02-03 10:12:47:232,0.07581239109950694,0.4025475313788373,9.728641029359782,-0.0033050588884245002,0.011818982801144018,9.806641701297762,0.08258992791425597,0.4406816233072434,0.047094325352539546,-0.012195294732519167,0.17242684262898603,-0.034047972711284846
16,-0.18425,0.011963,9.882355,-0.215142,-0.180196,9.802633,-0.15395899999999998,0.064023,0.148081,0.036469,-0.080612,0.063171,420.0,-20.3629,-6.3232,-53.5095,1.9881900720800885,0.017427112581163383,0.021252874301534948,8.0,937.8926,32.668929999999996,36.04823,-115.13116000000001,603.0,,0.043342944,0.0,7.504,,8 / 13,"$GPVTG,,T,,M,0.0,N,0.0,K,A*23::$GPGSV,3,3,12,31,17,050,22,01,06,205,,06,09,309,,14,09,094,*7F::$GPGSA,A,3,03,04,07,09,16,22,23,26,,,,,1.4,1.1,0.9,1*28::$GPRMC,181248.00,A,3602.893816,N,11507.869101,W,0.0,,030220,12.3,E,A*33::$GPGGA,181248.00,3602.893816,N,11507.869101,W,1,08,1.1,621.0,M,-18.0,M,,*5E::$GAGSV,1,1,0,*74::$GLGSV,1,1,0,*79::$GBGSV,1,1,0,*77::$PQGSV,1,1,0,*73",178,2020-02-03 10:12:47:242,0.1579160454341514,-0.09821579476501702,9.882330074539462,-0.005811149921331457,0.009949794995236017,9.806642526542158,0.12200841521357599,0.11085924403066037,0.15018147489295114,0.003544524044320507,-0.00037777831390831763,0.0829096063124288
17,-0.07896399999999999,0.050247,9.755539,-0.197242,-0.165711,9.803265,0.11673800000000001,0.217265,0.10830999999999999,0.080444,-0.102585,0.044846,411.0,-18.2587,-7.6187,-54.9728,2.007737759702425,0.016898277817809098,0.020116664958486644,8.0,937.8926,32.668929999999996,36.04823,-115.13116000000001,603.0,,0.043342944,0.0,7.504,,8 / 13,"$GPVTG,,T,,M,0.0,N,0.0,K,A*23::$GPGSV,3,3,12,31,17,050,22,01,06,205,,06,09,309,,14,09,094,*7F::$GPGSA,A,3,03,04,07,09,16,22,23,26,,,,,1.4,1.1,0.9,1*28::$GPRMC,181248.00,A,3602.893816,N,11507.869101,W,0.0,,030220,12.3,E,A*33::$GPGGA,181248.00,3602.893816,N,11507.869101,W,1,08,1.1,621.0,M,-18.0,M,,*5E::$GAGSV,1,1,0,*74::$GLGSV,1,1,0,*79::$GBGSV,1,1,0,*77::$PQGSV,1,1,0,*73",188,2020-02-03 10:12:47:252,0.14526314938179283,-0.1972446964711963,9.752912098546345,-4.267486644148055e-05,-4.102710335879278e-06,9.806649234089695,0.14820248591852023,-0.20035732224602143,0.10225391708377118,0.03813217993686238,-0.1622215386903759,0.08501715995177267
18,-0.07896399999999999,0.050247,9.755539,-0.19043800000000002,-0.15496500000000002,9.803576,0.120803,0.116933,0.01456,0.082886,-0.06349199999999999,0.021637,411.0,-18.2587,-7.6187,-54.9728,2.007737759702425,0.016898277817809098,0.020116664958486644,8.0,937.8943,32.668929999999996,36.04823,-115.13116000000001,603.0,,0.029209401,0.0,7.504,,8 / 13,"$GPVTG,,T,,M,0.0,N,0.0,K,A*23::$GPGSV,3,3,12,31,17,050,22,01,06,205,,06,09,309,,14,09,094,*7F::$GPGSA,A,3,03,04,07,09,16,22,23,26,,,,,1.4,1.1,0.9,1*28::$GPRMC,181248.00,A,3602.893816,N,11507.869101,W,0.0,,030220,12.3,E,A*33::$GPGGA,181248.00,3602.893816,N,11507.869101,W,1,08,1.1,621.0,M,-18.0,M,,*5E::$GAGSV,1,1,0,*74::$GLGSV,1,1,0,*79::$GBGSV,1,1,0,*77::$PQGSV,1,1,0,*73",198,2020-02-03 10:12:47:262,0.14526314938179283,-0.1972446964711963,9.752912098546345,0.006817342851444294,-0.010718940713275754,9.806641718702249,0.05493796267098976,-0.15924036086700272,0.010149513609414242,-0.022905150990091976,-0.022291746247158926,0.04359019525748155
19,-0.026320999999999997,-0.028717000000000003,9.645462,-0.19043800000000002,-0.15496500000000002,9.803576,0.120803,0.116933,0.01456,0.036469,0.009796,-0.00647,411.0,-18.2404,-6.9565,-52.037,2.007737759702425,0.016898277817809098,0.020116664958486644,8.0,937.8943,32.668929999999996,36.04823,-115.13116000000001,603.0,,0.029209401,0.0,7.504,,8 / 13,"$GPVTG,,T,,M,0.0,N,0.0,K,A*23::$GPGSV,3,3,12,31,17,050,22,01,06,205,,06,09,309,,14,09,094,*7F::$GPGSA,A,3,03,04,07,09,16,22,23,26,,,,,1.4,1.1,0.9,1*28::$GPRMC,181248.00,A,3602.893816,N,11507.869101,W,0.0,,030220,12.3,E,A*33::$GPGGA,181248.00,3602.893816,N,11507.869101,W,1,08,1.1,621.0,M,-18.0,M,,*5E::$GAGSV,1,1,0,*74::$GLGSV,1,1,0,*79::$GBGSV,1,1,0,*77::$PQGSV,1,1,0,*73",208,2020-02-03 10:12:47:272,0.0506958048440853,-0.2087530946027706,9.643148175540961,0.006817342851444294,-0.010718940713275754,9.806641718702249,0.05493796267098976,-0.15924036086700272,0.010149513609414242,0.01050142453065633,0.02345909228338297,0.06418163219891672
20,-0.014359,-0.04068,9.635895,-0.19336,-0.151084,9.803579,0.176325,0.111898,-0.041529,0.012039,0.040329000000000004,-0.017471,411.0,-18.2404,-6.9565,-52.037,2.007737759702425,0.016898277817809098,0.020116664958486644,8.0,937.8943,32.668929999999996,36.04823,-115.13116000000001,603.0,,0.029209401,0.0,7.504,,8 / 13,"$GPVTG,,T,,M,0.0,N,0.0,K,A*23::$GPGSV,3,3,12,31,17,050,22,01,06,205,,06,09,309,,14,09,094,*7F::$GPGSA,A,3,03,04,07,09,16,22,23,26,,,,,1.4,1.1,0.9,1*28::$GPRMC,181248.00,A,3602.893816,N,11507.869101,W,0.0,,030220,12.3,E,A*33::$GPGGA,181248.00,3602.893816,N,11507.869101,W,1,08,1.1,621.0,M,-18.0,M,,*5E::$GAGSV,1,1,0,*74::$GLGSV,1,1,0,*79::$GBGSV,1,1,0,*77::$PQGSV,1,1,0,*73",218,2020-02-03 10:12:47:282,0.034730569283291685,-0.2142883483732446,9.63354596115131,0.011570053466348346,-0.009712967827258528,9.806637928771295,0.026504075531124018,-0.20598392610743507,-0.04695191194836691,-0.003692261604866174,-0.008206662472060585,-0.006627410311864931
21,-0.043075999999999996,0.004790999999999999,9.712463,-0.199578,-0.149083,9.803486,0.154946,0.14941500000000002,0.044649,0.012039,0.046432,-0.022354,411.0,-18.2571,-7.6294,-52.7679,2.0029974454540085,0.015203563114122604,0.020355775066009864,8.0,937.8943,32.668929999999996,36.04823,-115.13116000000001,603.0,,0.029209401,0.0,7.504,,8 / 13,"$GPVTG,,T,,M,0.0,N,0.0,K,A*23::$GPGSV,3,3,12,31,17,050,22,01,06,205,,06,09,309,,14,09,094,*7F::$GPGSA,A,3,03,04,07,09,16,22,23,26,,,,,1.4,1.1,0.9,1*28::$GPRMC,181248.00,A,3602.893816,N,11507.869101,W,0.0,,030220,12.3,E,A*33::$GPGGA,181248.00,3602.893816,N,11507.869101,W,1,08,1.1,621.0,M,-18.0,M,,*5E::$GAGSV,1,1,0,*74::$GLGSV,1,1,0,*79::$GBGSV,1,1,0,*77::$PQGSV,1,1,0,*73",228,2020-02-03 10:12:47:292,0.07367328061350287,-0.20423990217333682,9.7101325599556,-3.407154367275622e-05,-1.753409435206743e-05,9.806650542856143,0.07102626013974118,-0.2043147318885307,0.03920968051233825,0.031405211664413485,-0.0006414559067932081,0.05522649777059674
22,-0.033493,0.009567,9.623932,-0.199578,-0.149083,9.803486,0.154946,0.14941500000000002,0.044649,0.031586,0.014679,-0.024796000000000002,411.0,-18.2571,-7.6294,-52.7679,2.0029974454540085,0.015203563114122604,0.020355775066009864,8.0,937.8943,32.668929999999996,36.04823,-115.13116000000001,603.0,,0.029209401,0.0,7.504,,8 / 13,"$GPVTG,,T,,M,0.0,N,0.0,K,A*23::$GPGSV,3,3,12,31,17,050,22,01,06,205,,06,09,309,,14,09,094,*7F::$GPGSA,A,3,03,04,07,09,16,22,23,26,,,,,1.4,1.1,0.9,1*28::$GPRMC,181248.00,A,3602.893816,N,11507.869101,W,0.0,,030220,12.3,E,A*33::$GPGGA,181248.00,3602.893816,N,11507.869101,W,1,08,1.1,621.0,M,-18.0,M,,*5E::$GAGSV,1,1,0,*74::$GLGSV,1,1,0,*79::$GBGSV,1,1,0,*77::$PQGSV,1,1,0,*73",238,2020-02-03 10:12:47:302,0.07352956500838093,-0.21273898085138238,9.621362480348509,-3.407154367275622e-05,-1.753409435206743e-05,9.806650542856143,0.07102626013974118,-0.2043147318885307,0.03920968051233825,0.010724600775677436,0.0014811433969348156,0.05272368851247791
23,-0.033493,0.009567,9.623932,-0.198034,-0.141788,9.803625,0.172555,0.149391,-0.036711,0.031586,0.014679,-0.024796000000000002,411.0,-18.2571,-7.6294,-52.7679,2.0029974454540085,0.015203563114122604,0.020355775066009864,8.0,937.8943,32.668929999999996,36.04823,-115.13116000000001,603.0,,0.029209401,0.0,7.504,,8 / 13,"$GPVTG,,T,,M,0.0,N,0.0,K,A*23::$GPGSV,3,3,12,31,17,050,22,01,06,205,,06,09,309,,14,09,094,*7F::$GPGSA,A,3,03,04,07,09,16,22,23,26,,,,,1.4,1.1,0.9,1*28::$GPRMC,181248.00,A,3602.893816,N,11507.869101,W,0.0,,030220,12.3,E,A*33::$GPGGA,181248.00,3602.893816,N,11507.869101,W,1,08,1.1,621.0,M,-18.0,M,,*5E::$GAGSV,1,1,0,*74::$GLGSV,1,1,0,*79::$GBGSV,1,1,0,*77::$PQGSV,1,1,0,*73",247,2020-02-03 10:12:47:311,0.07352956500838093,-0.21273898085138238,9.621362480348509,0.005944435598066039,-0.004475978116860846,9.806647188108192,0.06320051094966024,-0.2182694698449934,-0.042482118312148445,-0.01077587125887805,-0.021349174535466933,0.006345784662568545
24,-0.071777,0.014359,9.533005000000001,-0.196115,-0.138575,9.80371,0.172555,0.149391,-0.036711,0.043808,-0.019531,-0.032104,411.0,-18.9682,-7.6447,-52.7679,2.0029974454540085,0.015203563114122604,0.020355775066009864,8.0,937.8943,32.668929999999996,36.04823,-115.13116000000001,603.0,,0.029209401,0.0,7.504,,8 / 13,"$GPVTG,,T,,M,0.0,N,0.0,K,A*23::$GPGSV,3,3,12,31,17,050,22,01,06,205,,06,09,309,,14,09,094,*7F::$GPGSA,A,3,03,04,07,09,16,22,23,26,,,,,1.4,1.1,0.9,1*28::$GPRMC,181248.00,A,3602.893816,N,11507.869101,W,0.0,,030220,12.3,E,A*33::$GPGGA,181248.00,3602.893816,N,11507.869101,W,1,08,1.1,621.0,M,-18.0,M,,*5E::$GAGSV,1,1,0,*74::$GLGSV,1,1,0,*79::$GBGSV,1,1,0,*77::$PQGSV,1,1,0,*73",258,2020-02-03 10:12:47:322,0.09343364928189044,-0.17772878736418124,9.5311712333773,0.008058869351838506,-0.007565042109097642,9.80664426359561,0.06320051094966024,-0.2182694698449934,-0.042482118312148445,-0.007389060469367789,-0.04733392648701343,0.06670124442072606
25,-0.071777,0.014359,9.533005000000001,-0.196115,-0.138575,9.80371,0.172555,0.149391,-0.036711,0.043808,-0.019531,-0.032104,411.0,-18.9682,-7.6447,-52.7679,2.0029974454540085,0.015203563114122604,0.020355775066009864,8.0,937.8943,32.668929999999996,36.04823,-115.13116000000001,603.0,,0.029209401,0.0,7.504,,8 / 13,"$GPVTG,,T,,M,0.0,N,0.0,K,A*23::$GPGSV,3,3,12,31,17,050,22,01,06,205,,06,09,309,,14,09,094,*7F::$GPGSA,A,3,03,04,07,09,16,22,23,26,,,,,1.4,1.1,0.9,1*28::$GPRMC,181248.00,A,3602.893816,N,11507.869101,W,0.0,,030220,12.3,E,A*33::$GPGGA,181248.00,3602.893816,N,11507.869101,W,1,08,1.1,621.0,M,-18.0,M,,*5E::$GAGSV,1,1,0,*74::$GLGSV,1,1,0,*79::$GBGSV,1,1,0,*77::$PQGSV,1,1,0,*73",268,2020-02-03 10:12:47:332,0.09343364928189044,-0.17772878736418124,9.5311712333773,0.008058869351838506,-0.007565042109097642,9.80664426359561,0.06320051094966024,-0.2182694698449934,-0.042482118312148445,0.008419748013021451,-0.0862677488041302,0.1195574680548567
26,-0.107681,-0.002396,9.480362,-0.1916,-0.132463,9.803884,0.074007,0.128183,-0.18051199999999998,0.041351,-0.029297000000000004,-0.033339999999999995,411.0,-17.5461,-7.6096,-53.5004,2.0002014279923137,0.013507103081184116,0.01954070630532851,8.0,937.8943,33.42537,36.04823,-115.13116000000001,603.0,,0.029209401,0.0,7.504,,8 / 13,"$GPVTG,,T,,M,0.0,N,0.0,K,A*23::$GPGSV,3,3,12,31,17,050,22,01,06,205,,06,09,309,,14,09,094,*7F::$GPGSA,A,3,03,04,07,09,16,22,23,26,,,,,1.4,1.1,0.9,1*28::$GPRMC,181248.00,A,3602.893816,N,11507.869101,W,0.0,,030220,12.3,E,A*33::$GPGGA,181248.00,3602.893816,N,11507.869101,W,1,08,1.1,621.0,M,-18.0,M,,*5E::$GAGSV,1,1,0,*74::$GLGSV,1,1,0,*79::$GBGSV,1,1,0,*77::$PQGSV,1,1,0,*73",280,2020-02-03 10:12:47:344,0.08195259110720399,-0.12283559740984756,9.479823826339855,-3.683573378902849e-05,-1.4892720188730557e-06,9.806650727463781,0.08499526162422699,-0.1163844600839957,-0.18363812957658335,0.04430039667546955,-0.025107141064663142,-0.005462848075657252
27,-0.20578000000000002,-0.110077,9.513869999999999,-0.184167,-0.130751,9.804049000000001,-0.036233,0.021195,-0.162721,-0.022171,-0.004883,-0.032104,411.0,-18.2419,-6.9458,-54.2419,2.0002014279923137,0.013507103081184116,0.01954070630532851,8.0,937.8943,33.42537,36.04823,-115.13116000000001,603.0,,0.029209401,0.0,7.504,,8 / 13,"$GPVTG,,T,,M,0.0,N,0.0,K,A*23::$GPGSV,3,3,12,31,17,050,22,01,06,205,,06,09,309,,14,09,094,*7F::$GPGSA,A,3,03,04,07,09,16,22,23,26,,,,,1.4,1.1,0.9,1*28::$GPRMC,181248.00,A,3602.893816,N,11507.869101,W,0.0,,030220,12.3,E,A*33::$GPGGA,181248.00,3602.893816,N,11507.869101,W,1,08,1.1,621.0,M,-18.0,M,,*5E::$GAGSV,1,1,0,*74::$GLGSV,1,1,0,*79::$GBGSV,1,1,0,*77::$PQGSV,1,1,0,*73",287,2020-02-03 10:12:47:351,0.025017356334436268,0.010357562083325444,9.516693311440624,-0.0015735218023695957,-0.007474523618934359,9.806647325045233,0.033678659770456934,0.027924606098291775,-0.1622533401977323,-0.006410280120453908,0.08415284859401209,-0.010901943306382979
28,-0.20578000000000002,-0.110077,9.513869999999999,-0.184167,-0.130751,9.804049000000001,-0.036233,0.021195,-0.162721,-0.022171,-0.004883,-0.032104,411.0,-18.2419,-6.9458,-54.2419,2.0002014279923137,0.013507103081184116,0.01954070630532851,8.0,937.8943,33.42537,36.04823,-115.13116000000001,603.0,,0.029209401,0.0,7.504,,8 / 13,"$GPVTG,,T,,M,0.0,N,0.0,K,A*23::$GPGSV,3,3,12,31,17,050,22,01,06,205,,06,09,309,,14,09,094,*7F::$GPGSA,A,3,03,04,07,09,16,22,23,26,,,,,1.4,1.1,0.9,1*28::$GPRMC,181248.00,A,3602.893816,N,11507.869101,W,0.0,,030220,12.3,E,A*33::$GPGGA,181248.00,3602.893816,N,11507.869101,W,1,08,1.1,621.0,M,-18.0,M,,*5E::$GAGSV,1,1,0,*74::$GLGSV,1,1,0,*79::$GBGSV,1,1,0,*77::$PQGSV,1,1,0,*73",298,2020-02-03 10:12:47:362,0.025017356334436268,0.010357562083325444,9.516693311440624,-0.0015735218023695957,-0.007474523618934359,9.806647325045233,0.033678659770456934,0.027924606098291775,-0.1622533401977323,-0.019730565442808826,0.05227228664403098,-0.06195142064109114
29,-0.217743,-0.059814,9.705292,-0.18795499999999998,-0.138199,9.803875,-0.024127000000000003,0.077589,0.027943,-0.047820999999999995,0.033005,-0.040665,411.0,-18.9697,-7.6370000000000005,-54.2374,1.9828336566057179,0.01409353370985421,0.019168951174653722,8.0,937.8943,33.42537,36.04823,-115.13116000000001,603.0,,0.029209401,0.0,7.504,,8 / 13,"$GPVTG,,T,,M,0.0,N,0.0,K,A*23::$GPGSV,3,3,12,31,17,050,22,01,06,205,,06,09,309,,14,09,094,*7F::$GPGSA,A,3,03,04,07,09,16,22,23,26,,,,,1.4,1.1,0.9,1*28::$GPRMC,181248.00,A,3602.893816,N,11507.869101,W,0.0,,030220,12.3,E,A*33::$GPGGA,181248.00,3602.893816,N,11507.869101,W,1,08,1.1,621.0,M,-18.0,M,,*5E::$GAGSV,1,1,0,*74::$GLGSV,1,1,0,*79::$GBGSV,1,1,0,*77::$PQGSV,1,1,0,*73",308,2020-02-03 10:12:47:372,0.08321315342213101,-0.0017990848261618397,9.707561736517585,-2.373419972458851e-05,-7.844134897433408e-06,9.806650348647398,0.08090356367338235,-0.009595082851663855,0.02730428664178347,0.0104051453281327,-0.021336266342637595,0.07994617706381076
30,-0.217743,-0.059814,9.705292,-0.18795499999999998,-0.138199,9.803875,-0.024127000000000003,0.077589,0.027943,-0.047820999999999995,0.033005,-0.040665,411.0,-18.9697,-7.6370000000000005,-54.2374,1.9828336566057179,0.01409353370985421,0.019168951174653722,8.0,937.8943,33.42537,36.04823,-115.13116000000001,603.0,,0.029209401,0.0,7.504,,8 / 13,"$GPVTG,,T,,M,0.0,N,0.0,K,A*23::$GPGSV,3,3,12,31,17,050,22,01,06,205,,06,09,309,,14,09,094,*7F::$GPGSA,A,3,03,04,07,09,16,22,23,26,,,,,1.4,1.1,0.9,1*28::$GPRMC,181248.00,A,3602.893816,N,11507.869101,W,0.0,,030220,12.3,E,A*33::$GPGGA,181248.00,3602.893816,N,11507.869101,W,1,08,1.1,621.0,M,-18.0,M,,*5E::$GAGSV,1,1,0,*74::$GLGSV,1,1,0,*79::$GBGSV,1,1,0,*77::$PQGSV,1,1,0,*73",317,2020-02-03 10:12:47:381,0.08321315342213101,-0.0017990848261618397,9.707561736517585,-2.373419972458851e-05,-7.844134897433408e-06,9.806650348647398,0.08090356367338235,-0.009595082851663855,0.02730428664178347,0.001293429127602315,-0.0619838144027416,0.051278731267896505
31,-0.301498,-0.100494,9.643082000000001,-0.19354200000000002,-0.14368399999999998,9.803688000000001,-0.11432200000000001,0.065051,-0.007838,-0.039261000000000004,0.035446,-0.032104,411.0,-18.9682,-7.6447,-52.7679,1.9828336566057179,0.01409353370985421,0.019168951174653722,8.0,937.8943,33.42537,36.04823,-115.13116000000001,603.0,,0.029209401,0.0,7.504,,8 / 13,"$GPVTG,,T,,M,0.0,N,0.0,K,A*23::$GPGSV,3,3,12,31,17,050,22,01,06,205,,06,09,309,,14,09,094,*7F::$GPGSA,A,3,03,04,07,09,16,22,23,26,,,,,1.4,1.1,0.9,1*28::$GPRMC,181248.00,A,3602.893816,N,11507.869101,W,0.0,,030220,12.3,E,A*33::$GPGGA,181248.00,3602.893816,N,11507.869101,W,1,08,1.1,621.0,M,-18.0,M,,*5E::$GAGSV,1,1,0,*74::$GLGSV,1,1,0,*79::$GBGSV,1,1,0,*77::$PQGSV,1,1,0,*73",328,2020-02-03 10:12:47:392,0.07914701880531994,0.09265544057996405,9.647547940565477,-0.002813697070386832,0.007310001420537476,9.806647778214126,0.10534165433379536,0.07888393108695226,-0.006561082798451619,0.02841348684923127,-0.005394342888212097,0.0020209947980426215
32,-0.306274,-0.11245699999999999,9.714858999999999,-0.19782,-0.149763,9.803512,-0.128048,0.041123,0.04847,-0.024612000000000002,0.0061189999999999994,-0.00647,411.0,-18.9682,-7.6447,-52.7679,1.9828336566057179,0.01409353370985421,0.019168951174653722,8.0,937.8943,33.42537,36.04823,-115.13116000000001,603.0,,0.029209401,0.0,7.504,,8 / 13,"$GPVTG,,T,,M,0.0,N,0.0,K,A*23::$GPGSV,3,3,12,31,17,050,22,01,06,205,,06,09,309,,14,09,094,*7F::$GPGSA,A,3,03,04,07,09,16,22,23,26,,,,,1.4,1.1,0.9,1*28::$GPRMC,181248.00,A,3602.893816,N,11507.869101,W,0.0,,030220,12.3,E,A*33::$GPGGA,181248.00,3602.893816,N,11507.869101,W,1,08,1.1,621.0,M,-18.0,M,,*5E::$GAGSV,1,1,0,*74::$GLGSV,1,1,0,*79::$GBGSV,1,1,0,*77::$PQGSV,1,1,0,*73",338,2020-02-03 10:12:47:402,0.07047333524826689,0.1001527465666543,9.719564736457086,-0.0066720268329472435,0.013666079114043883,9.806639483791203,0.08920673663261415,0.09972791603364978,0.05033123519192346,0.02034023666056277,0.012339608061453414,0.038758693170292735
33,-0.16989100000000001,-0.08136,9.734009,-0.19782,-0.149763,9.803512,-0.128048,0.041123,0.04847,-0.018494,-0.004883,-0.00035099999999999997,411.0,-18.9682,-7.6447,-52.7679,1.9828336566057179,0.01409353370985421,0.019168951174653722,8.0,937.8943,33.42537,36.04823,-115.13116000000001,603.0,,0.029209401,0.0,7.504,,8 / 13,"$GPVTG,,T,,M,0.0,N,0.0,K,A*23::$GPGSV,3,3,12,31,17,050,22,01,06,205,,06,09,309,,14,09,094,*7F::$GPGSA,A,3,03,04,07,09,16,22,23,26,,,,,1.4,1.1,0.9,1*28::$GPRMC,181248.00,A,3602.893816,N,11507.869101,W,0.0,,030220,12.3,E,A*33::$GPGGA,181248.00,3602.893816,N,11507.869101,W,1,08,1.1,621.0,M,-18.0,M,,*5E::$GAGSV,1,1,0,*74::$GLGSV,1,1,0,*79::$GBGSV,1,1,0,*77::$PQGSV,1,1,0,*73",348,2020-02-03 10:12:47:412,0.04446035488090697,-0.03768205654378687,9.735656986203884,-0.0066720268329472435,0.013666079114043883,9.806639483791203,0.08920673663261415,0.09972791603364978,0.05033123519192346,0.02343871376119898,0.04784308338656245,0.0027619697044828527
34,-0.15792799999999999,-0.064606,9.769897,-0.196679,-0.149803,9.803533,0.009629,0.053141999999999995,0.068865,0.008376999999999999,-0.015869,0.017975,411.0,-19.6823,-7.6584,-53.5019,1.9669895576561134,0.015276866942706364,0.020059069093170828,8.0,937.887,33.42537,36.04823,-115.13116000000001,603.0,,0.09045457,0.0,7.504,,8 / 13,"$GPVTG,,T,,M,0.0,N,0.0,K,A*23::$GPGSV,3,3,12,31,17,050,22,01,06,205,,06,09,309,,14,09,094,*7F::$GPGSA,A,3,03,04,07,09,16,22,23,26,,,,,1.4,1.1,0.9,1*28::$GPRMC,181248.00,A,3602.893816,N,11507.869101,W,0.0,,030220,12.3,E,A*33::$GPGGA,181248.00,3602.893816,N,11507.869101,W,1,08,1.1,621.0,M,-18.0,M,,*5E::$GAGSV,1,1,0,*74::$GLGSV,1,1,0,*79::$GBGSV,1,1,0,*77::$PQGSV,1,1,0,*73",358,2020-02-03 10:12:47:422,0.06340324204992383,-0.06778103566335597,9.770946133263195,-2.9960349988214507e-05,-9.23444706787957e-06,9.806649929968751,0.045748362349719275,-0.031051999579093922,0.06783832762132876,-0.027164319048082877,-0.02234912057294363,-0.022492747771760854
35,-0.15792799999999999,-0.064606,9.769897,-0.196679,-0.149803,9.803533,0.009629,0.053141999999999995,0.068865,0.008376999999999999,-0.015869,0.017975,411.0,-19.6823,-7.6584,-53.5019,1.9669895576561134,0.015276866942706364,0.020059069093170828,8.0,937.887,33.42537,36.04823,-115.13116000000001,603.0,,0.09045457,0.0,7.504,,8 / 13,"$GPVTG,,T,,M,0.0,N,0.0,K,A*23::$GPGSV,3,3,12,31,17,050,22,01,06,205,,06,09,309,,14,09,094,*7F::$GPGSA,A,3,03,04,07,09,16,22,23,26,,,,,1.4,1.1,0.9,1*28::$GPRMC,181248.00,A,3602.893816,N,11507.869101,W,0.0,,030220,12.3,E,A*33::$GPGGA,181248.00,3602.893816,N,11507.869101,W,1,08,1.1,621.0,M,-18.0,M,,*5E::$GAGSV,1,1,0,*74::$GLGSV,1,1,0,*79::$GBGSV,1,1,0,*77::$PQGSV,1,1,0,*73",368,2020-02-03 10:12:47:432,0.06340324204992383,-0.06778103566335597,9.770946133263195,-2.9960349988214507e-05,-9.23444706787957e-06,9.806649929968751,0.045748362349719275,-0.031051999579093922,0.06783832762132876,-0.041198311366899984,0.029501109558897308,-0.04737831390038684
36,-0.19381700000000002,0.045471,9.796219,-0.192708,-0.13983900000000002,9.803759,-0.00017900000000000001,0.17260999999999999,0.132373,0.040131,-0.013412,0.010651,411.0,-17.514,-6.2592,-53.508,1.9669895576561134,0.015276866942706364,0.020059069093170828,8.0,937.887,33.42537,36.04823,-115.13116000000001,603.0,,0.09045457,0.0,7.504,,8 / 13,"$GPVTG,,T,,M,0.0,N,0.0,K,A*23::$GPGSV,3,3,12,31,17,050,22,01,06,205,,06,09,309,,14,09,094,*7F::$GPGSA,A,3,03,04,07,09,16,22,23,26,,,,,1.4,1.1,0.9,1*28::$GPRMC,181248.00,A,3602.893816,N,11507.869101,W,0.0,,030220,12.3,E,A*33::$GPGGA,181248.00,3602.893816,N,11507.869101,W,1,08,1.1,621.0,M,-18.0,M,,*5E::$GAGSV,1,1,0,*74::$GLGSV,1,1,0,*79::$GBGSV,1,1,0,*77::$PQGSV,1,1,0,*73",378,2020-02-03 10:12:47:442,0.17896882987401225,-0.07776461657020295,9.796298390700144,0.007631599794772938,-0.007519339259936503,9.806644026754906,0.16015097378371843,-0.06961964718323191,0.12969820967233522,0.05909935773691792,-0.00033545055807630635,0.027701581230485533
37,-0.251251,-0.011963,9.63829,-0.193169,-0.12881099999999998,9.803902,-0.041559,0.145004,0.031107999999999997,0.041351,0.0073549999999999996,-0.016235,411.0,-19.664,-6.9885,-52.037,1.9669895576561134,0.015276866942706364,0.020059069093170828,8.0,937.887,33.42537,36.04823,-115.13116000000001,603.0,,0.09045457,0.0,7.504,,8 / 13,"$GPVTG,,T,,M,0.0,N,0.0,K,A*23::$GPGSV,3,3,12,31,17,050,22,01,06,205,,06,09,309,,14,09,094,*7F::$GPGSA,A,3,03,04,07,09,16,22,23,26,,,,,1.4,1.1,0.9,1*28::$GPRMC,181248.00,A,3602.893816,N,11507.869101,W,0.0,,030220,12.3,E,A*33::$GPGGA,181248.00,3602.893816,N,11507.869101,W,1,08,1.1,621.0,M,-18.0,M,,*5E::$GAGSV,1,1,0,*74::$GLGSV,1,1,0,*79::$GBGSV,1,1,0,*77::$PQGSV,1,1,0,*73",388,2020-02-03 10:12:47:452,0.14713971919854646,0.001208197597296845,9.640448783420963,0.017984228747521508,-0.011349817598097972,9.806627795070172,0.15000547121965044,-0.018337821447534278,0.02971701650113914,0.03576915876660393,0.0047665105392957485,-0.025307532841416843
38,-0.251251,-0.011963,9.63829,-0.200379,-0.121519,9.803849000000001,-0.041559,0.145004,0.031107999999999997,0.002274,0.014679,-0.026001,392.0,-19.664,-6.9885,-52.037,1.9669895576561134,0.015276866942706364,0.020059069093170828,8.0,937.887,33.42537,36.04823,-115.13116000000001,603.0,,0.09045457,0.0,7.504,,8 / 13,"$GPVTG,,T,,M,0.0,N,0.0,K,A*23::$GPGSV,3,3,12,31,17,050,22,01,06,205,,06,09,309,,14,09,094,*7F::$GPGSA,A,3,03,04,07,09,16,22,23,26,,,,,1.4,1.1,0.9,1*28::$GPRMC,181248.00,A,3602.893816,N,11507.869101,W,0.0,,030220,12.3,E,A*33::$GPGGA,181248.00,3602.893816,N,11507.869101,W,1,08,1.1,621.0,M,-18.0,M,,*5E::$GAGSV,1,1,0,*74::$GLGSV,1,1,0,*79::$GBGSV,1,1,0,*77::$PQGSV,1,1,0,*73",398,2020-02-03 10:12:47:462,0.14713971919854646,0.001208197597296845,9.640448783420963,0.027492953235633624,-0.007510033492747037,9.80660805593465,0.15000547121965044,-0.018337821447534278,0.02971701650113914,0.01431756195747134,-0.07619862554158573,0.022805215317823764
39,-0.483353,0.033493,9.707687,-0.200379,-0.121519,9.803849000000001,-0.23069299999999998,0.131825,-0.013878999999999999,0.004715,0.009796,-0.024796000000000002,392.0,-18.2739,-8.2993,-54.2343,1.9966496829645053,0.012391837689159739,0.020436060211601607,8.0,937.887,33.42537,36.04823,-115.13116000000001,603.0,,0.09045457,0.0,7.504,,8 / 13,"$GPVTG,,T,,M,0.0,N,0.0,K,A*23::$GPGSV,3,3,12,31,17,050,22,01,06,205,,06,09,309,,14,09,094,*7F::$GPGSA,A,3,03,04,07,09,16,22,23,26,,,,,1.4,1.1,0.9,1*28::$GPRMC,181248.00,A,3602.893816,N,11507.869101,W,0.0,,030220,12.3,E,A*33::$GPGGA,181248.00,3602.893816,N,11507.869101,W,1,08,1.1,621.0,M,-18.0,M,,*5E::$GAGSV,1,1,0,*74::$GLGSV,1,1,0,*79::$GBGSV,1,1,0,*77::$PQGSV,1,1,0,*73",407,2020-02-03 10:12:47:471,0.2577412643490637,0.195929430672706,9.714376968826926,-2.9581482302584033e-05,-4.516499757217796e-06,9.806649469870306,0.2152952891793736,0.1559523767501414,-0.010794079773276684,0.0370084805595714,0.022079784974337154,-0.011120629815531937
40,-0.483353,0.033493,9.707687,-0.200379,-0.121519,9.803849000000001,-0.23069299999999998,0.131825,-0.013878999999999999,0.004715,0.009796,-0.024796000000000002,392.0,-18.2739,-8.2993,-54.2343,1.9966496829645053,0.012391837689159739,0.020436060211601607,8.0,937.887,33.42537,36.04823,-115.13116000000001,603.0,,0.09045457,0.0,7.504,,8 / 13,"$GPVTG,,T,,M,0.0,N,0.0,K,A*23::$GPGSV,3,3,12,31,17,050,22,01,06,205,,06,09,309,,14,09,094,*7F::$GPGSA,A,3,03,04,07,09,16,22,23,26,,,,,1.4,1.1,0.9,1*28::$GPRMC,181248.00,A,3602.893816,N,11507.869101,W,0.0,,030220,12.3,E,A*33::$GPGGA,181248.00,3602.893816,N,11507.869101,W,1,08,1.1,621.0,M,-18.0,M,,*5E::$GAGSV,1,1,0,*74::$GLGSV,1,1,0,*79::$GBGSV,1,1,0,*77::$PQGSV,1,1,0,*73",417,2020-02-03 10:12:47:481,0.2577412643490637,0.195929430672706,9.714376968826926,-2.9581482302584033e-05,-4.516499757217796e-06,9.806649469870306,0.2152952891793736,0.1559523767501414,-0.010794079773276684,-0.028987831387849,-0.015455688428289404,-0.0693979834758362
41,-0.6149600000000001,0.114853,9.829711999999999,-0.206783,-0.11816199999999999,9.803758,-0.402436,0.225156,0.152455,0.014481,0.0073549999999999996,-0.021118,392.0,-18.2739,-6.311,-52.7756,1.9966496829645053,0.012391837689159739,0.020436060211601607,8.0,937.887,33.42537,36.04823,-115.13116000000001,603.0,,0.09045457,0.0,7.504,,8 / 13,"$GPVTG,,T,,M,0.0,N,0.0,K,A*23::$GPGSV,3,3,12,31,17,050,22,01,06,205,,06,09,309,,14,09,094,*7F::$GPGSA,A,3,03,04,07,09,16,22,23,26,,,,,1.4,1.1,0.9,1*28::$GPRMC,181248.00,A,3602.893816,N,11507.869101,W,0.0,,030220,12.3,E,A*33::$GPGGA,181248.00,3602.893816,N,11507.869101,W,1,08,1.1,621.0,M,-18.0,M,,*5E::$GAGSV,1,1,0,*74::$GLGSV,1,1,0,*79::$GBGSV,1,1,0,*77::$PQGSV,1,1,0,*73",428,2020-02-03 10:12:47:492,0.386539819661024,0.2792735201080435,9.838048499826368,0.005672378533737522,0.004442571883068125,9.806647769629224,0.3716987421291293,0.2698467711296704,0.15784565457279573,0.057724158220628916,0.10560657190998018,-0.007149774144606686
42,-0.6149600000000001,0.114853,9.829711999999999,-0.206783,-0.11816199999999999,9.803758,-0.402436,0.225156,0.152455,0.014481,0.0073549999999999996,-0.021118,392.0,-19.6487,-6.311,-52.7756,1.9966496829645053,0.012391837689159739,0.020436060211601607,8.0,937.887,33.42537,36.04823,-115.13116000000001,603.0,,0.09045457,0.0,7.504,,8 / 13,"$GPVTG,,T,,M,0.0,N,0.0,K,A*23::$GPGSV,3,3,12,31,17,050,22,01,06,205,,06,09,309,,14,09,094,*7F::$GPGSA,A,3,03,04,07,09,16,22,23,26,,,,,1.4,1.1,0.9,1*28::$GPRMC,181248.00,A,3602.893816,N,11507.869101,W,0.0,,030220,12.3,E,A*33::$GPGGA,181248.00,3602.893816,N,11507.869101,W,1,08,1.1,621.0,M,-18.0,M,,*5E::$GAGSV,1,1,0,*74::$GLGSV,1,1,0,*79::$GBGSV,1,1,0,*77::$PQGSV,1,1,0,*73",438,2020-02-03 10:12:47:502,0.386539819661024,0.2792735201080435,9.838048499826368,0.005672378533737522,0.004442571883068125,9.806647769629224,0.3716987421291293,0.2698467711296704,0.15784565457279573,0.02329363374651245,0.1348887069103372,-0.10798773017224106
43,-0.358917,0.141174,9.913467,-0.22243000000000002,-0.09739500000000001,9.803644,-0.165656,0.233736,0.228148,0.07434099999999999,0.012237999999999999,-0.021118,392.0,-19.6487,-6.311,-52.7756,1.9966496829645053,0.012391837689159739,0.020436060211601607,8.0,937.887,33.42537,36.04823,-115.13116000000001,603.0,,0.09045457,0.0,7.504,,8 / 13,"$GPVTG,,T,,M,0.0,N,0.0,K,A*23::$GPGSV,3,3,12,31,17,050,22,01,06,205,,06,09,309,,14,09,094,*7F::$GPGSA,A,3,03,04,07,09,16,22,23,26,,,,,1.4,1.1,0.9,1*28::$GPRMC,181248.00,A,3602.893816,N,11507.869101,W,0.0,,030220,12.3,E,A*33::$GPGGA,181248.00,3602.893816,N,11507.869101,W,1,08,1.1,621.0,M,-18.0,M,,*5E::$GAGSV,1,1,0,*74::$GLGSV,1,1,0,*79::$GBGSV,1,1,0,*77::$PQGSV,1,1,0,*73",448,2020-02-03 10:12:47:512,0.3050003226683816,0.03329378650105258,9.916221346773508,0.031047397899925274,0.010118453588012,9.806596261988236,0.2819350586425938,0.04892133586387581,0.22857222828132692,-0.026468645583973573,-0.06759490473859955,-0.06904129724437079
44,-0.401993,0.20338399999999998,10.083359,-0.229552,-0.074201,9.803682,-0.112971,0.29226399999999997,0.394334,0.145218,0.052551,-0.067535,392.0,-18.9682,-7.6447,-52.7679,1.9700526104933633,0.009930923443847734,0.0226840442881703,8.0,937.887,33.42537,36.04823,-115.13116000000001,603.0,,0.09045457,0.0,7.504,,8 / 13,"$GPVTG,,T,,M,0.0,N,0.0,K,A*23::$GPGSV,3,3,12,31,17,050,22,01,06,205,,06,09,309,,14,09,094,*7F::$GPGSA,A,3,03,04,07,09,16,22,23,26,,,,,1.4,1.1,0.9,1*28::$GPRMC,181248.00,A,3602.893816,N,11507.869101,W,0.0,,030220,12.3,E,A*33::$GPGGA,181248.00,3602.893816,N,11507.869101,W,1,08,1.1,621.0,M,-18.0,M,,*5E::$GAGSV,1,1,0,*74::$GLGSV,1,1,0,*79::$GBGSV,1,1,0,*77::$PQGSV,1,1,0,*73",458,2020-02-03 10:12:47:522,0.3469806560229345,0.041625872560638794,10.087366547194835,0.02410652953182588,-0.002444129823474639,9.806619884939577,0.3133253939866983,-0.0192501198540612,0.39387387126043855,0.13305979707805626,-0.14696810347613035,0.17143784532475478
45,-0.44984399999999997,-0.172287,9.676575,-0.24372600000000003,-0.045795999999999996,9.803514,-0.211286,-0.000194,0.082076,0.189194,0.068436,-0.047989,392.0,-18.9682,-7.6447,-52.7679,1.9700526104933633,0.009930923443847734,0.0226840442881703,8.0,937.887,33.42537,36.04823,-115.13116000000001,603.0,,0.09045457,0.0,7.504,,8 / 13,"$GPVTG,,T,,M,0.0,N,0.0,K,A*23::$GPGSV,3,3,12,31,17,050,22,01,06,205,,06,09,309,,14,09,094,*7F::$GPGSA,A,3,03,04,07,09,16,22,23,26,,,,,1.4,1.1,0.9,1*28::$GPRMC,181248.00,A,3602.893816,N,11507.869101,W,0.0,,030220,12.3,E,A*33::$GPGGA,181248.00,3602.893816,N,11507.869101,W,1,08,1.1,621.0,M,-18.0,M,,*5E::$GAGSV,1,1,0,*74::$GLGSV,1,1,0,*79::$GBGSV,1,1,0,*77::$PQGSV,1,1,0,*73",468,2020-02-03 10:12:47:532,0.019301306048072377,0.24172367353285795,9.685522355070407,0.05578711437126634,-0.0004196381678751304,9.806491421842061,0.08196132734549816,0.19266171853524253,0.08684517395233365,0.09028935606823807,0.032549390632800115,0.03606351340846771
46,-0.337387,-0.48574799999999996,9.188446,-0.251758,-0.025979000000000002,9.803384,-0.117228,-0.445709,-0.4106,0.15618900000000002,0.036667,0.006973,392.0,-17.5278,-6.9366,-52.771,1.9700526104933633,0.009930923443847734,0.0226840442881703,8.0,937.887,33.42537,36.04823,-115.13116000000001,603.0,,0.09045457,0.0,7.504,,8 / 13,"$GPVTG,,T,,M,0.0,N,0.0,K,A*23::$GPGSV,3,3,12,31,17,050,22,01,06,205,,06,09,309,,14,09,094,*7F::$GPGSA,A,3,03,04,07,09,16,22,23,26,,,,,1.4,1.1,0.9,1*28::$GPRMC,181248.00,A,3602.893816,N,11507.869101,W,0.0,,030220,12.3,E,A*33::$GPGGA,181248.00,3602.893816,N,11507.869101,W,1,08,1.1,621.0,M,-18.0,M,,*5E::$GAGSV,1,1,0,*74::$GLGSV,1,1,0,*79::$GBGSV,1,1,0,*77::$PQGSV,1,1,0,*73",478,2020-02-03 10:12:47:542,-0.31338630746524476,0.2720045524172603,9.198104345350002,0.07716780797867022,-0.0007170712808327318,9.806346897070362,-0.36525090040202707,0.29130657432549684,-0.4033900546310635,-0.17078313834538406,0.10678112727864211,-0.2418755811708705
47,-0.337387,-0.48574799999999996,9.188446,-0.251758,-0.025979000000000002,9.803384,-0.117228,-0.445709,-0.4106,0.064575,-0.026855,0.10104400000000001,392.0,-18.9377,-6.2836,-54.9805,1.8632698761978461,0.002649409804527392,0.02567553862608858,8.0,937.887,33.42537,36.04823,-115.13116000000001,603.0,,0.09045457,0.0,7.504,,8 / 13,"$GPVTG,,T,,M,0.0,N,0.0,K,A*23::$GPGSV,3,3,12,31,17,050,22,01,06,205,,06,09,309,,14,09,094,*7F::$GPGSA,A,3,03,04,07,09,16,22,23,26,,,,,1.4,1.1,0.9,1*28::$GPRMC,181248.00,A,3602.893816,N,11507.869101,W,0.0,,030220,12.3,E,A*33::$GPGGA,181248.00,3602.893816,N,11507.869101,W,1,08,1.1,621.0,M,-18.0,M,,*5E::$GAGSV,1,1,0,*74::$GLGSV,1,1,0,*79::$GBGSV,1,1,0,*77::$PQGSV,1,1,0,*73",487,2020-02-03 10:12:47:551,-0.412586537108483,0.23007946141301638,9.19533342478791,-7.062063436050203e-06,-3.484451103402675e-06,9.80665054187203,-0.3910027721979311,0.25109799708157277,-0.4062731896890997,-0.08343622348007086,0.08006646604408976,-0.06659499458809846
48,-0.28234899999999996,-0.354141,9.121445,-0.24880300000000002,-0.016773,9.803479,-0.037652,-0.35073200000000004,-0.568908,0.020584,-0.089157,0.15603599999999998,392.0,-18.9377,-6.2836,-54.9805,1.8632698761978461,0.002649409804527392,0.02567553862608858,8.0,937.887,33.42537,36.04823,-115.13116000000001,603.0,,0.09045457,0.0,7.504,,8 / 13,"$GPVTG,,T,,M,0.0,N,0.0,K,A*23::$GPGSV,3,3,12,31,17,050,22,01,06,205,,06,09,309,,14,09,094,*7F::$GPGSA,A,3,03,04,07,09,16,22,23,26,,,,,1.4,1.1,0.9,1*28::$GPRMC,181248.00,A,3602.893816,N,11507.869101,W,0.0,,030220,12.3,E,A*33::$GPGGA,181248.00,3602.893816,N,11507.869101,W,1,08,1.1,621.0,M,-18.0,M,,*5E::$GAGSV,1,1,0,*74::$GLGSV,1,1,0,*79::$GBGSV,1,1,0,*77::$PQGSV,1,1,0,*73",498,2020-02-03 10:12:47:562,-0.30210371982867834,0.14115788445230945,9.126593202714231,0.007955970384575052,-0.005488151477093611,9.806645264947008,-0.32222329518125903,0.15156129536614574,-0.5668229381221856,-0.018246504262598436,0.04394664558945075,-0.14246057744027596
49,-0.050247,-0.055038,9.298508,-0.23201999999999998,-0.015037,9.803894,0.153889,-0.128712,-0.46682299999999993,0.020584,-0.089157,0.15603599999999998,392.0,-18.2907,-8.9722,-54.9667,1.8632698761978461,0.002649409804527392,0.02567553862608858,8.0,937.8892,33.42537,36.04823,-115.13116000000001,603.0,,0.07160995,0.0,7.504,,8 / 13,"$GPVTG,,T,,M,0.0,N,0.0,K,A*23::$GPGSV,3,3,12,31,17,050,22,01,06,205,,06,09,309,,14,09,094,*7F::$GPGSA,A,3,03,04,07,09,16,22,23,26,,,,,1.4,1.1,0.9,1*28::$GPRMC,181248.00,A,3602.893816,N,11507.869101,W,0.0,,030220,12.3,E,A*33::$GPGGA,181248.00,3602.893816,N,11507.869101,W,1,08,1.1,621.0,M,-18.0,M,,*5E::$GAGSV,1,1,0,*74::$GLGSV,1,1,0,*79::$GBGSV,1,1,0,*77::$PQGSV,1,1,0,*73",507,2020-02-03 10:12:47:571,-0.08345706976199806,-0.1717202991862566,9.296846348352279,0.00477895125549601,-0.022064071814719144,9.80662466363248,-0.16533193024109813,-0.09837115769053026,-0.47027734877556815,0.023820630142294158,-0.10412196811737,-0.07460110600861446
50,-0.069397,0.14357,9.487549000000001,-0.21377100000000002,-0.014785,9.804309,0.13702999999999999,0.130667,-0.233172,-0.0038450000000000003,-0.18811,0.174362,392.0,-18.2907,-8.9722,-54.9667,1.8632698761978461,0.002649409804527392,0.02567553862608858,8.0,937.8892,33.42537,36.04823,-115.13116000000001,603.0,,0.07160995,0.0,7.504,,8 / 13,"$GPVTG,,T,,M,0.0,N,0.0,K,A*23::$GPGSV,3,3,12,31,17,050,22,01,06,205,,06,09,309,,14,09,094,*7F::$GPGSA,A,3,03,04,07,09,16,22,23,26,,,,,1.4,1.1,0.9,1*28::$GPRMC,181248.00,A,3602.893816,N,11507.869101,W,0.0,,030220,12.3,E,A*33::$GPGGA,181248.00,3602.893816,N,11507.869101,W,1,08,1.1,621.0,M,-18.0,M,,*5E::$GAGSV,1,1,0,*74::$GLGSV,1,1,0,*79::$GBGSV,1,1,0,*77::$PQGSV,1,1,0,*73",518,2020-02-03 10:12:47:582,0.11131983636227546,-0.21543090362288586,9.4857899900697,-0.00024161206049615885,-0.03961550266036659,9.806570356537476,0.08675888132547449,-0.16292301961802216,-0.23695833718756928,0.10147969653132277,-0.05494828786995071,0.039426989245249164
51,-0.069397,0.14357,9.487549000000001,-0.21377100000000002,-0.014785,9.804309,0.13702999999999999,0.130667,-0.233172,0.00592,-0.21743800000000002,0.138916,392.0,-19.6976,-8.3359,-53.4988,1.9356766055460828,0.0015079644737231008,0.02180090768666117,8.0,937.8892,33.42537,36.04823,-115.13116000000001,603.0,,0.07160995,0.0,7.504,,8 / 13,"$GPVTG,,T,,M,0.0,N,0.0,K,A*23::$GPGSV,3,3,12,31,17,050,22,01,06,205,,06,09,309,,14,09,094,*7F::$GPGSA,A,3,03,04,07,09,16,22,23,26,,,,,1.4,1.1,0.9,1*28::$GPRMC,181248.00,A,3602.893816,N,11507.869101,W,0.0,,030220,12.3,E,A*33::$GPGGA,181248.00,3602.893816,N,11507.869101,W,1,08,1.1,621.0,M,-18.0,M,,*5E::$GAGSV,1,1,0,*74::$GLGSV,1,1,0,*79::$GBGSV,1,1,0,*77::$PQGSV,1,1,0,*73",527,2020-02-03 10:12:47:591,0.09844106496734174,-0.1847238084920408,9.486580036410082,-2.5320043219589916e-06,-5.397925403272108e-06,9.806650376357437,0.07466563032040122,-0.16972743610060284,-0.2363004622436718,-0.0728838442584449,0.03584189962300629,-0.12014895372127955
52,0.028717000000000003,0.344574,9.817749000000001,-0.182289,-0.011784000000000001,9.804949,0.193281,0.36338899999999996,0.087996,0.016922,-0.2211,0.079056,392.0,-19.6976,-8.3359,-53.4988,1.9356766055460828,0.0015079644737231008,0.02180090768666117,8.0,937.8892,33.42537,36.04823,-115.13116000000001,603.0,,0.07160995,0.0,7.504,,8 / 13,"$GPVTG,,T,,M,0.0,N,0.0,K,A*23::$GPGSV,3,3,12,31,17,050,22,01,06,205,,06,09,309,,14,09,094,*7F::$GPGSA,A,3,03,04,07,09,16,22,23,26,,,,,1.4,1.1,0.9,1*28::$GPRMC,181248.00,A,3602.893816,N,11507.869101,W,0.0,,030220,12.3,E,A*33::$GPGGA,181248.00,3602.893816,N,11507.869101,W,1,08,1.1,621.0,M,-18.0,M,,*5E::$GAGSV,1,1,0,*74::$GLGSV,1,1,0,*79::$GBGSV,1,1,0,*77::$PQGSV,1,1,0,*73",537,2020-02-03 10:12:47:601,0.2491085837057641,-0.3549782279903545,9.81425935594444,-0.008434430505122222,-0.0304919919604556,9.80659941741205,0.26995565124746673,-0.31201253237079013,0.08321377470781338,0.030097403363284016,-0.04513923970253829,0.050996530209397706
53,0.028717000000000003,0.344574,9.817749000000001,-0.182289,-0.011784000000000001,9.804949,0.193281,0.36338899999999996,0.087996,0.016922,-0.2211,0.079056,392.0,-19.6976,-8.3359,-53.4988,1.9356766055460828,0.0015079644737231008,0.02180090768666117,8.0,937.8892,33.42537,36.04823,-115.13116000000001,603.0,,0.07160995,0.0,7.504,,8 / 13,"$GPVTG,,T,,M,0.0,N,0.0,K,A*23::$GPGSV,3,3,12,31,17,050,22,01,06,205,,06,09,309,,14,09,094,*7F::$GPGSA,A,3,03,04,07,09,16,22,23,26,,,,,1.4,1.1,0.9,1*28::$GPRMC,181248.00,A,3602.893816,N,11507.869101,W,0.0,,030220,12.3,E,A*33::$GPGGA,181248.00,3602.893816,N,11507.869101,W,1,08,1.1,621.0,M,-18.0,M,,*5E::$GAGSV,1,1,0,*74::$GLGSV,1,1,0,*79::$GBGSV,1,1,0,*77::$PQGSV,1,1,0,*73",548,2020-02-03 10:12:47:612,0.2491085837057641,-0.3549782279903545,9.81425935594444,-0.008434430505122222,-0.0304919919604556,9.80659941741205,0.26995565124746673,-0.31201253237079013,0.08321377470781338,0.02785792304557609,-0.03081798638754192,-0.048927238916048235
54,0.0071719999999999996,0.162704,9.779465,-0.149876,-0.009907,9.8055,0.16126400000000002,0.184472,0.09524400000000001,-0.013611000000000002,-0.125809,-0.02356,392.0,-20.4086,-8.3603,-51.2939,1.9356766055460828,0.0015079644737231008,0.02180090768666117,8.0,937.8892,33.42537,36.04823,-115.13116000000001,603.0,,0.07160995,0.0,7.504,,8 / 13,"$GPVTG,,T,,M,0.0,N,0.0,K,A*23::$GPGSV,3,3,12,31,17,050,22,01,06,205,,06,09,309,,14,09,094,*7F::$GPGSA,A,3,03,04,07,09,16,22,23,26,,,,,1.4,1.1,0.9,1*28::$GPRMC,181248.00,A,3602.893816,N,11507.869101,W,0.0,,030220,12.3,E,A*33::$GPGGA,181248.00,3602.893816,N,11507.869101,W,1,08,1.1,621.0,M,-18.0,M,,*5E::$GAGSV,1,1,0,*74::$GLGSV,1,1,0,*79::$GBGSV,1,1,0,*77::$PQGSV,1,1,0,*73",558,2020-02-03 10:12:47:622,0.08713989190153182,-0.26916380650553673,9.776728348477922,-0.0182479139227028,-0.06144517770695268,9.806440879228255,0.1141914566161787,-0.21842320938255352,0.09142772476060296,-0.06012500133547536,0.027187271427448124,-0.07976940839908198
55,0.0071719999999999996,0.162704,9.779465,-0.149876,-0.009907,9.8055,0.16126400000000002,0.184472,0.09524400000000001,-0.06369,0.033005,-0.052872,392.0,-20.4086,-8.3603,-51.2939,1.9356766055460828,0.0015079644737231008,0.02180090768666117,8.0,937.8892,33.42537,36.04823,-115.13116000000001,603.0,,0.07160995,0.0,7.504,,8 / 13,"$GPVTG,,T,,M,0.0,N,0.0,K,A*23::$GPGSV,3,3,12,31,17,050,22,01,06,205,,06,09,309,,14,09,094,*7F::$GPGSA,A,3,03,04,07,09,16,22,23,26,,,,,1.4,1.1,0.9,1*28::$GPRMC,181248.00,A,3602.893816,N,11507.869101,W,0.0,,030220,12.3,E,A*33::$GPGGA,181248.00,3602.893816,N,11507.869101,W,1,08,1.1,621.0,M,-18.0,M,,*5E::$GAGSV,1,1,0,*74::$GLGSV,1,1,0,*79::$GBGSV,1,1,0,*77::$PQGSV,1,1,0,*73",568,2020-02-03 10:12:47:632,0.08713989190153182,-0.26916380650553673,9.776728348477922,-0.0182479139227028,-0.06144517770695268,9.806440879228255,0.1141914566161787,-0.21842320938255352,0.09142772476060296,0.034140872391802815,-0.05282087342030598,-0.06647376469375431
56,-0.16989100000000001,0.04068,9.875183,-0.146814,-0.019127,9.805533,0.001508,0.09905599999999999,0.17843599999999998,-0.052703999999999994,0.08432,-0.035782,392.0,-18.985,-8.3115,-54.9698,1.9565036195101315,0.0010105456369047167,0.015283848259714343,8.0,937.8892,33.42537,36.04823,-115.13116000000001,603.0,,0.07160995,0.0,7.504,,8 / 13,"$GPVTG,,T,,M,0.0,N,0.0,K,A*23::$GPGSV,3,3,12,31,17,050,22,01,06,205,,06,09,309,,14,09,094,*7F::$GPGSA,A,3,03,04,07,09,16,22,23,26,,,,,1.4,1.1,0.9,1*28::$GPRMC,181248.00,A,3602.893816,N,11507.869101,W,0.0,,030220,12.3,E,A*33::$GPGGA,181248.00,3602.893816,N,11507.869101,W,1,08,1.1,621.0,M,-18.0,M,,*5E::$GAGSV,1,1,0,*74::$GLGSV,1,1,0,*79::$GBGSV,1,1,0,*77::$PQGSV,1,1,0,*73",578,2020-02-03 10:12:47:642,0.05406560687458426,-0.0015038091652737062,9.876579962035507,-0.009693476575509431,0.0006292461391033677,9.80664587141675,0.09035297628118802,-0.04125648861745489,0.17829193229108514,0.08779487012371553,0.017175320980012516,0.06577735502209739
57,-0.189026,-0.07896399999999999,9.767502,-0.158176,-0.026808,9.805338,-0.031521,-0.044094,0.100249,-0.052703999999999994,0.08432,-0.035782,392.0,-18.2266,-6.2714,-54.245,1.9565036195101315,0.0010105456369047167,0.015283848259714343,8.0,937.8889999999999,32.54437,36.04823,-115.13116000000001,603.0,,0.07349441,0.0,7.504,,8 / 13,"$GPVTG,,T,,M,0.0,N,0.0,K,A*23::$GPGSV,3,3,12,31,17,050,22,01,06,205,,06,09,309,,14,09,094,*7F::$GPGSA,A,3,03,04,07,09,16,22,23,26,,,,,1.4,1.1,0.9,1*28::$GPRMC,181248.00,A,3602.893816,N,11507.869101,W,0.0,,030220,12.3,E,A*33::$GPGGA,181248.00,3602.893816,N,11507.869101,W,1,08,1.1,621.0,M,-18.0,M,,*5E::$GAGSV,1,1,0,*74::$GLGSV,1,1,0,*79::$GBGSV,1,1,0,*77::$PQGSV,1,1,0,*73",588,2020-02-03 10:12:47:652,-0.049072749838652084,0.06279914775701628,9.769324930323501,-0.012535225031106018,0.014047707736186216,9.806632303707772,-0.029480034564661455,0.04433230622987633,0.1007635373754159,0.003237066922123582,-0.0020693278933339313,0.043104256545460094
58,-0.189026,-0.07896399999999999,9.767502,-0.158176,-0.026808,9.805338,-0.031521,-0.044094,0.100249,-0.047820999999999995,0.097763,-0.002792,397.0,-18.2266,-6.2714,-54.245,1.9565036195101315,0.0010105456369047167,0.015283848259714343,8.0,937.8889999999999,32.54437,36.04823,-115.13116000000001,603.0,,0.07349441,0.0,7.504,,8 / 13,"$GPVTG,,T,,M,0.0,N,0.0,K,A*23::$GPGSV,3,3,12,31,17,050,22,01,06,205,,06,09,309,,14,09,094,*7F::$GPGSA,A,3,03,04,07,09,16,22,23,26,,,,,1.4,1.1,0.9,1*28::$GPRMC,181248.00,A,3602.893816,N,11507.869101,W,0.0,,030220,12.3,E,A*33::$GPGGA,181248.00,3602.893816,N,11507.869101,W,1,08,1.1,621.0,M,-18.0,M,,*5E::$GAGSV,1,1,0,*74::$GLGSV,1,1,0,*79::$GBGSV,1,1,0,*77::$PQGSV,1,1,0,*73",598,2020-02-03 10:12:47:662,-0.049072749838652084,0.06279914775701628,9.769324930323501,-0.012535225031106018,0.014047707736186216,9.806632303707772,-0.029480034564661455,0.04433230622987633,0.1007635373754159,-0.006742754202122106,-0.07109027679922565,0.08865161153656008
59,-0.334991,-0.071777,9.542572,-0.171969,-0.034356,9.805082,-0.12438199999999999,-0.068954,-0.09084400000000001,-0.055145000000000007,0.085526,0.010651,397.0,-18.9835,-8.3252,-52.0294,1.960678447080902,0.003502875808752619,0.01753706832403902,8.0,937.8889999999999,32.54437,36.04823,-115.13116000000001,603.0,,0.07349441,0.0,7.504,,8 / 13,"$GPVTG,,T,,M,0.0,N,0.0,K,A*23::$GPGSV,3,3,12,31,17,050,22,01,06,205,,06,09,309,,14,09,094,*7F::$GPGSA,A,3,03,04,07,09,16,22,23,26,,,,,1.4,1.1,0.9,1*28::$GPRMC,181248.00,A,3602.893816,N,11507.869101,W,0.0,,030220,12.3,E,A*33::$GPGGA,181248.00,3602.893816,N,11507.869101,W,1,08,1.1,621.0,M,-18.0,M,,*5E::$GAGSV,1,1,0,*74::$GLGSV,1,1,0,*79::$GBGSV,1,1,0,*77::$PQGSV,1,1,0,*73",608,2020-02-03 10:12:47:672,0.028227613680412454,0.16959463348017484,9.547171944880569,-9.923796751722114e-06,1.830847034312022e-06,9.806650126231647,-0.01620157311880304,0.1428282775268934,-0.088406790141803,-0.03553983547878205,0.01590316862555728,-0.07655071859513017
