ACCELEROMETER X (m/s²),ACCELEROMETER Y (m/s²),ACCELEROMETER Z (m/s²),GRAVITY X (m/s²),GRAVITY Y (m/s²),GRAVITY Z (m/s²),LINEAR ACCELERATION X (m/s²),LINEAR ACCELERATION Y (m/s²),LINEAR ACCELERATION Z (m/s²),GYROSCOPE X (rad/s),GYROSCOPE Y (rad/s),GYROSCOPE Z (rad/s),LIGHT (lux),MAGNETIC FIELD X (μT),MAGNETIC FIELD Y (μT),MAGNETIC FIELD Z (μT),ORIENTATION Z (azimuth °),ORIENTATION X (pitch °),ORIENTATION Y (roll °),PROXIMITY (m),ATMOSPHERIC PRESSURE (hPa),SOUND LEVEL (dB),LOCATION Latitude : ,LOCATION Longitude : ,LOCATION Altitude ( m),LOCATION Altitude-google ( m),LOCATION Altitude-atmospheric pressure ( m),LOCATION Speed ( m/s),LOCATION Accuracy ( m),LOCATION ORIENTATION (°),Satellites in range,GPS NMEA,Time since start in ms ,YYYY-MO-DD HH-MI-SS_SSS
0.007172,0.04068,9.640686,-0.010433,0.035664,9.80658,6.64E-4,0.010447,0.008819,-0.001587,0.001312,-3.66E-4,3.0,-2.8168,12.9669,-46.9879,19.9344,-0.2081,0.0623,8.0,942.0944,62.92769,36.04825,-115.13112,602.0,NaN,0.014196862,0.0,5.36,,11 / 17,"$GPVTG,,T,,M,0.0,N,0.0,K,A*23::$GPGSV,3,3,09,25,00,000,*47::$GNVTG,,T,,M,0.0,N,0.0,K,A*3D::$GNRMC,032332.00,A,3602.893501,N,11507.866763,W,0.0,,060220,12.3,E,A*2B::$GPRMC,032324.00,A,3602.887751,N,11507.868288,W,0.0,,060220,12.3,E,A*3E::$GPGGA,032324.00,3602.887751,N,11507.868288,W,1,00,1.3,613.0,M,-18.0,M,,*5D::$GNGGA,032332.00,3602.893501,N,11507.866763,W,1,11,1.0,617.0,M,-18.0,M,,*4F::$GNGSA,A,3,73,80,82,83,,,,,,,,,1.3,1.0,0.9,2*35::$GPGSA,A,1,,,,,,,,,,,,,1.6,1.3,1.0,1*29::$GAGSV,1,1,0,*74::$GLGSV,2,2,05,84,18,230,*54::$GBGSV,1,1,0,*77::$PQGSV,1,1,0,*73",16,2020-02-05 19:23:32:323
0.004791,0.045471,9.607178,-0.010481,0.035699,9.806579,6.64E-4,0.010447,0.008819,-3.66E-4,-0.003586,-0.001602,3.0,-2.8656,10.9329,-46.2433,19.9344,-0.2081,0.0623,8.0,942.0944,62.92769,36.04825,-115.13112,602.0,NaN,0.014196862,0.0,5.36,,11 / 17,"$GPVTG,,T,,M,0.0,N,0.0,K,A*23::$GPGSV,3,3,09,25,00,000,*47::$GNVTG,,T,,M,0.0,N,0.0,K,A*3D::$GNRMC,032333.00,A,3602.894842,N,11507.866666,W,0.0,,060220,12.3,E,A*23::$GPRMC,032324.00,A,3602.887751,N,11507.868288,W,0.0,,060220,12.3,E,A*3E::$GPGGA,032324.00,3602.887751,N,11507.868288,W,1,00,1.3,613.0,M,-18.0,M,,*5D::$GNGGA,032333.00,3602.894842,N,11507.866666,W,1,11,1.0,620.0,M,-18.0,M,,*43::$GNGSA,A,3,73,80,82,83,,,,,,,,,1.3,1.0,0.9,2*35::$GPGSA,A,1,,,,,,,,,,,,,1.6,1.3,1.0,1*29::$GAGSV,1,1,0,*74::$GLGSV,2,2,05,84,18,230,*54::$GBGSV,1,1,0,*77::$PQGSV,1,1,0,*73",26,2020-02-05 19:23:32:333
-0.014359,0.035889,9.631119,-0.010622,0.035797,9.80658,-0.0147,-0.001645,-0.002947,-3.66E-4,0.001312,8.39E-4,3.0,-3.5614,11.5982,-46.9818,18.4085,-0.2091,0.0621,8.0,942.0944,62.92769,36.04825,-115.13112,602.0,NaN,0.014196862,0.0,5.36,,11 / 17,"$GPVTG,,T,,M,0.0,N,0.0,K,A*23::$GPGSV,3,3,09,25,00,000,*47::$GNVTG,,T,,M,0.0,N,0.0,K,A*3D::$GNRMC,032333.00,A,3602.894842,N,11507.866666,W,0.0,,060220,12.3,E,A*23::$GPRMC,032324.00,A,3602.887751,N,11507.868288,W,0.0,,060220,12.3,E,A*3E::$GPGGA,032324.00,3602.887751,N,11507.868288,W,1,00,1.3,613.0,M,-18.0,M,,*5D::$GNGGA,032333.00,3602.894842,N,11507.866666,W,1,11,1.0,620.0,M,-18.0,M,,*43::$GNGSA,A,3,73,80,82,83,,,,,,,,,1.3,1.0,0.9,2*35::$GPGSA,A,1,,,,,,,,,,,,,1.6,1.3,1.0,1*29::$GAGSV,1,1,0,*74::$GLGSV,2,2,05,84,18,230,*54::$GBGSV,1,1,0,*77::$PQGSV,1,1,0,*73",35,2020-02-05 19:23:32:342
-0.004791,0.023926,9.623932,-0.010485,0.035421,9.80658,0.005505,-0.006068,-0.00287,-0.002808,-0.002365,-0.001602,3.0,-3.5614,11.5982,-46.9818,18.4085,-0.2091,0.0621,8.0,942.0944,62.92769,36.04825,-115.13112,602.0,NaN,0.014196862,0.0,5.36,,11 / 17,"$GPVTG,,T,,M,0.0,N,0.0,K,A*23::$GPGSV,3,3,09,25,00,000,*47::$GNVTG,,T,,M,0.0,N,0.0,K,A*3D::$GNRMC,032333.00,A,3602.894842,N,11507.866666,W,0.0,,060220,12.3,E,A*23::$GPRMC,032324.00,A,3602.887751,N,11507.868288,W,0.0,,060220,12.3,E,A*3E::$GPGGA,032324.00,3602.887751,N,11507.868288,W,1,00,1.3,613.0,M,-18.0,M,,*5D::$GNGGA,032333.00,3602.894842,N,11507.866666,W,1,11,1.0,620.0,M,-18.0,M,,*43::$GNGSA,A,3,73,80,82,83,,,,,,,,,1.3,1.0,0.9,2*35::$GPGSA,A,1,,,,,,,,,,,,,1.6,1.3,1.0,1*29::$GAGSV,1,1,0,*74::$GLGSV,2,2,05,84,18,230,*54::$GBGSV,1,1,0,*77::$PQGSV,1,1,0,*73",45,2020-02-05 19:23:32:352
0.009567,0.043076,9.633499,-0.010485,0.035421,9.80658,0.005505,-0.006068,-0.00287,-3.66E-4,0.001312,-3.66E-4,3.0,-3.5782,10.9207,-46.9788,18.4085,-0.2091,0.0621,8.0,942.0944,62.92769,36.04825,-115.13112,602.0,NaN,0.014196862,0.0,5.36,,11 / 17,"$GPVTG,,T,,M,0.0,N,0.0,K,A*23::$GPGSV,3,3,09,25,00,000,*47::$GNVTG,,T,,M,0.0,N,0.0,K,A*3D::$GNRMC,032333.00,A,3602.894842,N,11507.866666,W,0.0,,060220,12.3,E,A*23::$GPRMC,032324.00,A,3602.887751,N,11507.868288,W,0.0,,060220,12.3,E,A*3E::$GPGGA,032324.00,3602.887751,N,11507.868288,W,1,00,1.3,613.0,M,-18.0,M,,*5D::$GNGGA,032333.00,3602.894842,N,11507.866666,W,1,11,1.0,620.0,M,-18.0,M,,*43::$GNGSA,A,3,73,80,82,83,,,,,,,,,1.3,1.0,0.9,2*35::$GPGSA,A,1,,,,,,,,,,,,,1.6,1.3,1.0,1*29::$GAGSV,1,1,0,*74::$GLGSV,2,2,05,84,18,230,*54::$GBGSV,1,1,0,*77::$PQGSV,1,1,0,*73",57,2020-02-05 19:23:32:364
0.009567,0.043076,9.633499,-0.01061,0.035191,9.806581,0.010419,-0.002256,0.005535,8.54E-4,7.6E-5,8.39E-4,3.0,-3.5782,10.9207,-46.9788,18.4085,-0.2091,0.0621,8.0,942.0944,62.92769,36.04825,-115.13112,602.0,NaN,0.014196862,0.0,5.36,,11 / 17,"$GPVTG,,T,,M,0.0,N,0.0,K,A*23::$GPGSV,3,3,09,25,00,000,*47::$GNVTG,,T,,M,0.0,N,0.0,K,A*3D::$GNRMC,032333.00,A,3602.894842,N,11507.866666,W,0.0,,060220,12.3,E,A*23::$GPRMC,032324.00,A,3602.887751,N,11507.868288,W,0.0,,060220,12.3,E,A*3E::$GPGGA,032324.00,3602.887751,N,11507.868288,W,1,00,1.3,613.0,M,-18.0,M,,*5D::$GNGGA,032333.00,3602.894842,N,11507.866666,W,1,11,1.0,620.0,M,-18.0,M,,*43::$GNGSA,A,3,73,80,82,83,,,,,,,,,1.3,1.0,0.9,2*35::$GPGSA,A,1,,,,,,,,,,,,,1.6,1.3,1.0,1*29::$GAGSV,1,1,0,*74::$GLGSV,2,2,05,84,18,230,*54::$GBGSV,1,1,0,*77::$PQGSV,1,1,0,*73",66,2020-02-05 19:23:32:373
-0.004791,0.043076,9.626328,-0.010203,0.035542,9.806581,0.005229,0.009377,-0.005339,8.54E-4,7.6E-5,8.39E-4,3.0,-4.2725,11.5753,-45.5139,18.4128,-0.2056,0.062,8.0,942.0944,62.92769,36.04825,-115.13112,602.0,NaN,0.014196862,0.0,5.36,,11 / 17,"$GPVTG,,T,,M,0.0,N,0.0,K,A*23::$GPGSV,3,3,09,25,00,000,*47::$GNVTG,,T,,M,0.0,N,0.0,K,A*3D::$GNRMC,032333.00,A,3602.894842,N,11507.866666,W,0.0,,060220,12.3,E,A*23::$GPRMC,032324.00,A,3602.887751,N,11507.868288,W,0.0,,060220,12.3,E,A*3E::$GPGGA,032324.00,3602.887751,N,11507.868288,W,1,00,1.3,613.0,M,-18.0,M,,*5D::$GNGGA,032333.00,3602.894842,N,11507.866666,W,1,11,1.0,620.0,M,-18.0,M,,*43::$GNGSA,A,3,73,80,82,83,,,,,,,,,1.3,1.0,0.9,2*35::$GPGSA,A,1,,,,,,,,,,,,,1.6,1.3,1.0,1*29::$GAGSV,1,1,0,*74::$GLGSV,2,2,05,84,18,230,*54::$GBGSV,1,1,0,*77::$PQGSV,1,1,0,*73",76,2020-02-05 19:23:32:383
-0.009567,0.04068,9.61676,-0.010201,0.035517,9.80658,4.5E-4,0.002215,-0.008737,-3.66E-4,7.6E-5,8.39E-4,3.0,-4.2725,11.5753,-45.5139,18.4128,-0.2056,0.062,8.0,942.0944,62.92769,36.04825,-115.13112,602.0,NaN,0.014196862,0.0,5.36,,11 / 17,"$GPVTG,,T,,M,0.0,N,0.0,K,A*23::$GPGSV,3,3,09,25,00,000,*47::$GNVTG,,T,,M,0.0,N,0.0,K,A*3D::$GNRMC,032333.00,A,3602.894842,N,11507.866666,W,0.0,,060220,12.3,E,A*23::$GPRMC,032324.00,A,3602.887751,N,11507.868288,W,0.0,,060220,12.3,E,A*3E::$GPGGA,032324.00,3602.887751,N,11507.868288,W,1,00,1.3,613.0,M,-18.0,M,,*5D::$GNGGA,032333.00,3602.894842,N,11507.866666,W,1,11,1.0,620.0,M,-18.0,M,,*43::$GNGSA,A,3,73,80,82,83,,,,,,,,,1.3,1.0,0.9,2*35::$GPGSA,A,1,,,,,,,,,,,,,1.6,1.3,1.0,1*29::$GAGSV,1,1,0,*74::$GLGSV,2,2,05,84,18,230,*54::$GBGSV,1,1,0,*77::$PQGSV,1,1,0,*73",85,2020-02-05 19:23:32:392
-0.009567,0.04068,9.61676,-0.010201,0.035517,9.80658,4.5E-4,0.002215,-0.008737,-3.66E-4,7.6E-5,8.39E-4,3.0,-3.5461,12.2696,-46.2524,18.4128,-0.2056,0.062,8.0,942.0944,62.92769,36.04825,-115.13112,602.0,NaN,0.014196862,0.0,5.36,,11 / 17,"$GPVTG,,T,,M,0.0,N,0.0,K,A*23::$GPGSV,3,3,09,25,00,000,*47::$GNVTG,,T,,M,0.0,N,0.0,K,A*3D::$GNRMC,032333.00,A,3602.894842,N,11507.866666,W,0.0,,060220,12.3,E,A*23::$GPRMC,032324.00,A,3602.887751,N,11507.868288,W,0.0,,060220,12.3,E,A*3E::$GPGGA,032324.00,3602.887751,N,11507.868288,W,1,00,1.3,613.0,M,-18.0,M,,*5D::$GNGGA,032333.00,3602.894842,N,11507.866666,W,1,11,1.0,620.0,M,-18.0,M,,*43::$GNGSA,A,3,73,80,82,83,,,,,,,,,1.3,1.0,0.9,2*35::$GPGSA,A,1,,,,,,,,,,,,,1.6,1.3,1.0,1*29::$GAGSV,1,1,0,*74::$GLGSV,2,2,05,84,18,230,*54::$GBGSV,1,1,0,*77::$PQGSV,1,1,0,*73",95,2020-02-05 19:23:32:402
-0.02153,0.016754,9.623932,-0.010358,0.035397,9.806581,-0.007772,-0.004853,-0.005072,8.54E-4,0.001312,-0.001602,3.0,-3.5461,12.2696,-46.2524,18.4128,-0.2056,0.062,8.0,942.0944,37.6857,36.04825,-115.13112,602.0,NaN,0.014196862,0.0,5.36,,11 / 17,"$GPVTG,,T,,M,0.0,N,0.0,K,A*23::$GPGSV,3,3,09,25,00,000,*47::$GNVTG,,T,,M,0.0,N,0.0,K,A*3D::$GNRMC,032333.00,A,3602.894842,N,11507.866666,W,0.0,,060220,12.3,E,A*23::$GPRMC,032324.00,A,3602.887751,N,11507.868288,W,0.0,,060220,12.3,E,A*3E::$GPGGA,032324.00,3602.887751,N,11507.868288,W,1,00,1.3,613.0,M,-18.0,M,,*5D::$GNGGA,032333.00,3602.894842,N,11507.866666,W,1,11,1.0,620.0,M,-18.0,M,,*43::$GNGSA,A,3,73,80,82,83,,,,,,,,,1.3,1.0,0.9,2*35::$GPGSA,A,1,,,,,,,,,,,,,1.6,1.3,1.0,1*29::$GAGSV,1,1,0,*74::$GLGSV,2,2,05,84,18,230,*54::$GBGSV,1,1,0,*77::$PQGSV,1,1,0,*73",105,2020-02-05 19:23:32:412
-0.004791,0.028717,9.645462,-0.010326,0.03529,9.806581,0.006539,4.3E-5,0.019793,-0.001587,0.003754,8.39E-4,3.0,-2.8336,12.2803,-44.7815,14.0669,-0.2062,0.0603,8.0,942.0944,37.6857,36.04825,-115.13112,602.0,NaN,0.014196862,0.0,5.36,,11 / 17,"$GPVTG,,T,,M,0.0,N,0.0,K,A*23::$GPGSV,3,3,09,25,00,000,*47::$GNVTG,,T,,M,0.0,N,0.0,K,A*3D::$GNRMC,032333.00,A,3602.894842,N,11507.866666,W,0.0,,060220,12.3,E,A*23::$GPRMC,032324.00,A,3602.887751,N,11507.868288,W,0.0,,060220,12.3,E,A*3E::$GPGGA,032324.00,3602.887751,N,11507.868288,W,1,00,1.3,613.0,M,-18.0,M,,*5D::$GNGGA,032333.00,3602.894842,N,11507.866666,W,1,11,1.0,620.0,M,-18.0,M,,*43::$GNGSA,A,3,73,80,82,83,,,,,,,,,1.3,1.0,0.9,2*35::$GPGSA,A,1,,,,,,,,,,,,,1.6,1.3,1.0,1*29::$GAGSV,1,1,0,*74::$GLGSV,2,2,05,84,18,230,*54::$GBGSV,1,1,0,*77::$PQGSV,1,1,0,*73",115,2020-02-05 19:23:32:422
-0.004791,0.028717,9.645462,-0.010326,0.03529,9.806581,0.006539,4.3E-5,0.019793,-3.66E-4,0.001312,8.39E-4,3.0,-2.8336,12.2803,-44.7815,14.0669,-0.2062,0.0603,8.0,942.0944,37.6857,36.04825,-115.13112,602.0,NaN,0.014196862,0.0,5.36,,11 / 17,"$GPVTG,,T,,M,0.0,N,0.0,K,A*23::$GPGSV,3,3,09,25,00,000,*47::$GNVTG,,T,,M,0.0,N,0.0,K,A*3D::$GNRMC,032333.00,A,3602.894842,N,11507.866666,W,0.0,,060220,12.3,E,A*23::$GPRMC,032324.00,A,3602.887751,N,11507.868288,W,0.0,,060220,12.3,E,A*3E::$GPGGA,032324.00,3602.887751,N,11507.868288,W,1,00,1.3,613.0,M,-18.0,M,,*5D::$GNGGA,032333.00,3602.894842,N,11507.866666,W,1,11,1.0,620.0,M,-18.0,M,,*43::$GNGSA,A,3,73,80,82,83,,,,,,,,,1.3,1.0,0.9,2*35::$GPGSA,A,1,,,,,,,,,,,,,1.6,1.3,1.0,1*29::$GAGSV,1,1,0,*74::$GLGSV,2,2,05,84,18,230,*54::$GBGSV,1,1,0,*77::$PQGSV,1,1,0,*73",125,2020-02-05 19:23:32:432
-0.004791,0.04068,9.640686,-0.010539,0.035019,9.806582,-4.23E-4,-0.002088,0.010134,0.002075,0.001312,-3.66E-4,3.0,-3.5782,10.9161,-46.2448,14.0669,-0.2062,0.0603,8.0,942.0966,37.6857,36.04825,-115.13112,602.0,NaN,-0.0042590634,0.0,5.36,,11 / 17,"$GPVTG,,T,,M,0.0,N,0.0,K,A*23::$GPGSV,3,3,09,25,00,000,*47::$GNVTG,,T,,M,0.0,N,0.0,K,A*3D::$GNRMC,032333.00,A,3602.894842,N,11507.866666,W,0.0,,060220,12.3,E,A*23::$GPRMC,032324.00,A,3602.887751,N,11507.868288,W,0.0,,060220,12.3,E,A*3E::$GPGGA,032324.00,3602.887751,N,11507.868288,W,1,00,1.3,613.0,M,-18.0,M,,*5D::$GNGGA,032333.00,3602.894842,N,11507.866666,W,1,11,1.0,620.0,M,-18.0,M,,*43::$GNGSA,A,3,73,80,82,83,,,,,,,,,1.3,1.0,0.9,2*35::$GPGSA,A,1,,,,,,,,,,,,,1.6,1.3,1.0,1*29::$GAGSV,1,1,0,*74::$GLGSV,2,2,05,84,18,230,*54::$GBGSV,1,1,0,*77::$PQGSV,1,1,0,*73",135,2020-02-05 19:23:32:442
-0.023926,0.028717,9.61676,-0.010539,0.035019,9.806582,-4.23E-4,-0.002088,0.010134,-3.66E-4,-0.001144,-0.001602,3.0,-3.5782,10.9161,-46.2448,14.0669,-0.2062,0.0603,8.0,942.0966,37.6857,36.04825,-115.13112,602.0,NaN,-0.0042590634,0.0,5.36,,11 / 17,"$GPVTG,,T,,M,0.0,N,0.0,K,A*23::$GPGSV,3,3,09,25,00,000,*47::$GNVTG,,T,,M,0.0,N,0.0,K,A*3D::$GNRMC,032333.00,A,3602.894842,N,11507.866666,W,0.0,,060220,12.3,E,A*23::$GPRMC,032324.00,A,3602.887751,N,11507.868288,W,0.0,,060220,12.3,E,A*3E::$GPGGA,032324.00,3602.887751,N,11507.868288,W,1,00,1.3,613.0,M,-18.0,M,,*5D::$GNGGA,032333.00,3602.894842,N,11507.866666,W,1,11,1.0,620.0,M,-18.0,M,,*43::$GNGSA,A,3,73,80,82,83,,,,,,,,,1.3,1.0,0.9,2*35::$GPGSA,A,1,,,,,,,,,,,,,1.6,1.3,1.0,1*29::$GAGSV,1,1,0,*74::$GLGSV,2,2,05,84,18,230,*54::$GBGSV,1,1,0,*77::$PQGSV,1,1,0,*73",146,2020-02-05 19:23:32:453
-0.023926,0.028717,9.61676,-0.01058,0.034706,9.806582,-0.017137,-0.010157,-4.44E-4,-3.66E-4,-0.001144,-0.001602,4.0,-2.1851,9.5901,-44.7662,11.4005,-0.2028,0.0618,8.0,942.0966,37.6857,36.04825,-115.13112,602.0,NaN,-0.0042590634,0.0,5.36,,11 / 17,"$GPVTG,,T,,M,0.0,N,0.0,K,A*23::$GPGSV,3,3,09,25,00,000,*47::$GNVTG,,T,,M,0.0,N,0.0,K,A*3D::$GNRMC,032333.00,A,3602.894842,N,11507.866666,W,0.0,,060220,12.3,E,A*23::$GPRMC,032324.00,A,3602.887751,N,11507.868288,W,0.0,,060220,12.3,E,A*3E::$GPGGA,032324.00,3602.887751,N,11507.868288,W,1,00,1.3,613.0,M,-18.0,M,,*5D::$GNGGA,032333.00,3602.894842,N,11507.866666,W,1,11,1.0,620.0,M,-18.0,M,,*43::$GNGSA,A,3,73,80,82,83,,,,,,,,,1.3,1.0,0.9,2*35::$GPGSA,A,1,,,,,,,,,,,,,1.6,1.3,1.0,1*29::$GAGSV,1,1,0,*74::$GLGSV,2,2,05,84,18,230,*54::$GBGSV,1,1,0,*77::$PQGSV,1,1,0,*73",155,2020-02-05 19:23:32:462
-0.023926,0.01915,9.623932,-0.01058,0.034706,9.806582,-0.017137,-0.010157,-4.44E-4,-0.001587,0.002518,-3.66E-4,4.0,-2.1851,9.5901,-44.7662,11.4005,-0.2028,0.0618,8.0,942.0966,37.6857,36.04825,-115.13112,602.0,NaN,-0.0042590634,0.0,5.36,,11 / 17,"$GPVTG,,T,,M,0.0,N,0.0,K,A*23::$GPGSV,3,3,09,25,00,000,*47::$GNVTG,,T,,M,0.0,N,0.0,K,A*3D::$GNRMC,032333.00,A,3602.894842,N,11507.866666,W,0.0,,060220,12.3,E,A*23::$GPRMC,032324.00,A,3602.887751,N,11507.868288,W,0.0,,060220,12.3,E,A*3E::$GPGGA,032324.00,3602.887751,N,11507.868288,W,1,00,1.3,613.0,M,-18.0,M,,*5D::$GNGGA,032333.00,3602.894842,N,11507.866666,W,1,11,1.0,620.0,M,-18.0,M,,*43::$GNGSA,A,3,73,80,82,83,,,,,,,,,1.3,1.0,0.9,2*35::$GPGSA,A,1,,,,,,,,,,,,,1.6,1.3,1.0,1*29::$GAGSV,1,1,0,*74::$GLGSV,2,2,05,84,18,230,*54::$GBGSV,1,1,0,*77::$PQGSV,1,1,0,*73",165,2020-02-05 19:23:32:472
-0.004791,0.045471,9.643082,-0.010977,0.034448,9.806583,0.003592,-0.002715,-0.005047,8.54E-4,7.6E-5,-3.66E-4,4.0,-4.2404,12.9349,-46.9894,11.4005,-0.2028,0.0618,8.0,942.0966,37.6857,36.04825,-115.13112,602.0,NaN,-0.0042590634,0.0,5.36,,11 / 17,"$GPVTG,,T,,M,0.0,N,0.0,K,A*23::$GPGSV,3,3,09,25,00,000,*47::$GNVTG,,T,,M,0.0,N,0.0,K,A*3D::$GNRMC,032333.00,A,3602.894842,N,11507.866666,W,0.0,,060220,12.3,E,A*23::$GPRMC,032324.00,A,3602.887751,N,11507.868288,W,0.0,,060220,12.3,E,A*3E::$GPGGA,032324.00,3602.887751,N,11507.868288,W,1,00,1.3,613.0,M,-18.0,M,,*5D::$GNGGA,032333.00,3602.894842,N,11507.866666,W,1,11,1.0,620.0,M,-18.0,M,,*43::$GNGSA,A,3,73,80,82,83,,,,,,,,,1.3,1.0,0.9,2*35::$GPGSA,A,1,,,,,,,,,,,,,1.6,1.3,1.0,1*29::$GAGSV,1,1,0,*74::$GLGSV,2,2,05,84,18,230,*54::$GBGSV,1,1,0,*77::$PQGSV,1,1,0,*73",176,2020-02-05 19:23:32:483
-0.004791,0.055038,9.635895,-0.010711,0.034942,9.806582,0.003592,-0.002715,-0.005047,8.54E-4,0.002518,-3.66E-4,4.0,-4.2404,12.9349,-46.9894,11.4005,-0.2028,0.0618,8.0,942.0966,37.6857,36.04825,-115.13112,602.0,NaN,-0.0042590634,0.0,5.36,,11 / 17,"$GPVTG,,T,,M,0.0,N,0.0,K,A*23::$GPGSV,3,3,09,25,00,000,*47::$GNVTG,,T,,M,0.0,N,0.0,K,A*3D::$GNRMC,032333.00,A,3602.894842,N,11507.866666,W,0.0,,060220,12.3,E,A*23::$GPRMC,032324.00,A,3602.887751,N,11507.868288,W,0.0,,060220,12.3,E,A*3E::$GPGGA,032324.00,3602.887751,N,11507.868288,W,1,00,1.3,613.0,M,-18.0,M,,*5D::$GNGGA,032333.00,3602.894842,N,11507.866666,W,1,11,1.0,620.0,M,-18.0,M,,*43::$GNGSA,A,3,73,80,82,83,,,,,,,,,1.3,1.0,0.9,2*35::$GPGSA,A,1,,,,,,,,,,,,,1.6,1.3,1.0,1*29::$GAGSV,1,1,0,*74::$GLGSV,2,2,05,84,18,230,*54::$GBGSV,1,1,0,*77::$PQGSV,1,1,0,*73",186,2020-02-05 19:23:32:493
-0.004791,0.055038,9.635895,-0.010771,0.03507,9.806581,-0.005026,0.003857,-0.010015,8.54E-4,0.001312,-3.66E-4,4.0,-4.2404,12.9349,-46.9894,11.4005,-0.2028,0.0618,8.0,942.0966,37.6857,36.04825,-115.13112,602.0,NaN,-0.0042590634,0.0,5.36,,11 / 17,"$GPVTG,,T,,M,0.0,N,0.0,K,A*23::$GPGSV,3,3,09,25,00,000,*47::$GNVTG,,T,,M,0.0,N,0.0,K,A*3D::$GNRMC,032333.00,A,3602.894842,N,11507.866666,W,0.0,,060220,12.3,E,A*23::$GPRMC,032324.00,A,3602.887751,N,11507.868288,W,0.0,,060220,12.3,E,A*3E::$GPGGA,032324.00,3602.887751,N,11507.868288,W,1,00,1.3,613.0,M,-18.0,M,,*5D::$GNGGA,032333.00,3602.894842,N,11507.866666,W,1,11,1.0,620.0,M,-18.0,M,,*43::$GNGSA,A,3,73,80,82,83,,,,,,,,,1.3,1.0,0.9,2*35::$GPGSA,A,1,,,,,,,,,,,,,1.6,1.3,1.0,1*29::$GAGSV,1,1,0,*74::$GLGSV,2,2,05,84,18,230,*54::$GBGSV,1,1,0,*77::$PQGSV,1,1,0,*73",199,2020-02-05 19:23:32:506
-0.016754,0.038284,9.61676,-0.010771,0.03507,9.806581,-0.005026,0.003857,-0.010015,8.54E-4,7.6E-5,-3.66E-4,4.0,-4.2725,11.5784,-46.2479,18.4168,-0.2049,0.0629,8.0,942.0966,37.6857,36.04825,-115.13112,602.0,NaN,-0.0042590634,0.0,5.36,,11 / 17,"$GPVTG,,T,,M,0.0,N,0.0,K,A*23::$GPGSV,3,3,09,25,00,000,*47::$GNVTG,,T,,M,0.0,N,0.0,K,A*3D::$GNRMC,032333.00,A,3602.894842,N,11507.866666,W,0.0,,060220,12.3,E,A*23::$GPRMC,032324.00,A,3602.887751,N,11507.868288,W,0.0,,060220,12.3,E,A*3E::$GPGGA,032324.00,3602.887751,N,11507.868288,W,1,00,1.3,613.0,M,-18.0,M,,*5D::$GNGGA,032333.00,3602.894842,N,11507.866666,W,1,11,1.0,620.0,M,-18.0,M,,*43::$GNGSA,A,3,73,80,82,83,,,,,,,,,1.3,1.0,0.9,2*35::$GPGSA,A,1,,,,,,,,,,,,,1.6,1.3,1.0,1*29::$GAGSV,1,1,0,*74::$GLGSV,2,2,05,84,18,230,*54::$GBGSV,1,1,0,*77::$PQGSV,1,1,0,*73",206,2020-02-05 19:23:32:513
-0.002396,0.033493,9.619141,-0.010891,0.035056,9.806581,-0.003713,-8.65E-4,-0.002758,8.54E-4,-0.002365,-3.66E-4,4.0,-2.8976,9.581,-46.2357,18.4168,-0.2049,0.0629,8.0,942.0966,37.6857,36.04825,-115.13112,602.0,NaN,-0.0042590634,0.0,5.36,,11 / 17,"$GPVTG,,T,,M,0.0,N,0.0,K,A*23::$GPGSV,3,3,09,25,00,000,*47::$GNVTG,,T,,M,0.0,N,0.0,K,A*3D::$GNRMC,032333.00,A,3602.894842,N,11507.866666,W,0.0,,060220,12.3,E,A*23::$GPRMC,032324.00,A,3602.887751,N,11507.868288,W,0.0,,060220,12.3,E,A*3E::$GPGGA,032324.00,3602.887751,N,11507.868288,W,1,00,1.3,613.0,M,-18.0,M,,*5D::$GNGGA,032333.00,3602.894842,N,11507.866666,W,1,11,1.0,620.0,M,-18.0,M,,*43::$GNGSA,A,3,73,80,82,83,,,,,,,,,1.3,1.0,0.9,2*35::$GPGSA,A,1,,,,,,,,,,,,,1.6,1.3,1.0,1*29::$GAGSV,1,1,0,*74::$GLGSV,2,2,05,84,18,230,*54::$GBGSV,1,1,0,*77::$PQGSV,1,1,0,*73",216,2020-02-05 19:23:32:523
-0.002396,0.033493,9.619141,-0.01078,0.034776,9.806583,-0.003713,-8.65E-4,-0.002758,8.54E-4,-0.002365,-3.66E-4,4.0,-2.8976,9.581,-46.2357,18.4168,-0.2049,0.0629,8.0,942.0966,37.6857,36.04825,-115.13112,602.0,NaN,-0.0042590634,0.0,5.36,,11 / 17,"$GPVTG,,T,,M,0.0,N,0.0,K,A*23::$GPGSV,3,3,09,25,00,000,*47::$GNVTG,,T,,M,0.0,N,0.0,K,A*3D::$GNRMC,032333.00,A,3602.894842,N,11507.866666,W,0.0,,060220,12.3,E,A*23::$GPRMC,032324.00,A,3602.887751,N,11507.868288,W,0.0,,060220,12.3,E,A*3E::$GPGGA,032324.00,3602.887751,N,11507.868288,W,1,00,1.3,613.0,M,-18.0,M,,*5D::$GNGGA,032333.00,3602.894842,N,11507.866666,W,1,11,1.0,620.0,M,-18.0,M,,*43::$GNGSA,A,3,73,80,82,83,,,,,,,,,1.3,1.0,0.9,2*35::$GPGSA,A,1,,,,,,,,,,,,,1.6,1.3,1.0,1*29::$GAGSV,1,1,0,*74::$GLGSV,2,2,05,84,18,230,*54::$GBGSV,1,1,0,*77::$PQGSV,1,1,0,*73",225,2020-02-05 19:23:32:532
-0.009567,0.02153,9.633499,-0.010801,0.034498,9.806583,-0.002561,-0.014728,-3.66E-4,8.54E-4,-0.002365,8.39E-4,4.0,-2.8336,12.2864,-46.2509,18.4168,-0.2049,0.0629,8.0,942.0966,37.6857,36.04825,-115.13112,602.0,NaN,-0.0042590634,0.0,5.36,,11 / 17,"$GPVTG,,T,,M,0.0,N,0.0,K,A*23::$GPGSV,3,3,09,25,00,000,*47::$GNVTG,,T,,M,0.0,N,0.0,K,A*3D::$GNRMC,032333.00,A,3602.894842,N,11507.866666,W,0.0,,060220,12.3,E,A*23::$GPRMC,032324.00,A,3602.887751,N,11507.868288,W,0.0,,060220,12.3,E,A*3E::$GPGGA,032324.00,3602.887751,N,11507.868288,W,1,00,1.3,613.0,M,-18.0,M,,*5D::$GNGGA,032333.00,3602.894842,N,11507.866666,W,1,11,1.0,620.0,M,-18.0,M,,*43::$GNGSA,A,3,73,80,82,83,,,,,,,,,1.3,1.0,0.9,2*35::$GPGSA,A,1,,,,,,,,,,,,,1.6,1.3,1.0,1*29::$GAGSV,1,1,0,*74::$GLGSV,2,2,05,84,18,230,*54::$GBGSV,1,1,0,*77::$PQGSV,1,1,0,*73",235,2020-02-05 19:23:32:542
-0.009567,0.02153,9.633499,-0.010801,0.034498,9.806583,-0.002561,-0.014728,-3.66E-4,0.002075,-0.001144,-3.66E-4,4.0,-2.8336,12.2864,-46.2509,18.4168,-0.2049,0.0629,8.0,942.0966,37.6857,36.04825,-115.13112,602.0,NaN,-0.0042590634,0.0,5.36,,11 / 17,"$GPVTG,,T,,M,0.0,N,0.0,K,A*23::$GPGSV,3,3,09,25,00,000,*47::$GNVTG,,T,,M,0.0,N,0.0,K,A*3D::$GNRMC,032333.00,A,3602.894842,N,11507.866666,W,0.0,,060220,12.3,E,A*23::$GPRMC,032324.00,A,3602.887751,N,11507.868288,W,0.0,,060220,12.3,E,A*3E::$GPGGA,032324.00,3602.887751,N,11507.868288,W,1,00,1.3,613.0,M,-18.0,M,,*5D::$GNGGA,032333.00,3602.894842,N,11507.866666,W,1,11,1.0,620.0,M,-18.0,M,,*43::$GNGSA,A,3,73,80,82,83,,,,,,,,,1.3,1.0,0.9,2*35::$GPGSA,A,1,,,,,,,,,,,,,1.6,1.3,1.0,1*29::$GAGSV,1,1,0,*74::$GLGSV,2,2,05,84,18,230,*54::$GBGSV,1,1,0,*77::$PQGSV,1,1,0,*73",245,2020-02-05 19:23:32:552
-0.009567,0.055038,9.626328,-0.010897,0.034442,9.806584,-0.004848,0.010443,0.004384,-0.001587,-0.001144,8.39E-4,4.0,-3.5934,10.2448,-46.9757,21.7345,-0.2012,0.0637,8.0,942.0966,37.6857,36.04825,-115.13112,602.0,NaN,-0.0042590634,0.0,5.36,,11 / 17,"$GPVTG,,T,,M,0.0,N,0.0,K,A*23::$GPGSV,3,3,09,25,00,000,*47::$GNVTG,,T,,M,0.0,N,0.0,K,A*3D::$GNRMC,032333.00,A,3602.894842,N,11507.866666,W,0.0,,060220,12.3,E,A*23::$GPRMC,032324.00,A,3602.887751,N,11507.868288,W,0.0,,060220,12.3,E,A*3E::$GPGGA,032324.00,3602.887751,N,11507.868288,W,1,00,1.3,613.0,M,-18.0,M,,*5D::$GNGGA,032333.00,3602.894842,N,11507.866666,W,1,11,1.0,620.0,M,-18.0,M,,*43::$GNGSA,A,3,73,80,82,83,,,,,,,,,1.3,1.0,0.9,2*35::$GPGSA,A,1,,,,,,,,,,,,,1.6,1.3,1.0,1*29::$GAGSV,1,1,0,*74::$GLGSV,2,2,05,84,18,230,*54::$GBGSV,1,1,0,*77::$PQGSV,1,1,0,*73",255,2020-02-05 19:23:32:562
-0.009567,0.055038,9.626328,-0.010897,0.034442,9.806584,-0.004848,0.010443,0.004384,-0.001587,7.6E-5,-3.66E-4,4.0,-3.5934,10.2448,-46.9757,21.7345,-0.2012,0.0637,8.0,942.0966,37.6857,36.04825,-115.13112,602.0,NaN,-0.0042590634,0.0,5.36,,11 / 17,"$GPVTG,,T,,M,0.0,N,0.0,K,A*23::$GPGSV,3,3,09,25,00,000,*47::$GNVTG,,T,,M,0.0,N,0.0,K,A*3D::$GNRMC,032333.00,A,3602.894842,N,11507.866666,W,0.0,,060220,12.3,E,A*23::$GPRMC,032324.00,A,3602.887751,N,11507.868288,W,0.0,,060220,12.3,E,A*3E::$GPGGA,032324.00,3602.887751,N,11507.868288,W,1,00,1.3,613.0,M,-18.0,M,,*5D::$GNGGA,032333.00,3602.894842,N,11507.866666,W,1,11,1.0,620.0,M,-18.0,M,,*43::$GNGSA,A,3,73,80,82,83,,,,,,,,,1.3,1.0,0.9,2*35::$GPGSA,A,1,,,,,,,,,,,,,1.6,1.3,1.0,1*29::$GAGSV,1,1,0,*74::$GLGSV,2,2,05,84,18,230,*54::$GBGSV,1,1,0,*77::$PQGSV,1,1,0,*73",265,2020-02-05 19:23:32:572
-0.023926,0.031113,9.626328,-0.010698,0.034424,9.806584,-0.01223,-0.005089,0.005429,-3.66E-4,7.6E-5,-0.001602,4.0,-2.8656,10.9329,-46.2433,21.7345,-0.2012,0.0637,8.0,942.0966,37.6857,36.04825,-115.13112,602.0,NaN,-0.0042590634,0.0,5.36,,11 / 17,"$GPVTG,,T,,M,0.0,N,0.0,K,A*23::$GPGSV,3,3,09,25,00,000,*47::$GNVTG,,T,,M,0.0,N,0.0,K,A*3D::$GNRMC,032333.00,A,3602.894842,N,11507.866666,W,0.0,,060220,12.3,E,A*23::$GPRMC,032324.00,A,3602.887751,N,11507.868288,W,0.0,,060220,12.3,E,A*3E::$GPGGA,032324.00,3602.887751,N,11507.868288,W,1,00,1.3,613.0,M,-18.0,M,,*5D::$GNGGA,032333.00,3602.894842,N,11507.866666,W,1,11,1.0,620.0,M,-18.0,M,,*43::$GNGSA,A,3,73,80,82,83,,,,,,,,,1.3,1.0,0.9,2*35::$GPGSA,A,1,,,,,,,,,,,,,1.6,1.3,1.0,1*29::$GAGSV,1,1,0,*74::$GLGSV,2,2,05,84,18,230,*54::$GBGSV,1,1,0,*77::$PQGSV,1,1,0,*73",276,2020-02-05 19:23:32:583
-0.007172,0.038284,9.628723,-0.010781,0.034402,9.806584,0.001005,-0.011048,0.003043,-3.66E-4,0.001312,8.39E-4,4.0,-2.8656,10.9329,-46.2433,21.7345,-0.2012,0.0637,8.0,942.0966,37.6857,36.04825,-115.13112,602.0,NaN,-0.0042590634,0.0,5.36,,11 / 17,"$GPVTG,,T,,M,0.0,N,0.0,K,A*23::$GPGSV,3,3,09,25,00,000,*47::$GNVTG,,T,,M,0.0,N,0.0,K,A*3D::$GNRMC,032333.00,A,3602.894842,N,11507.866666,W,0.0,,060220,12.3,E,A*23::$GPRMC,032324.00,A,3602.887751,N,11507.868288,W,0.0,,060220,12.3,E,A*3E::$GPGGA,032324.00,3602.887751,N,11507.868288,W,1,00,1.3,613.0,M,-18.0,M,,*5D::$GNGGA,032333.00,3602.894842,N,11507.866666,W,1,11,1.0,620.0,M,-18.0,M,,*43::$GNGSA,A,3,73,80,82,83,,,,,,,,,1.3,1.0,0.9,2*35::$GPGSA,A,1,,,,,,,,,,,,,1.6,1.3,1.0,1*29::$GAGSV,1,1,0,*74::$GLGSV,2,2,05,84,18,230,*54::$GBGSV,1,1,0,*77::$PQGSV,1,1,0,*73",286,2020-02-05 19:23:32:593
-0.007172,0.038284,9.628723,-0.010781,0.034402,9.806584,0.001005,-0.011048,0.003043,-3.66E-4,-0.001144,8.39E-4,4.0,-2.8488,11.6104,-46.2463,14.0817,-0.201,0.063,8.0,942.0977,37.6857,36.04825,-115.13112,602.0,NaN,-0.013250427,0.0,5.36,,11 / 17,"$GPVTG,,T,,M,0.0,N,0.0,K,A*23::$GPGSV,3,3,09,25,00,000,*47::$GNVTG,,T,,M,0.0,N,0.0,K,A*3D::$GNRMC,032333.00,A,3602.894842,N,11507.866666,W,0.0,,060220,12.3,E,A*23::$GPRMC,032324.00,A,3602.887751,N,11507.868288,W,0.0,,060220,12.3,E,A*3E::$GPGGA,032324.00,3602.887751,N,11507.868288,W,1,00,1.3,613.0,M,-18.0,M,,*5D::$GNGGA,032333.00,3602.894842,N,11507.866666,W,1,11,1.0,620.0,M,-18.0,M,,*43::$GNGSA,A,3,73,80,82,83,,,,,,,,,1.3,1.0,0.9,2*35::$GPGSA,A,1,,,,,,,,,,,,,1.6,1.3,1.0,1*29::$GAGSV,1,1,0,*74::$GLGSV,2,2,05,84,18,230,*54::$GBGSV,1,1,0,*77::$PQGSV,1,1,0,*73",295,2020-02-05 19:23:32:602
0.007172,0.043076,9.652649,-0.010379,0.034568,9.806583,0.01148,0.012705,0.012288,-3.66E-4,0.002518,-0.002808,4.0,-2.8488,11.6104,-46.2463,14.0817,-0.201,0.063,8.0,942.0977,37.6857,36.04825,-115.13112,602.0,NaN,-0.013250427,0.0,5.36,,11 / 17,"$GPVTG,,T,,M,0.0,N,0.0,K,A*23::$GPGSV,3,3,09,25,00,000,*47::$GNVTG,,T,,M,0.0,N,0.0,K,A*3D::$GNRMC,032333.00,A,3602.894842,N,11507.866666,W,0.0,,060220,12.3,E,A*23::$GPRMC,032324.00,A,3602.887751,N,11507.868288,W,0.0,,060220,12.3,E,A*3E::$GPGGA,032324.00,3602.887751,N,11507.868288,W,1,00,1.3,613.0,M,-18.0,M,,*5D::$GNGGA,032333.00,3602.894842,N,11507.866666,W,1,11,1.0,620.0,M,-18.0,M,,*43::$GNGSA,A,3,73,80,82,83,,,,,,,,,1.3,1.0,0.9,2*35::$GPGSA,A,1,,,,,,,,,,,,,1.6,1.3,1.0,1*29::$GAGSV,1,1,0,*74::$GLGSV,2,2,05,84,18,230,*54::$GBGSV,1,1,0,*77::$PQGSV,1,1,0,*73",305,2020-02-05 19:23:32:612
0.007172,0.043076,9.652649,-0.010379,0.034568,9.806583,-0.007729,5.3E-4,-0.004541,-3.66E-4,0.002518,-0.002808,4.0,-2.8976,9.581,-46.2357,14.0817,-0.201,0.063,8.0,942.0977,37.6857,36.04825,-115.13112,602.0,NaN,-0.013250427,0.0,5.36,,11 / 17,"$GPVTG,,T,,M,0.0,N,0.0,K,A*23::$GPGSV,3,3,09,25,00,000,*47::$GNVTG,,T,,M,0.0,N,0.0,K,A*3D::$GNRMC,032333.00,A,3602.894842,N,11507.866666,W,0.0,,060220,12.3,E,A*23::$GPRMC,032324.00,A,3602.887751,N,11507.868288,W,0.0,,060220,12.3,E,A*3E::$GPGGA,032324.00,3602.887751,N,11507.868288,W,1,00,1.3,613.0,M,-18.0,M,,*5D::$GNGGA,032333.00,3602.894842,N,11507.866666,W,1,11,1.0,620.0,M,-18.0,M,,*43::$GNGSA,A,3,73,80,82,83,,,,,,,,,1.3,1.0,0.9,2*35::$GPGSA,A,1,,,,,,,,,,,,,1.6,1.3,1.0,1*29::$GAGSV,1,1,0,*74::$GLGSV,2,2,05,84,18,230,*54::$GBGSV,1,1,0,*77::$PQGSV,1,1,0,*73",316,2020-02-05 19:23:32:623
-0.004791,0.045471,9.61676,-0.010506,0.034838,9.806583,-0.001595,0.007648,-0.007955,-3.66E-4,0.001312,-3.66E-4,4.0,-2.8976,9.581,-46.2357,14.0817,-0.201,0.063,8.0,942.0977,37.6857,36.04825,-115.13112,602.0,NaN,-0.013250427,0.0,5.36,,11 / 17,"$GPVTG,,T,,M,0.0,N,0.0,K,A*23::$GPGSV,3,3,09,25,00,000,*47::$GNVTG,,T,,M,0.0,N,0.0,K,A*3D::$GNRMC,032333.00,A,3602.894842,N,11507.866666,W,0.0,,060220,12.3,E,A*23::$GPRMC,032324.00,A,3602.887751,N,11507.868288,W,0.0,,060220,12.3,E,A*3E::$GPGGA,032324.00,3602.887751,N,11507.868288,W,1,00,1.3,613.0,M,-18.0,M,,*5D::$GNGGA,032333.00,3602.894842,N,11507.866666,W,1,11,1.0,620.0,M,-18.0,M,,*43::$GNGSA,A,3,73,80,82,83,,,,,,,,,1.3,1.0,0.9,2*35::$GPGSA,A,1,,,,,,,,,,,,,1.6,1.3,1.0,1*29::$GAGSV,1,1,0,*74::$GLGSV,2,2,05,84,18,230,*54::$GBGSV,1,1,0,*77::$PQGSV,1,1,0,*73",326,2020-02-05 19:23:32:633
-0.009567,0.035889,9.633499,-0.010786,0.034862,9.806582,-0.001595,0.007648,-0.007955,-3.66E-4,0.002518,8.39E-4,4.0,-4.2587,12.265,-48.4573,18.4178,-0.2037,0.063,8.0,942.0977,37.6857,36.04825,-115.13112,602.0,NaN,-0.013250427,0.0,5.36,,11 / 17,"$GPVTG,,T,,M,0.0,N,0.0,K,A*23::$GPGSV,3,3,09,25,00,000,*47::$GNVTG,,T,,M,0.0,N,0.0,K,A*3D::$GNRMC,032333.00,A,3602.894842,N,11507.866666,W,0.0,,060220,12.3,E,A*23::$GPRMC,032324.00,A,3602.887751,N,11507.868288,W,0.0,,060220,12.3,E,A*3E::$GPGGA,032324.00,3602.887751,N,11507.868288,W,1,00,1.3,613.0,M,-18.0,M,,*5D::$GNGGA,032333.00,3602.894842,N,11507.866666,W,1,11,1.0,620.0,M,-18.0,M,,*43::$GNGSA,A,3,73,80,82,83,,,,,,,,,1.3,1.0,0.9,2*35::$GPGSA,A,1,,,,,,,,,,,,,1.6,1.3,1.0,1*29::$GAGSV,1,1,0,*74::$GLGSV,2,2,05,84,18,230,*54::$GBGSV,1,1,0,*77::$PQGSV,1,1,0,*73",335,2020-02-05 19:23:32:642
0.0,0.043076,9.640686,-0.010786,0.034862,9.806582,-0.012151,-0.006736,0.006363,-0.001587,0.001312,8.39E-4,4.0,-4.2587,12.265,-48.4573,18.4178,-0.2037,0.063,8.0,942.0977,37.6857,36.04825,-115.13112,602.0,NaN,-0.013250427,0.0,5.36,,11 / 17,"$GPVTG,,T,,M,0.0,N,0.0,K,A*23::$GPGSV,3,3,09,25,00,000,*47::$GNVTG,,T,,M,0.0,N,0.0,K,A*3D::$GNRMC,032333.00,A,3602.894842,N,11507.866666,W,0.0,,060220,12.3,E,A*23::$GPRMC,032324.00,A,3602.887751,N,11507.868288,W,0.0,,060220,12.3,E,A*3E::$GPGGA,032324.00,3602.887751,N,11507.868288,W,1,00,1.3,613.0,M,-18.0,M,,*5D::$GNGGA,032333.00,3602.894842,N,11507.866666,W,1,11,1.0,620.0,M,-18.0,M,,*43::$GNGSA,A,3,73,80,82,83,,,,,,,,,1.3,1.0,0.9,2*35::$GPGSA,A,1,,,,,,,,,,,,,1.6,1.3,1.0,1*29::$GAGSV,1,1,0,*74::$GLGSV,2,2,05,84,18,230,*54::$GBGSV,1,1,0,*77::$PQGSV,1,1,0,*73",346,2020-02-05 19:23:32:653
-0.002396,0.04068,9.643082,-0.010755,0.034913,9.806581,-0.0014,0.012374,0.01213,8.54E-4,0.001312,8.39E-4,2.0,-3.5629,11.6013,-47.7173,18.4178,-0.2037,0.063,8.0,942.0977,37.6857,36.04825,-115.13112,602.0,NaN,-0.013250427,0.0,5.36,,11 / 17,"$GPVTG,,T,,M,0.0,N,0.0,K,A*23::$GPGSV,3,3,09,25,00,000,*47::$GNVTG,,T,,M,0.0,N,0.0,K,A*3D::$GNRMC,032333.00,A,3602.894842,N,11507.866666,W,0.0,,060220,12.3,E,A*23::$GPRMC,032324.00,A,3602.887751,N,11507.868288,W,0.0,,060220,12.3,E,A*3E::$GPGGA,032324.00,3602.887751,N,11507.868288,W,1,00,1.3,613.0,M,-18.0,M,,*5D::$GNGGA,032333.00,3602.894842,N,11507.866666,W,1,11,1.0,620.0,M,-18.0,M,,*43::$GNGSA,A,3,73,80,82,83,,,,,,,,,1.3,1.0,0.9,2*35::$GPGSA,A,1,,,,,,,,,,,,,1.6,1.3,1.0,1*29::$GAGSV,1,1,0,*74::$GLGSV,2,2,05,84,18,230,*54::$GBGSV,1,1,0,*77::$PQGSV,1,1,0,*73",355,2020-02-05 19:23:32:662
-0.002396,0.04068,9.643082,-0.010755,0.034913,9.806581,-0.0014,0.012374,0.01213,8.54E-4,0.001312,8.39E-4,2.0,-3.5629,11.6013,-47.7173,18.4178,-0.2037,0.063,8.0,942.0977,37.6857,36.04825,-115.13112,602.0,NaN,-0.013250427,0.0,5.36,,11 / 17,"$GPVTG,,T,,M,0.0,N,0.0,K,A*23::$GPGSV,3,3,09,25,00,000,*47::$GNVTG,,T,,M,0.0,N,0.0,K,A*3D::$GNRMC,032333.00,A,3602.894842,N,11507.866666,W,0.0,,060220,12.3,E,A*23::$GPRMC,032324.00,A,3602.887751,N,11507.868288,W,0.0,,060220,12.3,E,A*3E::$GPGGA,032324.00,3602.887751,N,11507.868288,W,1,00,1.3,613.0,M,-18.0,M,,*5D::$GNGGA,032333.00,3602.894842,N,11507.866666,W,1,11,1.0,620.0,M,-18.0,M,,*43::$GNGSA,A,3,73,80,82,83,,,,,,,,,1.3,1.0,0.9,2*35::$GPGSA,A,1,,,,,,,,,,,,,1.6,1.3,1.0,1*29::$GAGSV,1,1,0,*74::$GLGSV,2,2,05,84,18,230,*54::$GBGSV,1,1,0,*77::$PQGSV,1,1,0,*73",365,2020-02-05 19:23:32:672
-0.016754,0.023926,9.614365,-0.010571,0.035086,9.806581,0.002005,-0.011723,-0.009596,8.54E-4,0.001312,-3.66E-4,2.0,-3.5934,10.2371,-45.5078,21.7226,-0.205,0.0618,8.0,942.0977,37.6857,36.04825,-115.13112,602.0,NaN,-0.013250427,0.0,5.36,,11 / 17,"$GPVTG,,T,,M,0.0,N,0.0,K,A*23::$GPGSV,3,3,09,25,00,000,*47::$GNVTG,,T,,M,0.0,N,0.0,K,A*3D::$GNRMC,032333.00,A,3602.894842,N,11507.866666,W,0.0,,060220,12.3,E,A*23::$GPRMC,032324.00,A,3602.887751,N,11507.868288,W,0.0,,060220,12.3,E,A*3E::$GPGGA,032324.00,3602.887751,N,11507.868288,W,1,00,1.3,613.0,M,-18.0,M,,*5D::$GNGGA,032333.00,3602.894842,N,11507.866666,W,1,11,1.0,620.0,M,-18.0,M,,*43::$GNGSA,A,3,73,80,82,83,,,,,,,,,1.3,1.0,0.9,2*35::$GPGSA,A,1,,,,,,,,,,,,,1.6,1.3,1.0,1*29::$GAGSV,1,1,0,*74::$GLGSV,2,2,05,84,18,230,*54::$GBGSV,1,1,0,*77::$PQGSV,1,1,0,*73",375,2020-02-05 19:23:32:682
0.002396,0.052643,9.645462,-0.010468,0.035257,9.806581,0.022244,0.013241,0.015554,0.002075,-0.002365,-3.66E-4,2.0,-3.5934,10.2371,-45.5078,21.7226,-0.205,0.0618,8.0,942.0977,37.6857,36.04825,-115.13112,602.0,NaN,-0.013250427,0.0,5.36,,11 / 17,"$GPVTG,,T,,M,0.0,N,0.0,K,A*23::$GPGSV,3,3,09,25,00,000,*47::$GNVTG,,T,,M,0.0,N,0.0,K,A*3D::$GNRMC,032333.00,A,3602.894842,N,11507.866666,W,0.0,,060220,12.3,E,A*23::$GPRMC,032324.00,A,3602.887751,N,11507.868288,W,0.0,,060220,12.3,E,A*3E::$GPGGA,032324.00,3602.887751,N,11507.868288,W,1,00,1.3,613.0,M,-18.0,M,,*5D::$GNGGA,032333.00,3602.894842,N,11507.866666,W,1,11,1.0,620.0,M,-18.0,M,,*43::$GNGSA,A,3,73,80,82,83,,,,,,,,,1.3,1.0,0.9,2*35::$GPGSA,A,1,,,,,,,,,,,,,1.6,1.3,1.0,1*29::$GAGSV,1,1,0,*74::$GLGSV,2,2,05,84,18,230,*54::$GBGSV,1,1,0,*77::$PQGSV,1,1,0,*73",385,2020-02-05 19:23:32:692
0.002396,0.052643,9.645462,-0.010468,0.035257,9.806581,0.022244,0.013241,0.015554,-3.66E-4,7.6E-5,8.39E-4,2.0,-2.8503,11.6257,-49.1852,21.7226,-0.205,0.0618,8.0,942.0977,37.6857,36.04825,-115.13112,602.0,NaN,-0.013250427,0.0,5.36,,11 / 17,"$GPVTG,,T,,M,0.0,N,0.0,K,A*23::$GPGSV,3,3,09,25,00,000,*47::$GNVTG,,T,,M,0.0,N,0.0,K,A*3D::$GNRMC,032333.00,A,3602.894842,N,11507.866666,W,0.0,,060220,12.3,E,A*23::$GPRMC,032324.00,A,3602.887751,N,11507.868288,W,0.0,,060220,12.3,E,A*3E::$GPGGA,032324.00,3602.887751,N,11507.868288,W,1,00,1.3,613.0,M,-18.0,M,,*5D::$GNGGA,032333.00,3602.894842,N,11507.866666,W,1,11,1.0,620.0,M,-18.0,M,,*43::$GNGSA,A,3,73,80,82,83,,,,,,,,,1.3,1.0,0.9,2*35::$GPGSA,A,1,,,,,,,,,,,,,1.6,1.3,1.0,1*29::$GAGSV,1,1,0,*74::$GLGSV,2,2,05,84,18,230,*54::$GBGSV,1,1,0,*77::$PQGSV,1,1,0,*73",396,2020-02-05 19:23:32:703
-0.002396,0.033493,9.635895,-0.010464,0.035472,9.80658,-0.004081,-0.003725,0.004508,8.54E-4,0.001312,-3.66E-4,2.0,-2.8503,11.6257,-49.1852,21.7226,-0.205,0.0618,8.0,942.0977,37.6857,36.04825,-115.13112,602.0,NaN,-0.013250427,0.0,5.36,,11 / 17,"$GPVTG,,T,,M,0.0,N,0.0,K,A*23::$GPGSV,3,3,09,25,00,000,*47::$GNVTG,,T,,M,0.0,N,0.0,K,A*3D::$GNRMC,032333.00,A,3602.894842,N,11507.866666,W,0.0,,060220,12.3,E,A*23::$GPRMC,032324.00,A,3602.887751,N,11507.868288,W,0.0,,060220,12.3,E,A*3E::$GPGGA,032324.00,3602.887751,N,11507.868288,W,1,00,1.3,613.0,M,-18.0,M,,*5D::$GNGGA,032333.00,3602.894842,N,11507.866666,W,1,11,1.0,620.0,M,-18.0,M,,*43::$GNGSA,A,3,73,80,82,83,,,,,,,,,1.3,1.0,0.9,2*35::$GPGSA,A,1,,,,,,,,,,,,,1.6,1.3,1.0,1*29::$GAGSV,1,1,0,*74::$GLGSV,2,2,05,84,18,230,*54::$GBGSV,1,1,0,*77::$PQGSV,1,1,0,*73",406,2020-02-05 19:23:32:713
-0.002396,0.033493,9.635895,-0.010464,0.035472,9.80658,-0.004081,-0.003725,0.004508,-0.001587,-0.003586,8.39E-4,2.0,-2.8656,10.9375,-46.9772,15.2733,-0.2072,0.0611,8.0,942.0977,37.6857,36.04825,-115.13112,602.0,NaN,-0.013250427,0.0,5.36,,11 / 17,"$GPVTG,,T,,M,0.0,N,0.0,K,A*23::$GPGSV,3,3,09,25,00,000,*47::$GNVTG,,T,,M,0.0,N,0.0,K,A*3D::$GNRMC,032333.00,A,3602.894842,N,11507.866666,W,0.0,,060220,12.3,E,A*23::$GPRMC,032324.00,A,3602.887751,N,11507.868288,W,0.0,,060220,12.3,E,A*3E::$GPGGA,032324.00,3602.887751,N,11507.868288,W,1,00,1.3,613.0,M,-18.0,M,,*5D::$GNGGA,032333.00,3602.894842,N,11507.866666,W,1,11,1.0,620.0,M,-18.0,M,,*43::$GNGSA,A,3,73,80,82,83,,,,,,,,,1.3,1.0,0.9,2*35::$GPGSA,A,1,,,,,,,,,,,,,1.6,1.3,1.0,1*29::$GAGSV,1,1,0,*74::$GLGSV,2,2,05,84,18,230,*54::$GBGSV,1,1,0,*77::$PQGSV,1,1,0,*73",415,2020-02-05 19:23:32:722
-0.007172,0.038284,9.61676,-0.010363,0.035322,9.806581,0.004194,0.00358,-0.008625,8.54E-4,-0.002365,-3.66E-4,2.0,-2.8656,10.9375,-46.9772,15.2733,-0.2072,0.0611,8.0,942.0977,37.63016,36.04825,-115.13112,602.0,NaN,-0.013250427,0.0,5.36,,11 / 17,"$GPVTG,,T,,M,0.0,N,0.0,K,A*23::$GPGSV,3,3,09,25,00,000,*47::$GNVTG,,T,,M,0.0,N,0.0,K,A*3D::$GNRMC,032333.00,A,3602.894842,N,11507.866666,W,0.0,,060220,12.3,E,A*23::$GPRMC,032324.00,A,3602.887751,N,11507.868288,W,0.0,,060220,12.3,E,A*3E::$GPGGA,032324.00,3602.887751,N,11507.868288,W,1,00,1.3,613.0,M,-18.0,M,,*5D::$GNGGA,032333.00,3602.894842,N,11507.866666,W,1,11,1.0,620.0,M,-18.0,M,,*43::$GNGSA,A,3,73,80,82,83,,,,,,,,,1.3,1.0,0.9,2*35::$GPGSA,A,1,,,,,,,,,,,,,1.6,1.3,1.0,1*29::$GAGSV,1,1,0,*74::$GLGSV,2,2,05,84,18,230,*54::$GBGSV,1,1,0,*77::$PQGSV,1,1,0,*73",425,2020-02-05 19:23:32:732
-0.014359,0.038284,9.61676,-0.010174,0.035381,9.806581,4.1E-4,0.002345,-0.008608,8.54E-4,-0.002365,-3.66E-4,2.0,-1.442,10.9802,-49.1821,15.2733,-0.2072,0.0611,8.0,942.0977,37.63016,36.04825,-115.13112,602.0,NaN,-0.013250427,0.0,5.36,,11 / 17,"$GPVTG,,T,,M,0.0,N,0.0,K,A*23::$GPGSV,3,3,09,25,00,000,*47::$GNVTG,,T,,M,0.0,N,0.0,K,A*3D::$GNRMC,032333.00,A,3602.894842,N,11507.866666,W,0.0,,060220,12.3,E,A*23::$GPRMC,032324.00,A,3602.887751,N,11507.868288,W,0.0,,060220,12.3,E,A*3E::$GPGGA,032324.00,3602.887751,N,11507.868288,W,1,00,1.3,613.0,M,-18.0,M,,*5D::$GNGGA,032333.00,3602.894842,N,11507.866666,W,1,11,1.0,620.0,M,-18.0,M,,*43::$GNGSA,A,3,73,80,82,83,,,,,,,,,1.3,1.0,0.9,2*35::$GPGSA,A,1,,,,,,,,,,,,,1.6,1.3,1.0,1*29::$GAGSV,1,1,0,*74::$GLGSV,2,2,05,84,18,230,*54::$GBGSV,1,1,0,*77::$PQGSV,1,1,0,*73",435,2020-02-05 19:23:32:742
-0.011963,0.035889,9.631119,-0.010174,0.035381,9.806581,4.1E-4,0.002345,-0.008608,-3.66E-4,0.001312,-3.66E-4,2.0,-1.442,10.9802,-49.1821,15.2733,-0.2072,0.0611,8.0,942.1042,37.63016,36.04825,-115.13112,602.0,NaN,-0.06909175,0.0,5.36,,11 / 17,"$GPVTG,,T,,M,0.0,N,0.0,K,A*23::$GPGSV,3,3,09,25,00,000,*47::$GNVTG,,T,,M,0.0,N,0.0,K,A*3D::$GNRMC,032333.00,A,3602.894842,N,11507.866666,W,0.0,,060220,12.3,E,A*23::$GPRMC,032324.00,A,3602.887751,N,11507.868288,W,0.0,,060220,12.3,E,A*3E::$GPGGA,032324.00,3602.887751,N,11507.868288,W,1,00,1.3,613.0,M,-18.0,M,,*5D::$GNGGA,032333.00,3602.894842,N,11507.866666,W,1,11,1.0,620.0,M,-18.0,M,,*43::$GNGSA,A,3,73,80,82,83,,,,,,,,,1.3,1.0,0.9,2*35::$GPGSA,A,1,,,,,,,,,,,,,1.6,1.3,1.0,1*29::$GAGSV,1,1,0,*74::$GLGSV,2,2,05,84,18,230,*54::$GBGSV,1,1,0,*77::$PQGSV,1,1,0,*73",446,2020-02-05 19:23:32:753
-0.011963,0.035889,9.631119,-0.010174,0.035409,9.806581,-0.003176,-7.7E-5,-0.001356,8.54E-4,0.003754,8.39E-4,2.0,-2.8503,11.6257,-49.1852,14.0656,-0.2069,0.0594,8.0,942.1042,37.63016,36.04825,-115.13112,602.0,NaN,-0.06909175,0.0,5.36,,11 / 17,"$GPVTG,,T,,M,0.0,N,0.0,K,A*23::$GPGSV,3,3,09,25,00,000,*47::$GNVTG,,T,,M,0.0,N,0.0,K,A*3D::$GNRMC,032333.00,A,3602.894842,N,11507.866666,W,0.0,,060220,12.3,E,A*23::$GPRMC,032324.00,A,3602.887751,N,11507.868288,W,0.0,,060220,12.3,E,A*3E::$GPGGA,032324.00,3602.887751,N,11507.868288,W,1,00,1.3,613.0,M,-18.0,M,,*5D::$GNGGA,032333.00,3602.894842,N,11507.866666,W,1,11,1.0,620.0,M,-18.0,M,,*43::$GNGSA,A,3,73,80,82,83,,,,,,,,,1.3,1.0,0.9,2*35::$GPGSA,A,1,,,,,,,,,,,,,1.6,1.3,1.0,1*29::$GAGSV,1,1,0,*74::$GLGSV,2,2,05,84,18,230,*54::$GBGSV,1,1,0,*77::$PQGSV,1,1,0,*73",455,2020-02-05 19:23:32:762
-0.007172,0.031113,9.619141,-0.010174,0.035409,9.806581,-0.003211,-0.00112,-0.002359,-0.002808,7.6E-5,-3.66E-4,2.0,-2.8503,11.6257,-49.1852,14.0656,-0.2069,0.0594,8.0,942.1042,37.63016,36.04825,-115.13112,602.0,NaN,-0.06909175,0.0,5.36,,11 / 17,"$GPVTG,,T,,M,0.0,N,0.0,K,A*23::$GPGSV,3,3,09,25,00,000,*47::$GNVTG,,T,,M,0.0,N,0.0,K,A*3D::$GNRMC,032333.00,A,3602.894842,N,11507.866666,W,0.0,,060220,12.3,E,A*23::$GPRMC,032324.00,A,3602.887751,N,11507.868288,W,0.0,,060220,12.3,E,A*3E::$GPGGA,032324.00,3602.887751,N,11507.868288,W,1,00,1.3,613.0,M,-18.0,M,,*5D::$GNGGA,032333.00,3602.894842,N,11507.866666,W,1,11,1.0,620.0,M,-18.0,M,,*43::$GNGSA,A,3,73,80,82,83,,,,,,,,,1.3,1.0,0.9,2*35::$GPGSA,A,1,,,,,,,,,,,,,1.6,1.3,1.0,1*29::$GAGSV,1,1,0,*74::$GLGSV,2,2,05,84,18,230,*54::$GBGSV,1,1,0,*77::$PQGSV,1,1,0,*73",465,2020-02-05 19:23:32:772
-0.007172,0.031113,9.619141,-0.010206,0.035277,9.806581,0.018281,0.01298,0.016478,-0.002808,7.6E-5,-3.66E-4,2.0,-2.8503,11.6257,-49.1852,14.0656,-0.2069,0.0594,8.0,942.1042,37.63016,36.04825,-115.13112,602.0,NaN,-0.06909175,0.0,5.36,,11 / 17,"$GPVTG,,T,,M,0.0,N,0.0,K,A*23::$GPGSV,3,3,09,25,00,000,*47::$GNVTG,,T,,M,0.0,N,0.0,K,A*3D::$GNRMC,032333.00,A,3602.894842,N,11507.866666,W,0.0,,060220,12.3,E,A*23::$GPRMC,032324.00,A,3602.887751,N,11507.868288,W,0.0,,060220,12.3,E,A*3E::$GPGGA,032324.00,3602.887751,N,11507.868288,W,1,00,1.3,613.0,M,-18.0,M,,*5D::$GNGGA,032333.00,3602.894842,N,11507.866666,W,1,11,1.0,620.0,M,-18.0,M,,*43::$GNGSA,A,3,73,80,82,83,,,,,,,,,1.3,1.0,0.9,2*35::$GPGSA,A,1,,,,,,,,,,,,,1.6,1.3,1.0,1*29::$GAGSV,1,1,0,*74::$GLGSV,2,2,05,84,18,230,*54::$GBGSV,1,1,0,*77::$PQGSV,1,1,0,*73",475,2020-02-05 19:23:32:782
-0.014359,0.023926,9.628723,-0.010018,0.035597,9.80658,-9.23E-4,-0.001299,-2.58E-4,-3.66E-4,0.001312,-0.001602,2.0,-2.153,10.9528,-46.9772,14.0656,-0.2069,0.0594,8.0,942.1042,37.63016,36.04825,-115.13112,602.0,NaN,-0.06909175,0.0,5.36,,11 / 17,"$GPVTG,,T,,M,0.0,N,0.0,K,A*23::$GPGSV,3,3,09,25,00,000,*47::$GNVTG,,T,,M,0.0,N,0.0,K,A*3D::$GNRMC,032333.00,A,3602.894842,N,11507.866666,W,0.0,,060220,12.3,E,A*23::$GPRMC,032324.00,A,3602.887751,N,11507.868288,W,0.0,,060220,12.3,E,A*3E::$GPGGA,032324.00,3602.887751,N,11507.868288,W,1,00,1.3,613.0,M,-18.0,M,,*5D::$GNGGA,032333.00,3602.894842,N,11507.866666,W,1,11,1.0,620.0,M,-18.0,M,,*43::$GNGSA,A,3,73,80,82,83,,,,,,,,,1.3,1.0,0.9,2*35::$GPGSA,A,1,,,,,,,,,,,,,1.6,1.3,1.0,1*29::$GAGSV,1,1,0,*74::$GLGSV,2,2,05,84,18,230,*54::$GBGSV,1,1,0,*77::$PQGSV,1,1,0,*73",489,2020-02-05 19:23:32:796
-0.014359,0.023926,9.628723,-0.010018,0.035597,9.80658,-9.23E-4,-0.001299,-2.58E-4,-3.66E-4,0.001312,-0.001602,2.0,-4.985,11.5662,-46.9818,22.5274,-0.208,0.0585,8.0,942.1042,37.63016,36.04825,-115.13112,602.0,NaN,-0.06909175,0.0,5.36,,11 / 17,"$GPVTG,,T,,M,0.0,N,0.0,K,A*23::$GPGSV,3,3,09,25,00,000,*47::$GNVTG,,T,,M,0.0,N,0.0,K,A*3D::$GNRMC,032333.00,A,3602.894842,N,11507.866666,W,0.0,,060220,12.3,E,A*23::$GPRMC,032324.00,A,3602.887751,N,11507.868288,W,0.0,,060220,12.3,E,A*3E::$GPGGA,032324.00,3602.887751,N,11507.868288,W,1,00,1.3,613.0,M,-18.0,M,,*5D::$GNGGA,032333.00,3602.894842,N,11507.866666,W,1,11,1.0,620.0,M,-18.0,M,,*43::$GNGSA,A,3,73,80,82,83,,,,,,,,,1.3,1.0,0.9,2*35::$GPGSA,A,1,,,,,,,,,,,,,1.6,1.3,1.0,1*29::$GAGSV,1,1,0,*74::$GLGSV,2,2,05,84,18,230,*54::$GBGSV,1,1,0,*77::$PQGSV,1,1,0,*73",499,2020-02-05 19:23:32:806
-0.007172,0.028717,9.633499,-0.010037,0.035248,9.806582,0.00148,0.003666,-0.010925,-0.001587,-0.003586,-0.002808,2.0,-4.985,11.5662,-46.9818,22.5274,-0.208,0.0585,8.0,942.1042,37.63016,36.04825,-115.13112,602.0,NaN,-0.06909175,0.0,5.36,,11 / 17,"$GPVTG,,T,,M,0.0,N,0.0,K,A*23::$GPGSV,3,3,09,25,00,000,*47::$GNVTG,,T,,M,0.0,N,0.0,K,A*3D::$GNRMC,032333.00,A,3602.894842,N,11507.866666,W,0.0,,060220,12.3,E,A*23::$GPRMC,032324.00,A,3602.887751,N,11507.868288,W,0.0,,060220,12.3,E,A*3E::$GPGGA,032324.00,3602.887751,N,11507.868288,W,1,00,1.3,613.0,M,-18.0,M,,*5D::$GNGGA,032333.00,3602.894842,N,11507.866666,W,1,11,1.0,620.0,M,-18.0,M,,*43::$GNGSA,A,3,73,80,82,83,,,,,,,,,1.3,1.0,0.9,2*35::$GPGSA,A,1,,,,,,,,,,,,,1.6,1.3,1.0,1*29::$GAGSV,1,1,0,*74::$GLGSV,2,2,05,84,18,230,*54::$GBGSV,1,1,0,*77::$PQGSV,1,1,0,*73",505,2020-02-05 19:23:32:812
-0.007172,0.033493,9.63829,-0.009893,0.03568,9.806581,0.016903,0.016409,0.017576,-0.001587,-0.003586,-0.002808,2.0,-4.2892,10.9055,-46.9788,22.5274,-0.208,0.0585,8.0,942.1042,37.63016,36.04825,-115.13112,602.0,NaN,-0.06909175,0.0,5.36,,11 / 17,"$GPVTG,,T,,M,0.0,N,0.0,K,A*23::$GPGSV,3,3,09,25,00,000,*47::$GNVTG,,T,,M,0.0,N,0.0,K,A*3D::$GNRMC,032333.00,A,3602.894842,N,11507.866666,W,0.0,,060220,12.3,E,A*23::$GPRMC,032324.00,A,3602.887751,N,11507.868288,W,0.0,,060220,12.3,E,A*3E::$GPGGA,032324.00,3602.887751,N,11507.868288,W,1,00,1.3,613.0,M,-18.0,M,,*5D::$GNGGA,032333.00,3602.894842,N,11507.866666,W,1,11,1.0,620.0,M,-18.0,M,,*43::$GNGSA,A,3,73,80,82,83,,,,,,,,,1.3,1.0,0.9,2*35::$GPGSA,A,1,,,,,,,,,,,,,1.6,1.3,1.0,1*29::$GAGSV,1,1,0,*74::$GLGSV,2,2,05,84,18,230,*54::$GBGSV,1,1,0,*77::$PQGSV,1,1,0,*73",516,2020-02-05 19:23:32:823
-0.007172,0.033493,9.63829,-0.009893,0.03568,9.806581,0.016903,0.016409,0.017576,0.003296,7.6E-5,-3.66E-4,2.0,-4.2892,10.9055,-46.9788,22.5274,-0.208,0.0585,8.0,942.1042,37.63016,36.04825,-115.13112,602.0,NaN,-0.06909175,0.0,5.36,,11 / 17,"$GPVTG,,T,,M,0.0,N,0.0,K,A*23::$GPGSV,3,3,09,25,00,000,*47::$GNVTG,,T,,M,0.0,N,0.0,K,A*3D::$GNRMC,032333.00,A,3602.894842,N,11507.866666,W,0.0,,060220,12.3,E,A*23::$GPRMC,032324.00,A,3602.887751,N,11507.868288,W,0.0,,060220,12.3,E,A*3E::$GPGGA,032324.00,3602.887751,N,11507.868288,W,1,00,1.3,613.0,M,-18.0,M,,*5D::$GNGGA,032333.00,3602.894842,N,11507.866666,W,1,11,1.0,620.0,M,-18.0,M,,*43::$GNGSA,A,3,73,80,82,83,,,,,,,,,1.3,1.0,0.9,2*35::$GPGSA,A,1,,,,,,,,,,,,,1.6,1.3,1.0,1*29::$GAGSV,1,1,0,*74::$GLGSV,2,2,05,84,18,230,*54::$GBGSV,1,1,0,*77::$PQGSV,1,1,0,*73",525,2020-02-05 19:23:32:832
0.004791,0.064606,9.659821,-0.00946,0.036065,9.806579,0.016479,0.019616,0.020933,8.54E-4,0.001312,-3.66E-4,2.0,-4.2892,10.8978,-45.5109,19.9055,-0.2107,0.0553,8.0,942.1042,37.63016,36.04825,-115.13112,602.0,NaN,-0.06909175,0.0,5.36,,11 / 17,"$GPVTG,,T,,M,0.0,N,0.0,K,A*23::$GPGSV,3,3,09,25,00,000,*47::$GNVTG,,T,,M,0.0,N,0.0,K,A*3D::$GNRMC,032333.00,A,3602.894842,N,11507.866666,W,0.0,,060220,12.3,E,A*23::$GPRMC,032324.00,A,3602.887751,N,11507.868288,W,0.0,,060220,12.3,E,A*3E::$GPGGA,032324.00,3602.887751,N,11507.868288,W,1,00,1.3,613.0,M,-18.0,M,,*5D::$GNGGA,032333.00,3602.894842,N,11507.866666,W,1,11,1.0,620.0,M,-18.0,M,,*43::$GNGSA,A,3,73,80,82,83,,,,,,,,,1.3,1.0,0.9,2*35::$GPGSA,A,1,,,,,,,,,,,,,1.6,1.3,1.0,1*29::$GAGSV,1,1,0,*74::$GLGSV,2,2,05,84,18,230,*54::$GBGSV,1,1,0,*77::$PQGSV,1,1,0,*73",535,2020-02-05 19:23:32:842
-0.002396,0.064606,9.650253,-0.008987,0.036932,9.806577,0.012413,0.02833,0.027481,-0.004044,0.001312,-3.66E-4,2.0,-4.2892,10.8978,-45.5109,19.9055,-0.2107,0.0553,8.0,942.1042,37.63016,36.04825,-115.13112,602.0,NaN,-0.06909175,0.0,5.36,,11 / 17,"$GPVTG,,T,,M,0.0,N,0.0,K,A*23::$GPGSV,3,3,09,25,00,000,*47::$GNVTG,,T,,M,0.0,N,0.0,K,A*3D::$GNRMC,032333.00,A,3602.894842,N,11507.866666,W,0.0,,060220,12.3,E,A*23::$GPRMC,032324.00,A,3602.887751,N,11507.868288,W,0.0,,060220,12.3,E,A*3E::$GPGGA,032324.00,3602.887751,N,11507.868288,W,1,00,1.3,613.0,M,-18.0,M,,*5D::$GNGGA,032333.00,3602.894842,N,11507.866666,W,1,11,1.0,620.0,M,-18.0,M,,*43::$GNGSA,A,3,73,80,82,83,,,,,,,,,1.3,1.0,0.9,2*35::$GPGSA,A,1,,,,,,,,,,,,,1.6,1.3,1.0,1*29::$GAGSV,1,1,0,*74::$GLGSV,2,2,05,84,18,230,*54::$GBGSV,1,1,0,*77::$PQGSV,1,1,0,*73",546,2020-02-05 19:23:32:853
-0.002396,0.038284,9.635895,-0.008724,0.037317,9.806576,0.015741,0.008816,0.012895,-3.66E-4,7.6E-5,-3.66E-4,3.0,-1.442,10.9726,-47.7127,19.9055,-0.2107,0.0553,8.0,942.1042,37.63016,36.04825,-115.13112,602.0,NaN,-0.06909175,0.0,5.36,,11 / 17,"$GPVTG,,T,,M,0.0,N,0.0,K,A*23::$GPGSV,3,3,09,25,00,000,*47::$GNVTG,,T,,M,0.0,N,0.0,K,A*3D::$GNRMC,032333.00,A,3602.894842,N,11507.866666,W,0.0,,060220,12.3,E,A*23::$GPRMC,032324.00,A,3602.887751,N,11507.868288,W,0.0,,060220,12.3,E,A*3E::$GPGGA,032324.00,3602.887751,N,11507.868288,W,1,00,1.3,613.0,M,-18.0,M,,*5D::$GNGGA,032333.00,3602.894842,N,11507.866666,W,1,11,1.0,620.0,M,-18.0,M,,*43::$GNGSA,A,3,73,80,82,83,,,,,,,,,1.3,1.0,0.9,2*35::$GPGSA,A,1,,,,,,,,,,,,,1.6,1.3,1.0,1*29::$GAGSV,1,1,0,*74::$GLGSV,2,2,05,84,18,230,*54::$GBGSV,1,1,0,*77::$PQGSV,1,1,0,*73",555,2020-02-05 19:23:32:862
-0.002396,0.038284,9.635895,-0.008724,0.037317,9.806576,0.015741,0.008816,0.012895,-3.66E-4,0.002518,-0.001602,3.0,-1.442,10.9726,-47.7127,19.9055,-0.2107,0.0553,8.0,942.1042,37.63016,36.04825,-115.13112,602.0,NaN,-0.06909175,0.0,5.36,,11 / 17,"$GPVTG,,T,,M,0.0,N,0.0,K,A*23::$GPGSV,3,3,09,25,00,000,*47::$GNVTG,,T,,M,0.0,N,0.0,K,A*3D::$GNRMC,032333.00,A,3602.894842,N,11507.866666,W,0.0,,060220,12.3,E,A*23::$GPRMC,032324.00,A,3602.887751,N,11507.868288,W,0.0,,060220,12.3,E,A*3E::$GPGGA,032324.00,3602.887751,N,11507.868288,W,1,00,1.3,613.0,M,-18.0,M,,*5D::$GNGGA,032333.00,3602.894842,N,11507.866666,W,1,11,1.0,620.0,M,-18.0,M,,*43::$GNGSA,A,3,73,80,82,83,,,,,,,,,1.3,1.0,0.9,2*35::$GPGSA,A,1,,,,,,,,,,,,,1.6,1.3,1.0,1*29::$GAGSV,1,1,0,*74::$GLGSV,2,2,05,84,18,230,*54::$GBGSV,1,1,0,*77::$PQGSV,1,1,0,*73",567,2020-02-05 19:23:32:874
-0.004791,0.033493,9.635895,-0.008812,0.037234,9.806576,0.007465,-0.006666,-0.004969,8.54E-4,0.003754,-0.001602,3.0,-2.1698,10.2798,-47.7097,11.3462,-0.2175,0.0515,8.0,942.1042,37.63016,36.04825,-115.13112,602.0,NaN,-0.06909175,0.0,5.36,,11 / 17,"$GPVTG,,T,,M,0.0,N,0.0,K,A*23::$GPGSV,3,3,09,25,00,000,*47::$GNVTG,,T,,M,0.0,N,0.0,K,A*3D::$GNRMC,032333.00,A,3602.894842,N,11507.866666,W,0.0,,060220,12.3,E,A*23::$GPRMC,032324.00,A,3602.887751,N,11507.868288,W,0.0,,060220,12.3,E,A*3E::$GPGGA,032324.00,3602.887751,N,11507.868288,W,1,00,1.3,613.0,M,-18.0,M,,*5D::$GNGGA,032333.00,3602.894842,N,11507.866666,W,1,11,1.0,620.0,M,-18.0,M,,*43::$GNGSA,A,3,73,80,82,83,,,,,,,,,1.3,1.0,0.9,2*35::$GPGSA,A,1,,,,,,,,,,,,,1.6,1.3,1.0,1*29::$GAGSV,1,1,0,*74::$GLGSV,2,2,05,84,18,230,*54::$GBGSV,1,1,0,*77::$PQGSV,1,1,0,*73",575,2020-02-05 19:23:32:882
-0.009567,0.031113,9.645462,-0.008807,0.037023,9.806577,0.002669,-0.01482,-0.010748,-0.002808,-0.001144,8.39E-4,3.0,-2.1698,10.2798,-47.7097,11.3462,-0.2175,0.0515,8.0,942.1042,37.63016,36.04825,-115.13112,602.0,NaN,-0.06909175,0.0,5.36,,11 / 17,"$GPVTG,,T,,M,0.0,N,0.0,K,A*23::$GPGSV,3,3,09,25,00,000,*47::$GNVTG,,T,,M,0.0,N,0.0,K,A*3D::$GNRMC,032333.00,A,3602.894842,N,11507.866666,W,0.0,,060220,12.3,E,A*23::$GPRMC,032324.00,A,3602.887751,N,11507.868288,W,0.0,,060220,12.3,E,A*3E::$GPGGA,032324.00,3602.887751,N,11507.868288,W,1,00,1.3,613.0,M,-18.0,M,,*5D::$GNGGA,032333.00,3602.894842,N,11507.866666,W,1,11,1.0,620.0,M,-18.0,M,,*43::$GNGSA,A,3,73,80,82,83,,,,,,,,,1.3,1.0,0.9,2*35::$GPGSA,A,1,,,,,,,,,,,,,1.6,1.3,1.0,1*29::$GAGSV,1,1,0,*74::$GLGSV,2,2,05,84,18,230,*54::$GBGSV,1,1,0,*77::$PQGSV,1,1,0,*73",587,2020-02-05 19:23:32:894
-0.009567,0.031113,9.645462,-0.008807,0.037023,9.806577,0.002669,-0.01482,-0.010748,-0.002808,-0.001144,8.39E-4,3.0,-3.5461,12.2696,-46.2524,11.3462,-0.2175,0.0515,8.0,942.1042,37.63016,36.04825,-115.13112,602.0,NaN,-0.06909175,0.0,5.36,,11 / 17,"$GPVTG,,T,,M,0.0,N,0.0,K,A*23::$GPGSV,3,3,09,25,00,000,*47::$GNVTG,,T,,M,0.0,N,0.0,K,A*3D::$GNRMC,032333.00,A,3602.894842,N,11507.866666,W,0.0,,060220,12.3,E,A*23::$GPRMC,032324.00,A,3602.887751,N,11507.868288,W,0.0,,060220,12.3,E,A*3E::$GPGGA,032324.00,3602.887751,N,11507.868288,W,1,00,1.3,613.0,M,-18.0,M,,*5D::$GNGGA,032333.00,3602.894842,N,11507.866666,W,1,11,1.0,620.0,M,-18.0,M,,*43::$GNGSA,A,3,73,80,82,83,,,,,,,,,1.3,1.0,0.9,2*35::$GPGSA,A,1,,,,,,,,,,,,,1.6,1.3,1.0,1*29::$GAGSV,1,1,0,*74::$GLGSV,2,2,05,84,18,230,*54::$GBGSV,1,1,0,*77::$PQGSV,1,1,0,*73",595,2020-02-05 19:23:32:902
-0.016754,0.033493,9.619141,-0.008934,0.036669,9.806577,4.16E-4,-0.012148,-0.002346,-0.001587,-0.001144,8.39E-4,3.0,-3.5461,12.2696,-46.2524,11.3462,-0.2175,0.0515,8.0,942.1042,37.63016,36.04825,-115.13112,602.0,NaN,-0.06909175,0.0,5.36,,11 / 17,"$GPVTG,,T,,M,0.0,N,0.0,K,A*23::$GPGSV,3,3,09,25,00,000,*47::$GNVTG,,T,,M,0.0,N,0.0,K,A*3D::$GNRMC,032333.00,A,3602.894842,N,11507.866666,W,0.0,,060220,12.3,E,A*23::$GPRMC,032324.00,A,3602.887751,N,11507.868288,W,0.0,,060220,12.3,E,A*3E::$GPGGA,032324.00,3602.887751,N,11507.868288,W,1,00,1.3,613.0,M,-18.0,M,,*5D::$GNGGA,032333.00,3602.894842,N,11507.866666,W,1,11,1.0,620.0,M,-18.0,M,,*43::$GNGSA,A,3,73,80,82,83,,,,,,,,,1.3,1.0,0.9,2*35::$GPGSA,A,1,,,,,,,,,,,,,1.6,1.3,1.0,1*29::$GAGSV,1,1,0,*74::$GLGSV,2,2,05,84,18,230,*54::$GBGSV,1,1,0,*77::$PQGSV,1,1,0,*73",605,2020-02-05 19:23:32:912
-0.035889,0.016754,9.628723,-0.009268,0.036329,9.806579,-0.008972,-0.011936,-0.00816,-3.66E-4,7.6E-5,0.002075,3.0,-2.8336,12.291,-46.9849,14.0314,-0.2142,0.0522,8.0,942.1042,37.63016,36.04825,-115.13112,602.0,NaN,-0.06909175,0.0,5.36,,11 / 17,"$GPVTG,,T,,M,0.0,N,0.0,K,A*23::$GPGSV,3,3,09,25,00,000,*47::$GNVTG,,T,,M,0.0,N,0.0,K,A*3D::$GNRMC,032333.00,A,3602.894842,N,11507.866666,W,0.0,,060220,12.3,E,A*23::$GPRMC,032324.00,A,3602.887751,N,11507.868288,W,0.0,,060220,12.3,E,A*3E::$GPGGA,032324.00,3602.887751,N,11507.868288,W,1,00,1.3,613.0,M,-18.0,M,,*5D::$GNGGA,032333.00,3602.894842,N,11507.866666,W,1,11,1.0,620.0,M,-18.0,M,,*43::$GNGSA,A,3,73,80,82,83,,,,,,,,,1.3,1.0,0.9,2*35::$GPGSA,A,1,,,,,,,,,,,,,1.6,1.3,1.0,1*29::$GAGSV,1,1,0,*74::$GLGSV,2,2,05,84,18,230,*54::$GBGSV,1,1,0,*77::$PQGSV,1,1,0,*73",615,2020-02-05 19:23:32:922
-0.035889,0.016754,9.628723,-0.009268,0.036329,9.806579,6.38E-4,0.002513,-9.52E-4,-3.66E-4,7.6E-5,-3.66E-4,3.0,-2.8336,12.291,-46.9849,14.0314,-0.2142,0.0522,8.0,942.1042,37.63016,36.04825,-115.13112,602.0,NaN,-0.06909175,0.0,5.36,,11 / 17,"$GPVTG,,T,,M,0.0,N,0.0,K,A*23::$GPGSV,3,3,09,25,00,000,*47::$GNVTG,,T,,M,0.0,N,0.0,K,A*3D::$GNRMC,032333.00,A,3602.894842,N,11507.866666,W,0.0,,060220,12.3,E,A*23::$GPRMC,032324.00,A,3602.887751,N,11507.868288,W,0.0,,060220,12.3,E,A*3E::$GPGGA,032324.00,3602.887751,N,11507.868288,W,1,00,1.3,613.0,M,-18.0,M,,*5D::$GNGGA,032333.00,3602.894842,N,11507.866666,W,1,11,1.0,620.0,M,-18.0,M,,*43::$GNGSA,A,3,73,80,82,83,,,,,,,,,1.3,1.0,0.9,2*35::$GPGSA,A,1,,,,,,,,,,,,,1.6,1.3,1.0,1*29::$GAGSV,1,1,0,*74::$GLGSV,2,2,05,84,18,230,*54::$GBGSV,1,1,0,*77::$PQGSV,1,1,0,*73",625,2020-02-05 19:23:32:932
-0.009567,0.023926,9.621536,-0.009343,0.036333,9.806579,-0.011037,-0.008019,-0.007956,8.54E-4,-0.001144,-0.001602,3.0,-2.8168,12.9669,-46.9879,14.0314,-0.2142,0.0522,8.0,942.1042,37.63016,36.04825,-115.13112,602.0,NaN,-0.06909175,0.0,5.36,,11 / 17,"$GPVTG,,T,,M,0.0,N,0.0,K,A*23::$GPGSV,3,3,09,25,00,000,*47::$GNVTG,,T,,M,0.0,N,0.0,K,A*3D::$GNRMC,032333.00,A,3602.894842,N,11507.866666,W,0.0,,060220,12.3,E,A*23::$GPRMC,032324.00,A,3602.887751,N,11507.868288,W,0.0,,060220,12.3,E,A*3E::$GPGGA,032324.00,3602.887751,N,11507.868288,W,1,00,1.3,613.0,M,-18.0,M,,*5D::$GNGGA,032333.00,3602.894842,N,11507.866666,W,1,11,1.0,620.0,M,-18.0,M,,*43::$GNGSA,A,3,73,80,82,83,,,,,,,,,1.3,1.0,0.9,2*35::$GPGSA,A,1,,,,,,,,,,,,,1.6,1.3,1.0,1*29::$GAGSV,1,1,0,*74::$GLGSV,2,2,05,84,18,230,*54::$GBGSV,1,1,0,*77::$PQGSV,1,1,0,*73",635,2020-02-05 19:23:32:942
-0.026321,0.043076,9.635895,-0.009546,0.03606,9.80658,-0.011037,-0.008019,-0.007956,-3.66E-4,0.001312,8.39E-4,3.0,-2.8168,12.9669,-46.9879,14.0314,-0.2142,0.0522,8.0,942.1042,37.63016,36.04825,-115.13112,602.0,NaN,-0.06909175,0.0,5.36,,11 / 17,"$GPVTG,,T,,M,0.0,N,0.0,K,A*23::$GPGSV,3,3,09,25,00,000,*47::$GNVTG,,T,,M,0.0,N,0.0,K,A*3D::$GNRMC,032333.00,A,3602.894842,N,11507.866666,W,0.0,,060220,12.3,E,A*23::$GPRMC,032324.00,A,3602.887751,N,11507.868288,W,0.0,,060220,12.3,E,A*3E::$GPGGA,032324.00,3602.887751,N,11507.868288,W,1,00,1.3,613.0,M,-18.0,M,,*5D::$GNGGA,032333.00,3602.894842,N,11507.866666,W,1,11,1.0,620.0,M,-18.0,M,,*43::$GNGSA,A,3,73,80,82,83,,,,,,,,,1.3,1.0,0.9,2*35::$GPGSA,A,1,,,,,,,,,,,,,1.6,1.3,1.0,1*29::$GAGSV,1,1,0,*74::$GLGSV,2,2,05,84,18,230,*54::$GBGSV,1,1,0,*77::$PQGSV,1,1,0,*73",646,2020-02-05 19:23:32:953
-0.007172,0.043076,9.621536,-0.009546,0.03606,9.80658,-0.001409,0.008763,0.007371,-0.001587,7.6E-5,-3.66E-4,3.0,-3.5782,10.9161,-46.2448,19.9074,-0.2107,0.0558,8.0,942.1042,37.63016,36.04825,-115.13112,602.0,NaN,-0.06909175,0.0,5.36,,11 / 17,"$GPVTG,,T,,M,0.0,N,0.0,K,A*23::$GPGSV,3,3,09,25,00,000,*47::$GNVTG,,T,,M,0.0,N,0.0,K,A*3D::$GNRMC,032333.00,A,3602.894842,N,11507.866666,W,0.0,,060220,12.3,E,A*23::$GPRMC,032324.00,A,3602.887751,N,11507.868288,W,0.0,,060220,12.3,E,A*3E::$GPGGA,032324.00,3602.887751,N,11507.868288,W,1,00,1.3,613.0,M,-18.0,M,,*5D::$GNGGA,032333.00,3602.894842,N,11507.866666,W,1,11,1.0,620.0,M,-18.0,M,,*43::$GNGSA,A,3,73,80,82,83,,,,,,,,,1.3,1.0,0.9,2*35::$GPGSA,A,1,,,,,,,,,,,,,1.6,1.3,1.0,1*29::$GAGSV,1,1,0,*74::$GLGSV,2,2,05,84,18,230,*54::$GBGSV,1,1,0,*77::$PQGSV,1,1,0,*73",655,2020-02-05 19:23:32:962
-0.007172,0.043076,9.621536,-0.009659,0.036302,9.806579,-0.001409,0.008763,0.007371,-0.002808,7.6E-5,8.39E-4,3.0,-3.5782,10.9161,-46.2448,19.9074,-0.2107,0.0558,8.0,942.1042,37.63016,36.04825,-115.13112,602.0,NaN,-0.06909175,0.0,5.36,,11 / 17,"$GPVTG,,T,,M,0.0,N,0.0,K,A*23::$GPGSV,3,3,09,25,00,000,*47::$GNVTG,,T,,M,0.0,N,0.0,K,A*3D::$GNRMC,032333.00,A,3602.894842,N,11507.866666,W,0.0,,060220,12.3,E,A*23::$GPRMC,032324.00,A,3602.887751,N,11507.868288,W,0.0,,060220,12.3,E,A*3E::$GPGGA,032324.00,3602.887751,N,11507.868288,W,1,00,1.3,613.0,M,-18.0,M,,*5D::$GNGGA,032333.00,3602.894842,N,11507.866666,W,1,11,1.0,620.0,M,-18.0,M,,*43::$GNGSA,A,3,73,80,82,83,,,,,,,,,1.3,1.0,0.9,2*35::$GPGSA,A,1,,,,,,,,,,,,,1.6,1.3,1.0,1*29::$GAGSV,1,1,0,*74::$GLGSV,2,2,05,84,18,230,*54::$GBGSV,1,1,0,*77::$PQGSV,1,1,0,*73",670,2020-02-05 19:23:32:977
-0.007172,0.043076,9.621536,-0.009901,0.036023,9.80658,-0.017802,-0.013836,-0.007933,-0.002808,7.6E-5,8.39E-4,3.0,-3.5782,10.9161,-46.2448,19.9074,-0.2107,0.0558,8.0,942.1042,37.63016,36.04825,-115.13112,602.0,NaN,-0.06909175,0.0,5.36,,11 / 17,"$GPVTG,,T,,M,0.0,N,0.0,K,A*23::$GPGSV,3,3,09,25,00,000,*47::$GNVTG,,T,,M,0.0,N,0.0,K,A*3D::$GNRMC,032333.00,A,3602.894842,N,11507.866666,W,0.0,,060220,12.3,E,A*23::$GPRMC,032324.00,A,3602.887751,N,11507.868288,W,0.0,,060220,12.3,E,A*3E::$GPGGA,032324.00,3602.887751,N,11507.868288,W,1,00,1.3,613.0,M,-18.0,M,,*5D::$GNGGA,032333.00,3602.894842,N,11507.866666,W,1,11,1.0,620.0,M,-18.0,M,,*43::$GNGSA,A,3,73,80,82,83,,,,,,,,,1.3,1.0,0.9,2*35::$GPGSA,A,1,,,,,,,,,,,,,1.6,1.3,1.0,1*29::$GAGSV,1,1,0,*74::$GLGSV,2,2,05,84,18,230,*54::$GBGSV,1,1,0,*77::$PQGSV,1,1,0,*73",676,2020-02-05 19:23:32:983
-0.035889,0.028717,9.623932,-0.009901,0.036023,9.80658,-0.017802,-0.013836,-0.007933,-0.004044,7.6E-5,8.39E-4,3.0,-1.4404,10.9695,-46.9772,19.9074,-0.2107,0.0558,8.0,942.1042,37.63016,36.04825,-115.13112,602.0,NaN,-0.06909175,0.0,5.36,,11 / 17,"$GPVTG,,T,,M,0.0,N,0.0,K,A*23::$GPGSV,3,3,09,25,00,000,*47::$GNVTG,,T,,M,0.0,N,0.0,K,A*3D::$GNRMC,032333.00,A,3602.894842,N,11507.866666,W,0.0,,060220,12.3,E,A*23::$GPRMC,032324.00,A,3602.887751,N,11507.868288,W,0.0,,060220,12.3,E,A*3E::$GPGGA,032324.00,3602.887751,N,11507.868288,W,1,00,1.3,613.0,M,-18.0,M,,*5D::$GNGGA,032333.00,3602.894842,N,11507.866666,W,1,11,1.0,620.0,M,-18.0,M,,*43::$GNGSA,A,3,73,80,82,83,,,,,,,,,1.3,1.0,0.9,2*35::$GPGSA,A,1,,,,,,,,,,,,,1.6,1.3,1.0,1*29::$GAGSV,1,1,0,*74::$GLGSV,2,2,05,84,18,230,*54::$GBGSV,1,1,0,*77::$PQGSV,1,1,0,*73",685,2020-02-05 19:23:32:992
-0.016754,0.033493,9.626328,-0.010208,0.035602,9.80658,-0.005488,-0.008501,0.001731,-0.001587,7.6E-5,-3.66E-4,3.0,-4.2892,10.9055,-46.9788,19.9238,-0.208,0.0596,8.0,942.1042,37.63016,36.04825,-115.13112,602.0,NaN,-0.06909175,0.0,5.36,,11 / 17,"$GPVTG,,T,,M,0.0,N,0.0,K,A*23::$GPGSV,3,3,09,25,00,000,*47::$GNVTG,,T,,M,0.0,N,0.0,K,A*3D::$GNRMC,032333.00,A,3602.894842,N,11507.866666,W,0.0,,060220,12.3,E,A*23::$GPRMC,032324.00,A,3602.887751,N,11507.868288,W,0.0,,060220,12.3,E,A*3E::$GPGGA,032324.00,3602.887751,N,11507.868288,W,1,00,1.3,613.0,M,-18.0,M,,*5D::$GNGGA,032333.00,3602.894842,N,11507.866666,W,1,11,1.0,620.0,M,-18.0,M,,*43::$GNGSA,A,3,73,80,82,83,,,,,,,,,1.3,1.0,0.9,2*35::$GPGSA,A,1,,,,,,,,,,,,,1.6,1.3,1.0,1*29::$GAGSV,1,1,0,*74::$GLGSV,2,2,05,84,18,230,*54::$GBGSV,1,1,0,*77::$PQGSV,1,1,0,*73",695,2020-02-05 19:23:33:002
-0.016754,0.033493,9.626328,-0.010212,0.035383,9.806581,-0.001933,-0.008431,-0.008916,0.002075,7.6E-5,8.39E-4,3.0,-4.2892,10.9055,-46.9788,19.9238,-0.208,0.0596,8.0,942.1042,37.63016,36.04825,-115.13112,602.0,NaN,-0.06909175,0.0,5.36,,11 / 17,"$GPVTG,,T,,M,0.0,N,0.0,K,A*23::$GPGSV,3,3,09,25,00,000,*47::$GNVTG,,T,,M,0.0,N,0.0,K,A*3D::$GNRMC,032333.00,A,3602.894842,N,11507.866666,W,0.0,,060220,12.3,E,A*23::$GPRMC,032324.00,A,3602.887751,N,11507.868288,W,0.0,,060220,12.3,E,A*3E::$GPGGA,032324.00,3602.887751,N,11507.868288,W,1,00,1.3,613.0,M,-18.0,M,,*5D::$GNGGA,032333.00,3602.894842,N,11507.866666,W,1,11,1.0,620.0,M,-18.0,M,,*43::$GNGSA,A,3,73,80,82,83,,,,,,,,,1.3,1.0,0.9,2*35::$GPGSA,A,1,,,,,,,,,,,,,1.6,1.3,1.0,1*29::$GAGSV,1,1,0,*74::$GLGSV,2,2,05,84,18,230,*54::$GBGSV,1,1,0,*77::$PQGSV,1,1,0,*73",705,2020-02-05 19:23:33:012
