ACCELEROMETER X (m/s²),ACCELEROMETER Y (m/s²),ACCELEROMETER Z (m/s²),GRAVITY X (m/s²),GRAVITY Y (m/s²),GRAVITY Z (m/s²),LINEAR ACCELERATION X (m/s²),LINEAR ACCELERATION Y (m/s²),LINEAR ACCELERATION Z (m/s²),GYROSCOPE X (rad/s),GYROSCOPE Y (rad/s),GYROSCOPE Z (rad/s),LIGHT (lux),MAGNETIC FIELD X (μT),MAGNETIC FIELD Y (μT),MAGNETIC FIELD Z (μT),ORIENTATION Z (azimuth °),ORIENTATION X (pitch °),ORIENTATION Y (roll °),PROXIMITY (m),ATMOSPHERIC PRESSURE (hPa),SOUND LEVEL (dB),LOCATION Latitude : ,LOCATION Longitude : ,LOCATION Altitude ( m),LOCATION Altitude-google ( m),LOCATION Altitude-atmospheric pressure ( m),LOCATION Speed ( m/s),LOCATION Accuracy ( m),LOCATION ORIENTATION (°),Satellites in range,GPS NMEA,Time since start in ms ,YYYY-MO-DD HH-MI-SS_SSS
1.507477,-0.174683,9.67897,1.483557,-0.596559,9.67541,0.005295,0.420204,0.138294,0.019119,0.83728,1.163696,123.0,-21.1212,23.2605,-33.2031,39.8316,3.0197,-10.5415,8.0,947.3979,21.3784,36.048306,-115.131096,603.0,NaN,-0.06947998,0.0,13.936001,,15 / 23,"$GPVTG,,T,,M,0.0,N,0.0,K,A*23::$GPGSV,3,3,12,32,42,047,27,08,02,229,,23,02,253,,26,02,154,*79::$GNVTG,,T,,M,0.0,N,0.0,K,A*3D::$GNRMC,193340.00,A,3602.898332,N,11507.865806,W,0.0,,011219,12.3,E,A*2A::$GPRMC,193333.00,A,3602.898328,N,11507.865815,W,0.0,,011219,12.3,E,A*39::$GPGGA,193333.00,3602.898328,N,11507.865815,W,1,00,0.8,621.0,M,-18.0,M,,*5D::$GNGGA,193340.00,3602.898332,N,11507.865806,W,1,12,0.8,622.0,M,-18.0,M,,*4E::$GNGSA,A,3,69,70,71,79,80,85,,,,,,,1.1,0.8,0.8,2*37::$GPGSA,A,1,,,,,,,,,,,,,1.1,0.8,0.8,1*2D::$GAGSV,1,1,0,*74::$GLGSV,3,3,09,87,01,343,*56::$GBGSV,1,1,0,*77::$PQGSV,1,1,0,*73",31,2019-12-01 11:33:40:105
0.138779,0.397202,10.305893,0.134258,-0.598661,9.787438,-0.19251,1.049285,0.594744,0.364868,1.306427,0.82283,123.0,-15.4099,24.0723,-34.6725,29.1266,4.0169,-4.943,8.0,947.399,21.3784,36.048306,-115.131096,603.0,NaN,-0.07899783,0.0,13.936001,,15 / 23,"$GPVTG,,T,,M,0.0,N,0.0,K,A*23::$GPGSV,3,3,12,32,42,047,28,08,02,229,,23,02,253,,26,02,154,*76::$GNVTG,,T,,M,0.0,N,0.0,K,A*3D::$GNRMC,193341.00,A,3602.898332,N,11507.865804,W,0.0,,011219,12.3,E,A*29::$GPRMC,193333.00,A,3602.898328,N,11507.865815,W,0.0,,011219,12.3,E,A*39::$GPGGA,193333.00,3602.898328,N,11507.865815,W,1,00,0.8,621.0,M,-18.0,M,,*5D::$GNGGA,193341.00,3602.898332,N,11507.865804,W,1,12,0.8,622.0,M,-18.0,M,,*4D::$GNGSA,A,3,69,70,71,79,80,85,,,,,,,1.1,0.8,0.8,2*37::$GPGSA,A,1,,,,,,,,,,,,,1.1,0.8,0.8,1*2D::$GAGSV,1,1,0,*74::$GLGSV,3,3,09,87,01,343,*56::$GBGSV,1,1,0,*77::$PQGSV,1,1,0,*73",131,2019-12-01 11:33:40:205
-0.495316,0.509674,10.415955,-0.872157,-0.077501,9.767483,0.271504,0.713877,0.566052,0.648315,1.230667,0.094681,132.0,-9.7443,22.8622,-37.6007,29.6782,0.965,4.1886,8.0,947.399,21.3784,36.048306,-115.131096,603.0,NaN,-0.07899783,0.0,13.936001,,15 / 23,"$GPVTG,,T,,M,0.0,N,0.0,K,A*23::$GPGSV,3,3,12,32,42,047,28,08,02,229,,23,02,253,,26,02,154,*76::$GNVTG,,T,,M,0.0,N,0.0,K,A*3D::$GNRMC,193341.00,A,3602.898332,N,11507.865804,W,0.0,,011219,12.3,E,A*29::$GPRMC,193333.00,A,3602.898328,N,11507.865815,W,0.0,,011219,12.3,E,A*39::$GPGGA,193333.00,3602.898328,N,11507.865815,W,1,00,0.8,621.0,M,-18.0,M,,*5D::$GNGGA,193341.00,3602.898332,N,11507.865804,W,1,12,0.8,622.0,M,-18.0,M,,*4D::$GNGSA,A,3,69,70,71,79,80,85,,,,,,,1.1,0.8,0.8,2*37::$GPGSA,A,1,,,,,,,,,,,,,1.1,0.8,0.8,1*2D::$GAGSV,1,1,0,*74::$GLGSV,3,3,09,87,01,343,*56::$GBGSV,1,1,0,*77::$PQGSV,1,1,0,*73",231,2019-12-01 11:33:40:305
-1.095917,1.17009,9.63829,-2.237408,0.410126,9.539193,1.24357,0.722191,0.312867,0.637314,1.486008,-0.282822,132.0,-4.7928,21.6354,-40.5319,30.8748,-1.4412,10.1665,8.0,947.399,21.90938,36.048306,-115.131096,603.0,NaN,-0.07899783,0.0,13.936001,,15 / 23,"$GPVTG,,T,,M,0.0,N,0.0,K,A*23::$GPGSV,3,3,12,32,42,047,28,08,02,229,,23,02,253,,26,02,154,*76::$GNVTG,,T,,M,0.0,N,0.0,K,A*3D::$GNRMC,193341.00,A,3602.898332,N,11507.865804,W,0.0,,011219,12.3,E,A*29::$GPRMC,193333.00,A,3602.898328,N,11507.865815,W,0.0,,011219,12.3,E,A*39::$GPGGA,193333.00,3602.898328,N,11507.865815,W,1,00,0.8,621.0,M,-18.0,M,,*5D::$GNGGA,193341.00,3602.898332,N,11507.865804,W,1,12,0.8,622.0,M,-18.0,M,,*4D::$GNGSA,A,3,69,70,71,79,80,85,,,,,,,1.1,0.8,0.8,2*37::$GPGSA,A,1,,,,,,,,,,,,,1.1,0.8,0.8,1*2D::$GAGSV,1,1,0,*74::$GLGSV,3,3,09,87,01,343,*56::$GBGSV,1,1,0,*77::$PQGSV,1,1,0,*73",331,2019-12-01 11:33:40:405
-3.51506,0.708283,8.580658,-3.894709,1.107555,8.931683,0.403487,-0.417416,-0.068339,1.117462,1.867203,-0.04213,163.0,3.627,16.4246,-41.9662,31.3181,-5.4291,21.4932,8.0,947.4054,21.90938,36.048306,-115.131096,603.0,NaN,-0.1327739,0.0,13.936001,,15 / 23,"$GPVTG,,T,,M,0.0,N,0.0,K,A*23::$GPGSV,3,3,12,32,42,047,28,08,02,229,,23,02,253,,26,02,154,*76::$GNVTG,,T,,M,0.0,N,0.0,K,A*3D::$GNRMC,193341.00,A,3602.898332,N,11507.865804,W,0.0,,011219,12.3,E,A*29::$GPRMC,193333.00,A,3602.898328,N,11507.865815,W,0.0,,011219,12.3,E,A*39::$GPGGA,193333.00,3602.898328,N,11507.865815,W,1,00,0.8,621.0,M,-18.0,M,,*5D::$GNGGA,193341.00,3602.898332,N,11507.865804,W,1,12,0.8,622.0,M,-18.0,M,,*4D::$GNGSA,A,3,69,70,71,79,80,85,,,,,,,1.1,0.8,0.8,2*37::$GPGSA,A,1,,,,,,,,,,,,,1.1,0.8,0.8,1*2D::$GAGSV,1,1,0,*74::$GLGSV,3,3,09,87,01,343,*56::$GBGSV,1,1,0,*77::$PQGSV,1,1,0,*73",432,2019-12-01 11:33:40:506
-2.933594,0.772888,10.58345,-4.226592,1.509048,8.719465,1.612013,-0.692175,1.599953,0.362412,-0.400314,-0.299911,163.0,4.274,13.7375,-42.6865,37.079,-8.8518,25.8609,8.0,947.4054,21.90938,36.048306,-115.131096,603.0,NaN,-0.1327739,0.0,13.936001,,15 / 23,"$GPVTG,,T,,M,0.0,N,0.0,K,A*23::$GPGSV,3,3,12,32,42,047,28,08,02,229,,23,02,253,,26,02,154,*76::$GNVTG,,T,,M,0.0,N,0.0,K,A*3D::$GNRMC,193341.00,A,3602.898332,N,11507.865804,W,0.0,,011219,12.3,E,A*29::$GPRMC,193333.00,A,3602.898328,N,11507.865815,W,0.0,,011219,12.3,E,A*39::$GPGGA,193333.00,3602.898328,N,11507.865815,W,1,00,0.8,621.0,M,-18.0,M,,*5D::$GNGGA,193341.00,3602.898332,N,11507.865804,W,1,12,0.8,622.0,M,-18.0,M,,*4D::$GNGSA,A,3,69,70,71,79,80,85,,,,,,,1.1,0.8,0.8,2*37::$GPGSA,A,1,,,,,,,,,,,,,1.1,0.8,0.8,1*2D::$GAGSV,1,1,0,*74::$GLGSV,3,3,09,87,01,343,*56::$GBGSV,1,1,0,*77::$PQGSV,1,1,0,*73",532,2019-12-01 11:33:40:606
-2.517242,2.866608,8.970688,-4.063237,2.21468,8.646136,1.58743,0.639219,-0.043901,0.704514,-0.725296,-0.705521,199.0,3.4805,10.3592,-46.3425,38.8881,-12.3282,25.9866,8.0,947.4054,22.20751,36.048306,-115.131096,603.0,NaN,-0.1327739,0.0,13.936001,,15 / 23,"$GPVTG,,T,,M,0.0,N,0.0,K,A*23::$GPGSV,3,3,12,32,42,047,28,08,02,229,,23,02,253,,26,02,154,*76::$GNVTG,,T,,M,0.0,N,0.0,K,A*3D::$GNRMC,193341.00,A,3602.898332,N,11507.865804,W,0.0,,011219,12.3,E,A*29::$GPRMC,193333.00,A,3602.898328,N,11507.865815,W,0.0,,011219,12.3,E,A*39::$GPGGA,193333.00,3602.898328,N,11507.865815,W,1,00,0.8,621.0,M,-18.0,M,,*5D::$GNGGA,193341.00,3602.898332,N,11507.865804,W,1,12,0.8,622.0,M,-18.0,M,,*4D::$GNGSA,A,3,69,70,71,79,80,85,,,,,,,1.1,0.8,0.8,2*37::$GPGSA,A,1,,,,,,,,,,,,,1.1,0.8,0.8,1*2D::$GAGSV,1,1,0,*74::$GLGSV,3,3,09,87,01,343,*56::$GBGSV,1,1,0,*77::$PQGSV,1,1,0,*73",631,2019-12-01 11:33:40:705
-2.388031,2.533997,8.800797,-3.379717,2.632972,8.821301,0.966276,-0.033439,-0.094353,0.760712,-0.830368,-1.079376,199.0,-3.0579,4.7943,-44.1132,49.9999,-15.5743,20.9634,8.0,947.4049,22.20751,36.048306,-115.131096,603.0,NaN,-0.12849085,0.0,13.936001,,15 / 23,"$GPVTG,,T,,M,0.0,N,0.0,K,A*23::$GPGSV,3,3,12,32,42,047,28,08,02,229,,23,02,253,,26,02,154,*76::$GNVTG,,T,,M,0.0,N,0.0,K,A*3D::$GNRMC,193341.00,A,3602.898332,N,11507.865804,W,0.0,,011219,12.3,E,A*29::$GPRMC,193333.00,A,3602.898328,N,11507.865815,W,0.0,,011219,12.3,E,A*39::$GPGGA,193333.00,3602.898328,N,11507.865815,W,1,00,0.8,621.0,M,-18.0,M,,*5D::$GNGGA,193341.00,3602.898332,N,11507.865804,W,1,12,0.8,622.0,M,-18.0,M,,*4D::$GNGSA,A,3,69,70,71,79,80,85,,,,,,,1.1,0.8,0.8,2*37::$GPGSA,A,1,,,,,,,,,,,,,1.1,0.8,0.8,1*2D::$GAGSV,1,1,0,*74::$GLGSV,3,3,09,87,01,343,*56::$GBGSV,1,1,0,*77::$PQGSV,1,1,0,*73",732,2019-12-01 11:33:40:806
-3.507873,2.344971,7.74318,-3.648242,2.779035,8.6682,0.364564,-0.451357,-0.890111,0.622665,0.399902,-1.079376,194.0,-0.2258,4.1916,-46.3119,52.924,-16.2204,22.2101,8.0,947.4093,22.20751,36.048306,-115.131096,603.0,NaN,-0.1656108,0.0,13.936001,,15 / 23,"$GPVTG,,T,,M,0.0,N,0.0,K,A*23::$GPGSV,3,3,12,32,42,047,28,08,02,229,,23,02,253,,26,02,154,*76::$GNVTG,,T,,M,0.0,N,0.0,K,A*3D::$GNRMC,193341.00,A,3602.898332,N,11507.865804,W,0.0,,011219,12.3,E,A*29::$GPRMC,193333.00,A,3602.898328,N,11507.865815,W,0.0,,011219,12.3,E,A*39::$GPGGA,193333.00,3602.898328,N,11507.865815,W,1,00,0.8,621.0,M,-18.0,M,,*5D::$GNGGA,193341.00,3602.898332,N,11507.865804,W,1,12,0.8,622.0,M,-18.0,M,,*4D::$GNGSA,A,3,69,70,71,79,80,85,,,,,,,1.1,0.8,0.8,2*37::$GPGSA,A,1,,,,,,,,,,,,,1.1,0.8,0.8,1*2D::$GAGSV,1,1,0,*74::$GLGSV,3,3,09,87,01,343,*56::$GBGSV,1,1,0,*77::$PQGSV,1,1,0,*73",831,2019-12-01 11:33:40:905
-4.469787,3.029312,8.106888,-4.159276,3.008006,8.355998,-0.330929,0.003249,-0.217503,0.414948,0.535507,-0.825272,194.0,-3.9124,-1.3031,-44.8166,65.3238,-17.8623,26.4623,8.0,947.4093,22.20751,36.048306,-115.131096,603.0,NaN,-0.1656108,0.0,13.936001,,15 / 23,"$GPVTG,,T,,M,0.0,N,0.0,K,A*23::$GPGSV,3,3,12,32,42,047,28,08,02,229,,23,02,253,,26,02,154,*76::$GNVTG,,T,,M,0.0,N,0.0,K,A*3D::$GNRMC,193341.00,A,3602.898332,N,11507.865804,W,0.0,,011219,12.3,E,A*29::$GPRMC,193333.00,A,3602.898328,N,11507.865815,W,0.0,,011219,12.3,E,A*39::$GPGGA,193333.00,3602.898328,N,11507.865815,W,1,00,0.8,621.0,M,-18.0,M,,*5D::$GNGGA,193341.00,3602.898332,N,11507.865804,W,1,12,0.8,622.0,M,-18.0,M,,*4D::$GNGSA,A,3,69,70,71,79,80,85,,,,,,,1.1,0.8,0.8,2*37::$GPGSA,A,1,,,,,,,,,,,,,1.1,0.8,0.8,1*2D::$GAGSV,1,1,0,*74::$GLGSV,3,3,09,87,01,343,*56::$GBGSV,1,1,0,*77::$PQGSV,1,1,0,*73",932,2019-12-01 11:33:41:006
-2.895309,3.237488,8.382065,-4.335095,3.176736,8.202785,2.147656,0.388255,-0.078145,0.726501,-0.212173,-1.252884,237.0,-0.3998,-3.2608,-43.3334,64.639,-18.8394,27.654,8.0,947.4041,22.74227,36.048306,-115.131096,603.0,NaN,-0.1218283,0.0,13.936001,,15 / 23,"$GPVTG,,T,,M,0.0,N,0.0,K,A*23::$GPGSV,3,3,12,32,42,047,28,08,02,229,,23,02,253,,26,02,154,*76::$GNVTG,,T,,M,0.0,N,0.0,K,A*3D::$GNRMC,193341.00,A,3602.898332,N,11507.865804,W,0.0,,011219,12.3,E,A*29::$GPRMC,193333.00,A,3602.898328,N,11507.865815,W,0.0,,011219,12.3,E,A*39::$GPGGA,193333.00,3602.898328,N,11507.865815,W,1,00,0.8,621.0,M,-18.0,M,,*5D::$GNGGA,193341.00,3602.898332,N,11507.865804,W,1,12,0.8,622.0,M,-18.0,M,,*4D::$GNGSA,A,3,69,70,71,79,80,85,,,,,,,1.1,0.8,0.8,2*37::$GPGSA,A,1,,,,,,,,,,,,,1.1,0.8,0.8,1*2D::$GAGSV,1,1,0,*74::$GLGSV,3,3,09,87,01,343,*56::$GBGSV,1,1,0,*77::$PQGSV,1,1,0,*73",1031,2019-12-01 11:33:41:105
-2.979065,3.335602,8.707489,-4.306671,2.98763,8.288368,1.067545,0.421683,0.680892,0.49437,-0.660538,-1.86618,237.0,-1.1749,-5.9708,-45.5231,75.1989,-18.1466,27.7137,8.0,947.4041,22.74227,36.048306,-115.131096,603.0,NaN,-0.1218283,0.0,13.936001,,15 / 23,"$GPVTG,,T,,M,0.0,N,0.0,K,A*23::$GPGSV,3,3,12,32,42,047,29,08,02,229,,23,02,253,,26,02,154,*77::$GNVTG,,T,,M,0.0,N,0.0,K,A*3D::$GNRMC,193342.00,A,3602.898331,N,11507.865809,W,0.0,,011219,12.3,E,A*24::$GPRMC,193333.00,A,3602.898328,N,11507.865815,W,0.0,,011219,12.3,E,A*39::$GPGGA,193333.00,3602.898328,N,11507.865815,W,1,00,0.8,621.0,M,-18.0,M,,*5D::$GNGGA,193342.00,3602.898331,N,11507.865809,W,1,12,0.8,622.0,M,-18.0,M,,*40::$GNGSA,A,3,69,70,71,79,80,85,,,,,,,1.1,0.8,0.8,2*37::$GPGSA,A,1,,,,,,,,,,,,,1.1,0.8,0.8,1*2D::$GAGSV,1,1,0,*74::$GLGSV,3,3,09,87,01,343,*56::$GBGSV,1,1,0,*77::$PQGSV,1,1,0,*73",1131,2019-12-01 11:33:41:205
-3.378662,1.706085,8.066208,-3.920281,2.481431,8.639692,0.478019,-0.736126,-0.427167,0.488266,-1.523086,-2.208267,196.0,-4.7836,-8.0872,-44.046,90.8376,-15.3513,25.7612,8.0,947.3987,22.74227,36.048306,-115.131096,603.0,NaN,-0.076142475,0.0,13.936001,,15 / 23,"$GPVTG,,T,,M,0.0,N,0.0,K,A*23::$GPGSV,3,3,12,32,42,047,29,08,02,229,,23,02,253,,26,02,154,*77::$GNVTG,,T,,M,0.0,N,0.0,K,A*3D::$GNRMC,193342.00,A,3602.898331,N,11507.865809,W,0.0,,011219,12.3,E,A*24::$GPRMC,193333.00,A,3602.898328,N,11507.865815,W,0.0,,011219,12.3,E,A*39::$GPGGA,193333.00,3602.898328,N,11507.865815,W,1,00,0.8,621.0,M,-18.0,M,,*5D::$GNGGA,193342.00,3602.898331,N,11507.865809,W,1,12,0.8,622.0,M,-18.0,M,,*40::$GNGSA,A,3,69,70,71,79,80,85,,,,,,,1.1,0.8,0.8,2*37::$GPGSA,A,1,,,,,,,,,,,,,1.1,0.8,0.8,1*2D::$GAGSV,1,1,0,*74::$GLGSV,3,3,09,87,01,343,*56::$GBGSV,1,1,0,*77::$PQGSV,1,1,0,*73",1231,2019-12-01 11:33:41:305
-2.756531,0.543167,7.14975,-2.963082,1.904263,9.152285,0.492406,-0.844802,-1.673148,-0.491531,-2.416168,-1.548523,196.0,-12.6801,-10.9787,-41.8304,98.5604,-11.1969,17.9395,8.0,947.3954,21.71672,36.048306,-115.131096,603.0,NaN,-0.04854074,0.0,13.936001,,15 / 23,"$GPVTG,,T,,M,0.0,N,0.0,K,A*23::$GPGSV,3,3,12,32,42,047,29,08,02,229,,23,02,253,,26,02,154,*77::$GNVTG,,T,,M,0.0,N,0.0,K,A*3D::$GNRMC,193342.00,A,3602.898331,N,11507.865809,W,0.0,,011219,12.3,E,A*24::$GPRMC,193333.00,A,3602.898328,N,11507.865815,W,0.0,,011219,12.3,E,A*39::$GPGGA,193333.00,3602.898328,N,11507.865815,W,1,00,0.8,621.0,M,-18.0,M,,*5D::$GNGGA,193342.00,3602.898331,N,11507.865809,W,1,12,0.8,622.0,M,-18.0,M,,*40::$GNGSA,A,3,69,70,71,79,80,85,,,,,,,1.1,0.8,0.8,2*37::$GPGSA,A,1,,,,,,,,,,,,,1.1,0.8,0.8,1*2D::$GAGSV,1,1,0,*74::$GLGSV,3,3,09,87,01,343,*56::$GBGSV,1,1,0,*77::$PQGSV,1,1,0,*73",1331,2019-12-01 11:33:41:405
-0.581451,1.10788,8.59024,-0.909201,1.426227,9.65969,0.15687,-0.180106,-0.789992,-0.342499,-1.734421,-1.238205,158.0,-18.3929,-11.7935,-39.6255,105.0079,-9.0194,8.0625,8.0,947.3954,21.71672,36.048306,-115.131096,603.0,NaN,-0.04854074,0.0,13.936001,,15 / 23,"$GPVTG,,T,,M,0.0,N,0.0,K,A*23::$GPGSV,3,3,12,32,42,047,29,08,02,229,,23,02,253,,26,02,154,*77::$GNVTG,,T,,M,0.0,N,0.0,K,A*3D::$GNRMC,193342.00,A,3602.898331,N,11507.865809,W,0.0,,011219,12.3,E,A*24::$GPRMC,193333.00,A,3602.898328,N,11507.865815,W,0.0,,011219,12.3,E,A*39::$GPGGA,193333.00,3602.898328,N,11507.865815,W,1,00,0.8,621.0,M,-18.0,M,,*5D::$GNGGA,193342.00,3602.898331,N,11507.865809,W,1,12,0.8,622.0,M,-18.0,M,,*40::$GNGSA,A,3,69,70,71,79,80,85,,,,,,,1.1,0.8,0.8,2*37::$GPGSA,A,1,,,,,,,,,,,,,1.1,0.8,0.8,1*2D::$GAGSV,1,1,0,*74::$GLGSV,3,3,09,87,01,343,*56::$GBGSV,1,1,0,*77::$PQGSV,1,1,0,*73",1431,2019-12-01 11:33:41:505
1.040878,1.584045,10.107285,0.731214,1.3466,9.686195,0.783578,0.167964,-0.360505,0.074097,-2.074066,-1.058609,158.0,-23.4741,-15.9698,-38.1378,116.4449,-7.8346,-2.7274,8.0,947.3932,21.71672,36.048306,-115.131096,603.0,NaN,-0.029981012,0.0,13.936001,,15 / 23,"$GPVTG,,T,,M,0.0,N,0.0,K,A*23::$GPGSV,3,3,12,32,42,047,29,08,02,229,,23,02,253,,26,02,154,*77::$GNVTG,,T,,M,0.0,N,0.0,K,A*3D::$GNRMC,193342.00,A,3602.898331,N,11507.865809,W,0.0,,011219,12.3,E,A*24::$GPRMC,193333.00,A,3602.898328,N,11507.865815,W,0.0,,011219,12.3,E,A*39::$GPGGA,193333.00,3602.898328,N,11507.865815,W,1,00,0.8,621.0,M,-18.0,M,,*5D::$GNGGA,193342.00,3602.898331,N,11507.865809,W,1,12,0.8,622.0,M,-18.0,M,,*40::$GNGSA,A,3,69,70,71,79,80,85,,,,,,,1.1,0.8,0.8,2*37::$GPGSA,A,1,,,,,,,,,,,,,1.1,0.8,0.8,1*2D::$GAGSV,1,1,0,*74::$GLGSV,3,3,09,87,01,343,*56::$GBGSV,1,1,0,*77::$PQGSV,1,1,0,*73",1531,2019-12-01 11:33:41:605
1.686935,1.935791,11.121841,2.089038,1.587979,9.449054,-0.438744,0.034696,1.281232,0.228027,-1.211533,-0.249817,153.0,-28.4561,-16.1072,-32.9971,110.3739,-9.2124,-11.0267,8.0,947.3932,23.40593,36.048306,-115.131096,603.0,NaN,-0.029981012,0.0,13.936001,,15 / 23,"$GPVTG,,T,,M,0.0,N,0.0,K,A*23::$GPGSV,3,3,12,32,42,047,29,08,02,229,,23,02,253,,26,02,154,*77::$GNVTG,,T,,M,0.0,N,0.0,K,A*3D::$GNRMC,193342.00,A,3602.898331,N,11507.865809,W,0.0,,011219,12.3,E,A*24::$GPRMC,193333.00,A,3602.898328,N,11507.865815,W,0.0,,011219,12.3,E,A*39::$GPGGA,193333.00,3602.898328,N,11507.865815,W,1,00,0.8,621.0,M,-18.0,M,,*5D::$GNGGA,193342.00,3602.898331,N,11507.865809,W,1,12,0.8,622.0,M,-18.0,M,,*40::$GNGSA,A,3,69,70,71,79,80,85,,,,,,,1.1,0.8,0.8,2*37::$GPGSA,A,1,,,,,,,,,,,,,1.1,0.8,0.8,1*2D::$GAGSV,1,1,0,*74::$GLGSV,3,3,09,87,01,343,*56::$GBGSV,1,1,0,*77::$PQGSV,1,1,0,*73",1631,2019-12-01 11:33:41:705
2.553146,2.495712,11.641083,3.425151,2.044683,8.958683,-0.956599,0.549937,2.843852,0.440628,-1.35936,-0.136215,153.0,-32.0801,-18.9056,-30.0461,118.3736,-12.0344,-20.9232,8.0,947.4014,23.40593,36.048306,-115.131096,603.0,NaN,-0.09946125,0.0,13.936001,,15 / 23,"$GPVTG,,T,,M,0.0,N,0.0,K,A*23::$GPGSV,3,3,12,32,42,047,29,08,02,229,,23,02,253,,26,02,154,*77::$GNVTG,,T,,M,0.0,N,0.0,K,A*3D::$GNRMC,193342.00,A,3602.898331,N,11507.865809,W,0.0,,011219,12.3,E,A*24::$GPRMC,193333.00,A,3602.898328,N,11507.865815,W,0.0,,011219,12.3,E,A*39::$GPGGA,193333.00,3602.898328,N,11507.865815,W,1,00,0.8,621.0,M,-18.0,M,,*5D::$GNGGA,193342.00,3602.898331,N,11507.865809,W,1,12,0.8,622.0,M,-18.0,M,,*40::$GNGSA,A,3,69,70,71,79,80,85,,,,,,,1.1,0.8,0.8,2*37::$GPGSA,A,1,,,,,,,,,,,,,1.1,0.8,0.8,1*2D::$GAGSV,1,1,0,*74::$GLGSV,3,3,09,87,01,343,*56::$GBGSV,1,1,0,*77::$PQGSV,1,1,0,*73",1731,2019-12-01 11:33:41:805
3.876373,2.672791,8.578262,4.632819,2.81588,8.171793,-0.654201,-0.066279,0.453299,0.979401,-1.637909,0.181427,151.0,-34.2606,-21.019,-22.6913,115.7518,-15.9938,-28.034,8.0,947.4062,23.40593,36.048306,-115.131096,603.0,NaN,-0.13943645,0.0,13.936001,,15 / 23,"$GPVTG,,T,,M,0.0,N,0.0,K,A*23::$GPGSV,3,3,12,32,42,047,29,08,02,229,,23,02,253,,26,02,154,*77::$GNVTG,,T,,M,0.0,N,0.0,K,A*3D::$GNRMC,193342.00,A,3602.898331,N,11507.865809,W,0.0,,011219,12.3,E,A*24::$GPRMC,193333.00,A,3602.898328,N,11507.865815,W,0.0,,011219,12.3,E,A*39::$GPGGA,193333.00,3602.898328,N,11507.865815,W,1,00,0.8,621.0,M,-18.0,M,,*5D::$GNGGA,193342.00,3602.898331,N,11507.865809,W,1,12,0.8,622.0,M,-18.0,M,,*40::$GNGSA,A,3,69,70,71,79,80,85,,,,,,,1.1,0.8,0.8,2*37::$GPGSA,A,1,,,,,,,,,,,,,1.1,0.8,0.8,1*2D::$GAGSV,1,1,0,*74::$GLGSV,3,3,09,87,01,343,*56::$GBGSV,1,1,0,*77::$PQGSV,1,1,0,*73",1831,2019-12-01 11:33:41:905
5.13739,3.689728,5.058426,5.875952,3.956982,6.78129,-0.857975,-0.355267,-1.732248,1.890808,-1.802841,0.579712,151.0,-39.9689,-21.8689,-13.1393,105.8551,-22.9449,-38.8875,8.0,947.4062,22.30696,36.048306,-115.131096,603.0,NaN,-0.13943645,0.0,13.936001,,15 / 23,"$GPVTG,,T,,M,0.0,N,0.0,K,A*23::$GPGSV,3,3,12,32,42,047,29,08,02,229,,23,02,253,,26,02,154,*77::$GNVTG,,T,,M,0.0,N,0.0,K,A*3D::$GNRMC,193342.00,A,3602.898331,N,11507.865809,W,0.0,,011219,12.3,E,A*24::$GPRMC,193333.00,A,3602.898328,N,11507.865815,W,0.0,,011219,12.3,E,A*39::$GPGGA,193333.00,3602.898328,N,11507.865815,W,1,00,0.8,621.0,M,-18.0,M,,*5D::$GNGGA,193342.00,3602.898331,N,11507.865809,W,1,12,0.8,622.0,M,-18.0,M,,*40::$GNGSA,A,3,69,70,71,79,80,85,,,,,,,1.1,0.8,0.8,2*37::$GPGSA,A,1,,,,,,,,,,,,,1.1,0.8,0.8,1*2D::$GAGSV,1,1,0,*74::$GLGSV,3,3,09,87,01,343,*56::$GBGSV,1,1,0,*77::$PQGSV,1,1,0,*73",1931,2019-12-01 11:33:42:005
6.592224,4.74736,5.268997,6.820092,4.349635,5.544133,0.012991,0.402394,-0.046814,2.000763,-0.799805,0.940125,152.0,-41.3589,-20.5765,-7.2678,97.3934,-25.6938,-48.9703,8.0,947.404,22.30696,36.048306,-115.131096,603.0,NaN,-0.12087651,0.0,13.936001,,15 / 23,"$GPVTG,,T,,M,0.0,N,0.0,K,A*23::$GPGSV,3,3,12,32,42,047,29,08,02,229,,23,02,253,,26,02,154,*77::$GNVTG,,T,,M,0.0,N,0.0,K,A*3D::$GNRMC,193342.00,A,3602.898331,N,11507.865809,W,0.0,,011219,12.3,E,A*24::$GPRMC,193333.00,A,3602.898328,N,11507.865815,W,0.0,,011219,12.3,E,A*39::$GPGGA,193333.00,3602.898328,N,11507.865815,W,1,00,0.8,621.0,M,-18.0,M,,*5D::$GNGGA,193342.00,3602.898331,N,11507.865809,W,1,12,0.8,622.0,M,-18.0,M,,*40::$GNGSA,A,3,69,70,71,79,80,85,,,,,,,1.1,0.8,0.8,2*37::$GPGSA,A,1,,,,,,,,,,,,,1.1,0.8,0.8,1*2D::$GAGSV,1,1,0,*74::$GLGSV,3,3,09,87,01,343,*56::$GBGSV,1,1,0,*77::$PQGSV,1,1,0,*73",2031,2019-12-01 11:33:42:105
7.018143,4.424332,3.309281,7.689543,4.425927,4.177617,-0.415745,0.2678,-0.653542,1.530396,-0.386871,1.232117,152.0,-44.8044,-15.9683,2.2537,82.3123,-26.8283,-61.4854,8.0,947.4038,22.30696,36.048306,-115.131096,603.0,NaN,-0.119448826,0.0,13.936001,,15 / 23,"$GPVTG,,T,,M,0.0,N,0.0,K,A*23::$GPGSV,3,3,12,32,42,047,28,08,02,229,,23,02,253,,26,02,154,*76::$GNVTG,,T,,M,0.0,N,0.0,K,A*3D::$GNRMC,193343.00,A,3602.898330,N,11507.865812,W,0.0,,011219,12.3,E,A*2E::$GPRMC,193333.00,A,3602.898328,N,11507.865815,W,0.0,,011219,12.3,E,A*39::$GPGGA,193333.00,3602.898328,N,11507.865815,W,1,00,0.8,621.0,M,-18.0,M,,*5D::$GNGGA,193343.00,3602.898330,N,11507.865812,W,1,12,0.8,622.0,M,-18.0,M,,*4A::$GNGSA,A,3,69,70,71,79,80,85,,,,,,,1.1,0.8,0.8,2*37::$GPGSA,A,1,,,,,,,,,,,,,1.1,0.8,0.8,1*2D::$GAGSV,1,1,0,*74::$GLGSV,3,3,09,87,01,343,*56::$GBGSV,1,1,0,*77::$PQGSV,1,1,0,*73",2131,2019-12-01 11:33:42:205
7.740784,4.390824,1.832901,8.412489,3.968301,3.106928,-0.512795,0.533495,-1.47774,0.896332,-0.662979,0.760529,141.0,-44.5786,-6.5216,6.6116,66.3587,-23.8694,-69.7296,8.0,947.4038,21.93305,36.048306,-115.131096,603.0,NaN,-0.119448826,0.0,13.936001,,15 / 23,"$GPVTG,,T,,M,0.0,N,0.0,K,A*23::$GPGSV,3,3,12,32,42,047,28,08,02,229,,23,02,253,,26,02,154,*76::$GNVTG,,T,,M,0.0,N,0.0,K,A*3D::$GNRMC,193343.00,A,3602.898330,N,11507.865812,W,0.0,,011219,12.3,E,A*2E::$GPRMC,193333.00,A,3602.898328,N,11507.865815,W,0.0,,011219,12.3,E,A*39::$GPGGA,193333.00,3602.898328,N,11507.865815,W,1,00,0.8,621.0,M,-18.0,M,,*5D::$GNGGA,193343.00,3602.898330,N,11507.865812,W,1,12,0.8,622.0,M,-18.0,M,,*4A::$GNGSA,A,3,69,70,71,79,80,85,,,,,,,1.1,0.8,0.8,2*37::$GPGSA,A,1,,,,,,,,,,,,,1.1,0.8,0.8,1*2D::$GAGSV,1,1,0,*74::$GLGSV,3,3,09,87,01,343,*56::$GBGSV,1,1,0,*77::$PQGSV,1,1,0,*73",2231,2019-12-01 11:33:42:305
8.968292,4.491333,1.718048,8.939268,3.374449,2.207479,0.185033,1.205782,-0.478782,1.217636,-0.837692,0.879028,141.0,-45.9228,-3.1891,10.2692,67.1681,-21.4136,-73.5428,8.0,947.4033,21.93305,36.048306,-115.131096,603.0,NaN,-0.11468988,0.0,13.936001,,15 / 23,"$GPVTG,,T,,M,0.0,N,0.0,K,A*23::$GPGSV,3,3,12,32,42,047,28,08,02,229,,23,02,253,,26,02,154,*76::$GNVTG,,T,,M,0.0,N,0.0,K,A*3D::$GNRMC,193343.00,A,3602.898330,N,11507.865812,W,0.0,,011219,12.3,E,A*2E::$GPRMC,193333.00,A,3602.898328,N,11507.865815,W,0.0,,011219,12.3,E,A*39::$GPGGA,193333.00,3602.898328,N,11507.865815,W,1,00,0.8,621.0,M,-18.0,M,,*5D::$GNGGA,193343.00,3602.898330,N,11507.865812,W,1,12,0.8,622.0,M,-18.0,M,,*4A::$GNGSA,A,3,69,70,71,79,80,85,,,,,,,1.1,0.8,0.8,2*37::$GPGSA,A,1,,,,,,,,,,,,,1.1,0.8,0.8,1*2D::$GAGSV,1,1,0,*74::$GLGSV,3,3,09,87,01,343,*56::$GBGSV,1,1,0,*77::$PQGSV,1,1,0,*73",2331,2019-12-01 11:33:42:405
9.12384,3.345169,0.217743,9.316244,2.728559,1.39031,-0.474267,0.477025,-0.746217,0.326996,0.10791,0.299927,121.0,-47.2488,0.824,12.4512,54.2556,-16.3586,-81.485,8.0,947.4061,21.93305,36.048306,-115.131096,603.0,NaN,-0.13848466,0.0,13.936001,,15 / 23,"$GPVTG,,T,,M,0.0,N,0.0,K,A*23::$GPGSV,3,3,12,32,42,047,28,08,02,229,,23,02,253,,26,02,154,*76::$GNVTG,,T,,M,0.0,N,0.0,K,A*3D::$GNRMC,193343.00,A,3602.898330,N,11507.865812,W,0.0,,011219,12.3,E,A*2E::$GPRMC,193333.00,A,3602.898328,N,11507.865815,W,0.0,,011219,12.3,E,A*39::$GPGGA,193333.00,3602.898328,N,11507.865815,W,1,00,0.8,621.0,M,-18.0,M,,*5D::$GNGGA,193343.00,3602.898330,N,11507.865812,W,1,12,0.8,622.0,M,-18.0,M,,*4A::$GNGSA,A,3,69,70,71,79,80,85,,,,,,,1.1,0.8,0.8,2*37::$GPGSA,A,1,,,,,,,,,,,,,1.1,0.8,0.8,1*2D::$GAGSV,1,1,0,*74::$GLGSV,3,3,09,87,01,343,*56::$GBGSV,1,1,0,*77::$PQGSV,1,1,0,*73",2431,2019-12-01 11:33:42:505
9.707687,2.409577,0.08136,9.62267,1.763175,0.682524,0.080932,0.653762,-0.576469,1.353241,-0.863342,1.421478,121.0,-45.6818,6.9397,13.1531,47.1134,-11.8856,-84.6593,8.0,947.4061,21.93305,36.048306,-115.131096,603.0,NaN,-0.13848466,0.0,13.936001,,15 / 23,"$GPVTG,,T,,M,0.0,N,0.0,K,A*23::$GPGSV,3,3,12,32,42,047,28,08,02,229,,23,02,253,,26,02,154,*76::$GNVTG,,T,,M,0.0,N,0.0,K,A*3D::$GNRMC,193343.00,A,3602.898330,N,11507.865812,W,0.0,,011219,12.3,E,A*2E::$GPRMC,193333.00,A,3602.898328,N,11507.865815,W,0.0,,011219,12.3,E,A*39::$GPGGA,193333.00,3602.898328,N,11507.865815,W,1,00,0.8,621.0,M,-18.0,M,,*5D::$GNGGA,193343.00,3602.898330,N,11507.865812,W,1,12,0.8,622.0,M,-18.0,M,,*4A::$GNGSA,A,3,69,70,71,79,80,85,,,,,,,1.1,0.8,0.8,2*37::$GPGSA,A,1,,,,,,,,,,,,,1.1,0.8,0.8,1*2D::$GAGSV,1,1,0,*74::$GLGSV,3,3,09,87,01,343,*56::$GBGSV,1,1,0,*77::$PQGSV,1,1,0,*73",2531,2019-12-01 11:33:42:605
9.303299,1.162918,0.141174,9.754586,0.77738,0.643507,-0.357476,0.375344,-0.431709,0.972076,0.253296,1.365265,101.0,-43.4006,13.0783,12.3886,42.2514,-4.5466,-86.2257,8.0,947.3959,21.34726,36.048306,-115.131096,603.0,NaN,-0.052823763,0.0,13.936001,,15 / 23,"$GPVTG,,T,,M,0.0,N,0.0,K,A*23::$GPGSV,3,3,12,32,42,047,28,08,02,229,,23,02,253,,26,02,154,*76::$GNVTG,,T,,M,0.0,N,0.0,K,A*3D::$GNRMC,193343.00,A,3602.898330,N,11507.865812,W,0.0,,011219,12.3,E,A*2E::$GPRMC,193333.00,A,3602.898328,N,11507.865815,W,0.0,,011219,12.3,E,A*39::$GPGGA,193333.00,3602.898328,N,11507.865815,W,1,00,0.8,621.0,M,-18.0,M,,*5D::$GNGGA,193343.00,3602.898330,N,11507.865812,W,1,12,0.8,622.0,M,-18.0,M,,*4A::$GNGSA,A,3,69,70,71,79,80,85,,,,,,,1.1,0.8,0.8,2*37::$GPGSA,A,1,,,,,,,,,,,,,1.1,0.8,0.8,1*2D::$GAGSV,1,1,0,*74::$GLGSV,3,3,09,87,01,343,*56::$GBGSV,1,1,0,*77::$PQGSV,1,1,0,*73",2631,2019-12-01 11:33:42:705
9.102295,0.057434,1.366303,9.778008,-0.215082,0.717423,-0.454958,0.283861,0.640987,0.807144,0.524521,1.114807,101.0,-43.277,18.5104,7.9514,38.164,-0.7384,-86.541,8.0,947.4009,21.34726,36.048306,-115.131096,603.0,NaN,-0.09470231,0.0,13.936001,,15 / 23,"$GPVTG,,T,,M,0.0,N,0.0,K,A*23::$GPGSV,3,3,12,32,42,047,28,08,02,229,,23,02,253,,26,02,154,*76::$GNVTG,,T,,M,0.0,N,0.0,K,A*3D::$GNRMC,193343.00,A,3602.898330,N,11507.865812,W,0.0,,011219,12.3,E,A*2E::$GPRMC,193333.00,A,3602.898328,N,11507.865815,W,0.0,,011219,12.3,E,A*39::$GPGGA,193333.00,3602.898328,N,11507.865815,W,1,00,0.8,621.0,M,-18.0,M,,*5D::$GNGGA,193343.00,3602.898330,N,11507.865812,W,1,12,0.8,622.0,M,-18.0,M,,*4A::$GNGSA,A,3,69,70,71,79,80,85,,,,,,,1.1,0.8,0.8,2*37::$GPGSA,A,1,,,,,,,,,,,,,1.1,0.8,0.8,1*2D::$GAGSV,1,1,0,*74::$GLGSV,3,3,09,87,01,343,*56::$GBGSV,1,1,0,*77::$PQGSV,1,1,0,*73",2731,2019-12-01 11:33:42:805
8.915665,-1.052841,1.983643,9.639674,-0.831445,1.598673,-0.822983,-0.223227,0.386134,0.754593,0.636917,0.756851,91.0,-41.0614,21.9605,3.5263,29.8746,4.8636,-80.5836,8.0,947.3932,21.34726,36.048306,-115.131096,603.0,NaN,-0.030456902,0.0,13.936001,,15 / 23,"$GPVTG,,T,,M,0.0,N,0.0,K,A*23::$GPGSV,3,3,12,32,42,047,28,08,02,229,,23,02,253,,26,02,154,*76::$GNVTG,,T,,M,0.0,N,0.0,K,A*3D::$GNRMC,193343.00,A,3602.898330,N,11507.865812,W,0.0,,011219,12.3,E,A*2E::$GPRMC,193333.00,A,3602.898328,N,11507.865815,W,0.0,,011219,12.3,E,A*39::$GPGGA,193333.00,3602.898328,N,11507.865815,W,1,00,0.8,621.0,M,-18.0,M,,*5D::$GNGGA,193343.00,3602.898330,N,11507.865812,W,1,12,0.8,622.0,M,-18.0,M,,*4A::$GNGSA,A,3,69,70,71,79,80,85,,,,,,,1.1,0.8,0.8,2*37::$GPGSA,A,1,,,,,,,,,,,,,1.1,0.8,0.8,1*2D::$GAGSV,1,1,0,*74::$GLGSV,3,3,09,87,01,343,*56::$GBGSV,1,1,0,*77::$PQGSV,1,1,0,*73",2831,2019-12-01 11:33:42:905
9.016159,-1.229904,3.031708,9.415417,-1.169471,2.480454,-0.284783,-0.080927,0.564348,0.821793,0.814072,0.365906,91.0,-40.9851,25.3647,-1.6357,27.0421,6.5257,-77.4831,8.0,947.3932,22.1228,36.048306,-115.131096,603.0,NaN,-0.030456902,0.0,13.936001,,15 / 23,"$GPVTG,,T,,M,0.0,N,0.0,K,A*23::$GPGSV,3,3,12,32,42,047,28,08,02,229,,23,02,253,,26,02,154,*76::$GNVTG,,T,,M,0.0,N,0.0,K,A*3D::$GNRMC,193343.00,A,3602.898330,N,11507.865812,W,0.0,,011219,12.3,E,A*2E::$GPRMC,193333.00,A,3602.898328,N,11507.865815,W,0.0,,011219,12.3,E,A*39::$GPGGA,193333.00,3602.898328,N,11507.865815,W,1,00,0.8,621.0,M,-18.0,M,,*5D::$GNGGA,193343.00,3602.898330,N,11507.865812,W,1,12,0.8,622.0,M,-18.0,M,,*4A::$GNGSA,A,3,69,70,71,79,80,85,,,,,,,1.1,0.8,0.8,2*37::$GPGSA,A,1,,,,,,,,,,,,,1.1,0.8,0.8,1*2D::$GAGSV,1,1,0,*74::$GLGSV,3,3,09,87,01,343,*56::$GBGSV,1,1,0,*77::$PQGSV,1,1,0,*73",2931,2019-12-01 11:33:43:005
9.489929,-1.158127,3.208771,8.986776,-1.100115,3.768021,0.258417,-0.316455,-0.378619,0.907303,1.595978,0.39032,90.0,-39.563,25.4242,-7.5119,21.5582,6.5984,-71.9619,8.0,947.3998,22.1228,36.048306,-115.131096,603.0,NaN,-0.08613623,0.0,13.936001,,15 / 23,"$GPVTG,,T,,M,0.0,N,0.0,K,A*23::$GPGSV,3,3,12,32,42,047,28,08,02,229,,23,02,253,,26,02,154,*76::$GNVTG,,T,,M,0.0,N,0.0,K,A*3D::$GNRMC,193343.00,A,3602.898330,N,11507.865812,W,0.0,,011219,12.3,E,A*2E::$GPRMC,193333.00,A,3602.898328,N,11507.865815,W,0.0,,011219,12.3,E,A*39::$GPGGA,193333.00,3602.898328,N,11507.865815,W,1,00,0.8,621.0,M,-18.0,M,,*5D::$GNGGA,193343.00,3602.898330,N,11507.865812,W,1,12,0.8,622.0,M,-18.0,M,,*4A::$GNGSA,A,3,69,70,71,79,80,85,,,,,,,1.1,0.8,0.8,2*37::$GPGSA,A,1,,,,,,,,,,,,,1.1,0.8,0.8,1*2D::$GAGSV,1,1,0,*74::$GLGSV,3,3,09,87,01,343,*56::$GBGSV,1,1,0,*77::$PQGSV,1,1,0,*73",3033,2019-12-01 11:33:43:107
8.472992,-0.311066,5.44606,8.26789,-0.63173,5.235773,0.284115,0.239267,0.245342,0.856003,1.602066,-0.185074,90.0,-35.3104,24.884,-15.5884,10.258,4.3294,-59.4839,8.0,947.4012,22.1228,36.048306,-115.131096,603.0,NaN,-0.09755767,0.0,13.936001,,15 / 23,"$GPVTG,,T,,M,0.0,N,0.0,K,A*23::$GPGSV,3,3,12,32,42,047,26,08,02,229,,23,02,253,,26,02,154,*78::$GNVTG,,T,,M,0.0,N,0.0,K,A*3D::$GNRMC,193344.00,A,3602.898327,N,11507.865815,W,0.0,,011219,12.3,E,A*28::$GPRMC,193333.00,A,3602.898328,N,11507.865815,W,0.0,,011219,12.3,E,A*39::$GPGGA,193333.00,3602.898328,N,11507.865815,W,1,00,0.8,621.0,M,-18.0,M,,*5D::$GNGGA,193344.00,3602.898327,N,11507.865815,W,1,12,0.8,622.0,M,-18.0,M,,*4C::$GNGSA,A,3,69,70,71,79,80,85,,,,,,,1.1,0.8,0.8,2*37::$GPGSA,A,1,,,,,,,,,,,,,1.1,0.8,0.8,1*2D::$GAGSV,1,1,0,*74::$GLGSV,3,3,09,87,01,343,*56::$GBGSV,1,1,0,*77::$PQGSV,1,1,0,*73",3131,2019-12-01 11:33:43:205
8.638092,0.279953,6.14238,7.329079,0.263019,6.51044,1.251588,-0.120748,-0.356171,0.849884,1.539764,-0.411087,100.0,-34.6619,22.2244,-21.4508,15.0873,-0.4611,-50.5573,8.0,947.4012,22.83597,36.048306,-115.131096,603.0,NaN,-0.09755767,0.0,13.936001,,15 / 23,"$GPVTG,,T,,M,0.0,N,0.0,K,A*23::$GPGSV,3,3,12,32,42,047,26,08,02,229,,23,02,253,,26,02,154,*78::$GNVTG,,T,,M,0.0,N,0.0,K,A*3D::$GNRMC,193344.00,A,3602.898327,N,11507.865815,W,0.0,,011219,12.3,E,A*28::$GPRMC,193333.00,A,3602.898328,N,11507.865815,W,0.0,,011219,12.3,E,A*39::$GPGGA,193333.00,3602.898328,N,11507.865815,W,1,00,0.8,621.0,M,-18.0,M,,*5D::$GNGGA,193344.00,3602.898327,N,11507.865815,W,1,12,0.8,622.0,M,-18.0,M,,*4C::$GNGSA,A,3,69,70,71,79,80,85,,,,,,,1.1,0.8,0.8,2*37::$GPGSA,A,1,,,,,,,,,,,,,1.1,0.8,0.8,1*2D::$GAGSV,1,1,0,*74::$GLGSV,3,3,09,87,01,343,*56::$GBGSV,1,1,0,*77::$PQGSV,1,1,0,*73",3231,2019-12-01 11:33:43:305
7.326828,1.373474,7.322037,6.444738,1.089316,7.310891,0.546407,-0.193136,0.285393,0.709396,1.214783,-0.685989,100.0,-30.3635,19.6701,-26.5793,16.8324,-4.7149,-43.6241,8.0,947.3925,22.83597,36.048306,-115.131096,603.0,NaN,-0.024270335,0.0,13.936001,,15 / 23,"$GPVTG,,T,,M,0.0,N,0.0,K,A*23::$GPGSV,3,3,12,32,42,047,26,08,02,229,,23,02,253,,26,02,154,*78::$GNVTG,,T,,M,0.0,N,0.0,K,A*3D::$GNRMC,193344.00,A,3602.898327,N,11507.865815,W,0.0,,011219,12.3,E,A*28::$GPRMC,193333.00,A,3602.898328,N,11507.865815,W,0.0,,011219,12.3,E,A*39::$GPGGA,193333.00,3602.898328,N,11507.865815,W,1,00,0.8,621.0,M,-18.0,M,,*5D::$GNGGA,193344.00,3602.898327,N,11507.865815,W,1,12,0.8,622.0,M,-18.0,M,,*4C::$GNGSA,A,3,69,70,71,79,80,85,,,,,,,1.1,0.8,0.8,2*37::$GPGSA,A,1,,,,,,,,,,,,,1.1,0.8,0.8,1*2D::$GAGSV,1,1,0,*74::$GLGSV,3,3,09,87,01,343,*56::$GBGSV,1,1,0,*77::$PQGSV,1,1,0,*73",3331,2019-12-01 11:33:43:405
5.699707,2.153534,7.673783,4.934397,2.280355,8.162236,1.028681,-0.159575,-0.694163,0.490707,1.473801,-1.185669,113.0,-29.1016,12.9684,-33.1543,18.8395,-13.4462,-31.1546,8.0,947.392,22.83597,36.048306,-115.131096,603.0,NaN,-0.019511439,0.0,13.936001,,15 / 23,"$GPVTG,,T,,M,0.0,N,0.0,K,A*23::$GPGSV,3,3,12,32,42,047,26,08,02,229,,23,02,253,,26,02,154,*78::$GNVTG,,T,,M,0.0,N,0.0,K,A*3D::$GNRMC,193344.00,A,3602.898327,N,11507.865815,W,0.0,,011219,12.3,E,A*28::$GPRMC,193333.00,A,3602.898328,N,11507.865815,W,0.0,,011219,12.3,E,A*39::$GPGGA,193333.00,3602.898328,N,11507.865815,W,1,00,0.8,621.0,M,-18.0,M,,*5D::$GNGGA,193344.00,3602.898327,N,11507.865815,W,1,12,0.8,622.0,M,-18.0,M,,*4C::$GNGSA,A,3,69,70,71,79,80,85,,,,,,,1.1,0.8,0.8,2*37::$GPGSA,A,1,,,,,,,,,,,,,1.1,0.8,0.8,1*2D::$GAGSV,1,1,0,*74::$GLGSV,3,3,09,87,01,343,*56::$GBGSV,1,1,0,*77::$PQGSV,1,1,0,*73",3431,2019-12-01 11:33:43:505
4.615753,3.125031,8.109284,3.462765,3.271563,8.571846,1.232601,-0.129444,-0.438914,0.456512,1.290543,-1.244324,113.0,-24.2325,8.3801,-39.74,13.4524,-17.6615,-25.2257,8.0,947.392,21.09822,36.048306,-115.131096,603.0,NaN,-0.019511439,0.0,13.936001,,15 / 23,"$GPVTG,,T,,M,0.0,N,0.0,K,A*23::$GPGSV,3,3,12,32,42,047,26,08,02,229,,23,02,253,,26,02,154,*78::$GNVTG,,T,,M,0.0,N,0.0,K,A*3D::$GNRMC,193344.00,A,3602.898327,N,11507.865815,W,0.0,,011219,12.3,E,A*28::$GPRMC,193333.00,A,3602.898328,N,11507.865815,W,0.0,,011219,12.3,E,A*39::$GPGGA,193333.00,3602.898328,N,11507.865815,W,1,00,0.8,621.0,M,-18.0,M,,*5D::$GNGGA,193344.00,3602.898327,N,11507.865815,W,1,12,0.8,622.0,M,-18.0,M,,*4C::$GNGSA,A,3,69,70,71,79,80,85,,,,,,,1.1,0.8,0.8,2*37::$GPGSA,A,1,,,,,,,,,,,,,1.1,0.8,0.8,1*2D::$GAGSV,1,1,0,*74::$GLGSV,3,3,09,87,01,343,*56::$GBGSV,1,1,0,*77::$PQGSV,1,1,0,*73",3531,2019-12-01 11:33:43:605
2.924027,3.797409,8.394028,2.223446,4.004873,8.671082,0.702641,-0.286537,-0.035872,0.505371,1.036423,-1.163681,129.0,-20.7825,3.7292,-40.4495,25.7189,-24.1033,-14.382,8.0,947.3951,21.09822,36.048306,-115.131096,603.0,NaN,-0.045685396,0.0,13.936001,,15 / 23,"$GPVTG,,T,,M,0.0,N,0.0,K,A*23::$GPGSV,3,3,12,32,42,047,26,08,02,229,,23,02,253,,26,02,154,*78::$GNVTG,,T,,M,0.0,N,0.0,K,A*3D::$GNRMC,193344.00,A,3602.898327,N,11507.865815,W,0.0,,011219,12.3,E,A*28::$GPRMC,193333.00,A,3602.898328,N,11507.865815,W,0.0,,011219,12.3,E,A*39::$GPGGA,193333.00,3602.898328,N,11507.865815,W,1,00,0.8,621.0,M,-18.0,M,,*5D::$GNGGA,193344.00,3602.898327,N,11507.865815,W,1,12,0.8,622.0,M,-18.0,M,,*4C::$GNGSA,A,3,69,70,71,79,80,85,,,,,,,1.1,0.8,0.8,2*37::$GPGSA,A,1,,,,,,,,,,,,,1.1,0.8,0.8,1*2D::$GAGSV,1,1,0,*74::$GLGSV,3,3,09,87,01,343,*56::$GBGSV,1,1,0,*77::$PQGSV,1,1,0,*73",3631,2019-12-01 11:33:43:705
2.234894,4.572678,9.178864,1.10403,4.599681,8.59037,1.116062,-0.179904,0.71081,0.49559,0.904465,-1.081818,129.0,-17.334,-0.9109,-43.3578,26.2318,-26.865,-9.6958,8.0,947.3891,21.09822,36.048306,-115.131096,603.0,NaN,0.0047588805,0.0,13.936001,,15 / 23,"$GPVTG,,T,,M,0.0,N,0.0,K,A*23::$GPGSV,3,3,12,32,42,047,26,08,02,229,,23,02,253,,26,02,154,*78::$GNVTG,,T,,M,0.0,N,0.0,K,A*3D::$GNRMC,193344.00,A,3602.898327,N,11507.865815,W,0.0,,011219,12.3,E,A*28::$GPRMC,193333.00,A,3602.898328,N,11507.865815,W,0.0,,011219,12.3,E,A*39::$GPGGA,193333.00,3602.898328,N,11507.865815,W,1,00,0.8,621.0,M,-18.0,M,,*5D::$GNGGA,193344.00,3602.898327,N,11507.865815,W,1,12,0.8,622.0,M,-18.0,M,,*4C::$GNGSA,A,3,69,70,71,79,80,85,,,,,,,1.1,0.8,0.8,2*37::$GPGSA,A,1,,,,,,,,,,,,,1.1,0.8,0.8,1*2D::$GAGSV,1,1,0,*74::$GLGSV,3,3,09,87,01,343,*56::$GBGSV,1,1,0,*77::$PQGSV,1,1,0,*73",3731,2019-12-01 11:33:43:805
0.45224,4.185043,8.461029,0.099763,5.009229,8.430188,0.447643,-0.756253,0.095516,0.28302,0.552612,-1.199112,150.0,-14.5493,-3.5553,-42.6086,37.898,-30.7171,-0.678,8.0,947.3891,21.09822,36.048306,-115.131096,603.0,NaN,0.0047588805,0.0,13.936001,,15 / 23,"$GPVTG,,T,,M,0.0,N,0.0,K,A*23::$GPGSV,3,3,12,32,42,047,26,08,02,229,,23,02,253,,26,02,154,*78::$GNVTG,,T,,M,0.0,N,0.0,K,A*3D::$GNRMC,193344.00,A,3602.898327,N,11507.865815,W,0.0,,011219,12.3,E,A*28::$GPRMC,193333.00,A,3602.898328,N,11507.865815,W,0.0,,011219,12.3,E,A*39::$GPGGA,193333.00,3602.898328,N,11507.865815,W,1,00,0.8,621.0,M,-18.0,M,,*5D::$GNGGA,193344.00,3602.898327,N,11507.865815,W,1,12,0.8,622.0,M,-18.0,M,,*4C::$GNGSA,A,3,69,70,71,79,80,85,,,,,,,1.1,0.8,0.8,2*37::$GPGSA,A,1,,,,,,,,,,,,,1.1,0.8,0.8,1*2D::$GAGSV,1,1,0,*74::$GLGSV,3,3,09,87,01,343,*56::$GBGSV,1,1,0,*77::$PQGSV,1,1,0,*73",3831,2019-12-01 11:33:43:905
1.225128,5.603989,7.061219,-0.661364,5.387991,8.167162,2.109463,0.29249,-1.049129,0.328217,0.672333,-1.359161,150.0,-11.7798,-6.868,-43.3228,42.4981,-32.8319,2.6846,8.0,947.3924,21.54901,36.048306,-115.131096,603.0,NaN,-0.023318555,0.0,13.936001,,15 / 23,"$GPVTG,,T,,M,0.0,N,0.0,K,A*23::$GPGSV,3,3,12,32,42,047,26,08,02,229,,23,02,253,,26,02,154,*78::$GNVTG,,T,,M,0.0,N,0.0,K,A*3D::$GNRMC,193344.00,A,3602.898327,N,11507.865815,W,0.0,,011219,12.3,E,A*28::$GPRMC,193333.00,A,3602.898328,N,11507.865815,W,0.0,,011219,12.3,E,A*39::$GPGGA,193333.00,3602.898328,N,11507.865815,W,1,00,0.8,621.0,M,-18.0,M,,*5D::$GNGGA,193344.00,3602.898327,N,11507.865815,W,1,12,0.8,622.0,M,-18.0,M,,*4C::$GNGSA,A,3,69,70,71,79,80,85,,,,,,,1.1,0.8,0.8,2*37::$GPGSA,A,1,,,,,,,,,,,,,1.1,0.8,0.8,1*2D::$GAGSV,1,1,0,*74::$GLGSV,3,3,09,87,01,343,*56::$GBGSV,1,1,0,*77::$PQGSV,1,1,0,*73",3931,2019-12-01 11:33:44:005
-0.693924,5.539383,7.843674,-1.483218,5.54969,7.948045,0.867779,0.101319,-0.092321,0.356323,-0.201172,-1.586395,162.0,-11.8591,-10.2448,-44.0399,53.0986,-34.1339,8.6134,8.0,947.3938,21.54901,36.048306,-115.131096,603.0,NaN,-0.03473991,0.0,13.936001,,15 / 23,"$GPVTG,,T,,M,0.0,N,0.0,K,A*23::$GPGSV,3,3,12,32,42,047,26,08,02,229,,23,02,253,,26,02,154,*78::$GNVTG,,T,,M,0.0,N,0.0,K,A*3D::$GNRMC,193344.00,A,3602.898327,N,11507.865815,W,0.0,,011219,12.3,E,A*28::$GPRMC,193333.00,A,3602.898328,N,11507.865815,W,0.0,,011219,12.3,E,A*39::$GPGGA,193333.00,3602.898328,N,11507.865815,W,1,00,0.8,621.0,M,-18.0,M,,*5D::$GNGGA,193344.00,3602.898327,N,11507.865815,W,1,12,0.8,622.0,M,-18.0,M,,*4C::$GNGSA,A,3,69,70,71,79,80,85,,,,,,,1.1,0.8,0.8,2*37::$GPGSA,A,1,,,,,,,,,,,,,1.1,0.8,0.8,1*2D::$GAGSV,1,1,0,*74::$GLGSV,3,3,09,87,01,343,*56::$GBGSV,1,1,0,*77::$PQGSV,1,1,0,*73",4031,2019-12-01 11:33:44:105
-1.229904,5.479569,8.049454,-1.833482,5.430541,7.957258,0.507892,0.096114,0.17787,0.217041,-0.665421,-1.394592,162.0,-10.5148,-13.6093,-41.0828,65.4548,-33.6254,12.9754,8.0,947.3938,21.54901,36.048306,-115.131096,603.0,NaN,-0.03473991,0.0,13.936001,,15 / 23,"$GPVTG,,T,,M,0.0,N,0.0,K,A*23::$GPGSV,3,3,12,32,42,047,28,08,02,229,,23,02,253,,26,02,154,*76::$GNVTG,,T,,M,0.0,N,0.0,K,A*3D::$GNRMC,193345.00,A,3602.898325,N,11507.865815,W,0.0,,011219,12.3,E,A*2B::$GPRMC,193333.00,A,3602.898328,N,11507.865815,W,0.0,,011219,12.3,E,A*39::$GPGGA,193333.00,3602.898328,N,11507.865815,W,1,00,0.8,621.0,M,-18.0,M,,*5D::$GNGGA,193345.00,3602.898325,N,11507.865815,W,1,12,0.8,622.0,M,-18.0,M,,*4F::$GNGSA,A,3,69,70,71,79,80,85,,,,,,,1.1,0.8,0.8,2*37::$GPGSA,A,1,,,,,,,,,,,,,1.1,0.8,0.8,1*2D::$GAGSV,1,1,0,*74::$GLGSV,3,3,09,87,01,343,*56::$GBGSV,1,1,0,*77::$PQGSV,1,1,0,*73",4131,2019-12-01 11:33:44:205
-1.316055,5.469986,6.977478,-2.069919,5.227029,8.035173,0.74673,0.3158,-0.95768,0.02034,-0.950073,-1.329834,150.0,-12.6816,-15.0055,-41.8121,72.8932,-32.6748,14.532,8.0,947.3983,21.41565,36.048306,-115.131096,603.0,NaN,-0.07233533,0.0,13.936001,,15 / 23,"$GPVTG,,T,,M,0.0,N,0.0,K,A*23::$GPGSV,3,3,12,32,42,047,28,08,02,229,,23,02,253,,26,02,154,*76::$GNVTG,,T,,M,0.0,N,0.0,K,A*3D::$GNRMC,193345.00,A,3602.898325,N,11507.865815,W,0.0,,011219,12.3,E,A*2B::$GPRMC,193333.00,A,3602.898328,N,11507.865815,W,0.0,,011219,12.3,E,A*39::$GPGGA,193333.00,3602.898328,N,11507.865815,W,1,00,0.8,621.0,M,-18.0,M,,*5D::$GNGGA,193345.00,3602.898325,N,11507.865815,W,1,12,0.8,622.0,M,-18.0,M,,*4F::$GNGSA,A,3,69,70,71,79,80,85,,,,,,,1.1,0.8,0.8,2*37::$GPGSA,A,1,,,,,,,,,,,,,1.1,0.8,0.8,1*2D::$GAGSV,1,1,0,*74::$GLGSV,3,3,09,87,01,343,*56::$GBGSV,1,1,0,*77::$PQGSV,1,1,0,*73",4231,2019-12-01 11:33:44:305
-0.06221,5.103897,6.417557,-1.981282,4.971747,8.21746,1.184487,0.219655,-1.907731,-0.596603,-0.992844,-1.54364,150.0,-12.9364,-17.7933,-40.9058,81.9489,-30.4627,13.5557,8.0,947.3983,21.41565,36.048306,-115.131096,603.0,NaN,-0.07233533,0.0,13.936001,,15 / 23,"$GPVTG,,T,,M,0.0,N,0.0,K,A*23::$GPGSV,3,3,12,32,42,047,28,08,02,229,,23,02,253,,26,02,154,*76::$GNVTG,,T,,M,0.0,N,0.0,K,A*3D::$GNRMC,193345.00,A,3602.898325,N,11507.865815,W,0.0,,011219,12.3,E,A*2B::$GPRMC,193333.00,A,3602.898328,N,11507.865815,W,0.0,,011219,12.3,E,A*39::$GPGGA,193333.00,3602.898328,N,11507.865815,W,1,00,0.8,621.0,M,-18.0,M,,*5D::$GNGGA,193345.00,3602.898325,N,11507.865815,W,1,12,0.8,622.0,M,-18.0,M,,*4F::$GNGSA,A,3,69,70,71,79,80,85,,,,,,,1.1,0.8,0.8,2*37::$GPGSA,A,1,,,,,,,,,,,,,1.1,0.8,0.8,1*2D::$GAGSV,1,1,0,*74::$GLGSV,3,3,09,87,01,343,*56::$GBGSV,1,1,0,*77::$PQGSV,1,1,0,*73",4333,2019-12-01 11:33:44:407
-0.093323,4.453049,9.427719,-1.651631,4.27291,8.670914,1.572021,0.267416,0.698558,-0.37059,-1.51329,-1.48378,143.0,-15.7532,-16.5115,-39.4455,90.3179,-26.4825,11.9207,8.0,947.3994,21.41565,36.048306,-115.131096,603.0,NaN,-0.08232908,0.0,13.936001,,15 / 23,"$GPVTG,,T,,M,0.0,N,0.0,K,A*23::$GPGSV,3,3,12,32,42,047,28,08,02,229,,23,02,253,,26,02,154,*76::$GNVTG,,T,,M,0.0,N,0.0,K,A*3D::$GNRMC,193345.00,A,3602.898325,N,11507.865815,W,0.0,,011219,12.3,E,A*2B::$GPRMC,193333.00,A,3602.898328,N,11507.865815,W,0.0,,011219,12.3,E,A*39::$GPGGA,193333.00,3602.898328,N,11507.865815,W,1,00,0.8,621.0,M,-18.0,M,,*5D::$GNGGA,193345.00,3602.898325,N,11507.865815,W,1,12,0.8,622.0,M,-18.0,M,,*4F::$GNGSA,A,3,69,70,71,79,80,85,,,,,,,1.1,0.8,0.8,2*37::$GPGSA,A,1,,,,,,,,,,,,,1.1,0.8,0.8,1*2D::$GAGSV,1,1,0,*74::$GLGSV,3,3,09,87,01,343,*56::$GBGSV,1,1,0,*77::$PQGSV,1,1,0,*73",4431,2019-12-01 11:33:44:505
-0.258423,3.756729,10.674377,-1.171719,3.64108,9.02995,0.987429,0.198949,1.696094,-0.699234,-1.563385,-1.678024,143.0,-17.1921,-17.2226,-38.707,94.1772,-23.5679,9.114,8.0,947.392,21.23282,36.048306,-115.131096,603.0,NaN,-0.01998733,0.0,13.936001,,15 / 23,"$GPVTG,,T,,M,0.0,N,0.0,K,A*23::$GPGSV,3,3,12,32,42,047,28,08,02,229,,23,02,253,,26,02,154,*76::$GNVTG,,T,,M,0.0,N,0.0,K,A*3D::$GNRMC,193345.00,A,3602.898325,N,11507.865815,W,0.0,,011219,12.3,E,A*2B::$GPRMC,193333.00,A,3602.898328,N,11507.865815,W,0.0,,011219,12.3,E,A*39::$GPGGA,193333.00,3602.898328,N,11507.865815,W,1,00,0.8,621.0,M,-18.0,M,,*5D::$GNGGA,193345.00,3602.898325,N,11507.865815,W,1,12,0.8,622.0,M,-18.0,M,,*4F::$GNGSA,A,3,69,70,71,79,80,85,,,,,,,1.1,0.8,0.8,2*37::$GPGSA,A,1,,,,,,,,,,,,,1.1,0.8,0.8,1*2D::$GAGSV,1,1,0,*74::$GLGSV,3,3,09,87,01,343,*56::$GBGSV,1,1,0,*77::$PQGSV,1,1,0,*73",4532,2019-12-01 11:33:44:606
-0.016754,3.342774,9.001801,-0.479429,3.255052,9.238245,0.223656,0.17895,1.065742,-0.060272,-1.067383,-0.995071,144.0,-20.0729,-18.6462,-37.2314,105.3331,-19.3855,2.9708,8.0,947.392,21.23282,36.048306,-115.131096,603.0,NaN,-0.01998733,0.0,13.936001,,15 / 23,"$GPVTG,,T,,M,0.0,N,0.0,K,A*23::$GPGSV,3,3,12,32,42,047,28,08,02,229,,23,02,253,,26,02,154,*76::$GNVTG,,T,,M,0.0,N,0.0,K,A*3D::$GNRMC,193345.00,A,3602.898325,N,11507.865815,W,0.0,,011219,12.3,E,A*2B::$GPRMC,193333.00,A,3602.898328,N,11507.865815,W,0.0,,011219,12.3,E,A*39::$GPGGA,193333.00,3602.898328,N,11507.865815,W,1,00,0.8,621.0,M,-18.0,M,,*5D::$GNGGA,193345.00,3602.898325,N,11507.865815,W,1,12,0.8,622.0,M,-18.0,M,,*4F::$GNGSA,A,3,69,70,71,79,80,85,,,,,,,1.1,0.8,0.8,2*37::$GPGSA,A,1,,,,,,,,,,,,,1.1,0.8,0.8,1*2D::$GAGSV,1,1,0,*74::$GLGSV,3,3,09,87,01,343,*56::$GBGSV,1,1,0,*77::$PQGSV,1,1,0,*73",4631,2019-12-01 11:33:44:705
0.236893,2.897705,9.427719,0.683346,3.236421,9.231956,-0.474286,-0.282888,0.457287,0.633637,-1.650131,-0.207077,144.0,-25.09,-20.1279,-33.5541,109.8805,-18.7865,-2.7761,8.0,947.3932,21.23282,36.048306,-115.131096,603.0,NaN,-0.029981012,0.0,13.936001,,15 / 23,"$GPVTG,,T,,M,0.0,N,0.0,K,A*23::$GPGSV,3,3,12,32,42,047,28,08,02,229,,23,02,253,,26,02,154,*76::$GNVTG,,T,,M,0.0,N,0.0,K,A*3D::$GNRMC,193345.00,A,3602.898325,N,11507.865815,W,0.0,,011219,12.3,E,A*2B::$GPRMC,193333.00,A,3602.898328,N,11507.865815,W,0.0,,011219,12.3,E,A*39::$GPGGA,193333.00,3602.898328,N,11507.865815,W,1,00,0.8,621.0,M,-18.0,M,,*5D::$GNGGA,193345.00,3602.898325,N,11507.865815,W,1,12,0.8,622.0,M,-18.0,M,,*4F::$GNGSA,A,3,69,70,71,79,80,85,,,,,,,1.1,0.8,0.8,2*37::$GPGSA,A,1,,,,,,,,,,,,,1.1,0.8,0.8,1*2D::$GAGSV,1,1,0,*74::$GLGSV,3,3,09,87,01,343,*56::$GBGSV,1,1,0,*77::$PQGSV,1,1,0,*73",4731,2019-12-01 11:33:44:805
2.1344,3.476776,8.915665,2.35538,3.802853,8.72702,-0.214904,-0.295107,0.336079,0.80835,-2.094849,0.346344,147.0,-28.0136,-23.6053,-26.9257,114.6682,-22.8166,-15.104,8.0,947.3958,21.23282,36.048306,-115.131096,603.0,NaN,-0.05139609,0.0,13.936001,,15 / 23,"$GPVTG,,T,,M,0.0,N,0.0,K,A*23::$GPGSV,3,3,12,32,42,047,28,08,02,229,,23,02,253,,26,02,154,*76::$GNVTG,,T,,M,0.0,N,0.0,K,A*3D::$GNRMC,193345.00,A,3602.898325,N,11507.865815,W,0.0,,011219,12.3,E,A*2B::$GPRMC,193333.00,A,3602.898328,N,11507.865815,W,0.0,,011219,12.3,E,A*39::$GPGGA,193333.00,3602.898328,N,11507.865815,W,1,00,0.8,621.0,M,-18.0,M,,*5D::$GNGGA,193345.00,3602.898325,N,11507.865815,W,1,12,0.8,622.0,M,-18.0,M,,*4F::$GNGSA,A,3,69,70,71,79,80,85,,,,,,,1.1,0.8,0.8,2*37::$GPGSA,A,1,,,,,,,,,,,,,1.1,0.8,0.8,1*2D::$GAGSV,1,1,0,*74::$GLGSV,3,3,09,87,01,343,*56::$GBGSV,1,1,0,*77::$PQGSV,1,1,0,*73",4831,2019-12-01 11:33:44:905
3.634705,4.826325,8.786438,3.868939,4.582291,7.759144,-0.246577,0.229641,1.111684,1.345917,-1.255508,0.605362,147.0,-34.4513,-25.1404,-18.84,109.5264,-26.5548,-24.0333,8.0,947.3958,21.31703,36.048306,-115.131096,603.0,NaN,-0.05139609,0.0,13.936001,,15 / 23,"$GPVTG,,T,,M,0.0,N,0.0,K,A*23::$GPGSV,3,3,12,32,42,047,28,08,02,229,,23,02,253,,26,02,154,*76::$GNVTG,,T,,M,0.0,N,0.0,K,A*3D::$GNRMC,193345.00,A,3602.898325,N,11507.865815,W,0.0,,011219,12.3,E,A*2B::$GPRMC,193333.00,A,3602.898328,N,11507.865815,W,0.0,,011219,12.3,E,A*39::$GPGGA,193333.00,3602.898328,N,11507.865815,W,1,00,0.8,621.0,M,-18.0,M,,*5D::$GNGGA,193345.00,3602.898325,N,11507.865815,W,1,12,0.8,622.0,M,-18.0,M,,*4F::$GNGSA,A,3,69,70,71,79,80,85,,,,,,,1.1,0.8,0.8,2*37::$GPGSA,A,1,,,,,,,,,,,,,1.1,0.8,0.8,1*2D::$GAGSV,1,1,0,*74::$GLGSV,3,3,09,87,01,343,*56::$GBGSV,1,1,0,*77::$PQGSV,1,1,0,*73",4932,2019-12-01 11:33:45:006
2.971893,4.948365,8.140381,4.875363,5.411539,6.566314,-1.881909,-0.408816,1.69703,1.768631,-1.122345,0.925446,150.0,-35.9055,-26.5488,-13.6902,102.2716,-33.4922,-36.5932,8.0,947.3953,21.31703,36.048306,-115.131096,603.0,NaN,-0.04711307,0.0,13.936001,,15 / 23,"$GPVTG,,T,,M,0.0,N,0.0,K,A*23::$GPGSV,3,3,12,32,42,047,28,08,02,229,,23,02,253,,26,02,154,*76::$GNVTG,,T,,M,0.0,N,0.0,K,A*3D::$GNRMC,193345.00,A,3602.898325,N,11507.865815,W,0.0,,011219,12.3,E,A*2B::$GPRMC,193333.00,A,3602.898328,N,11507.865815,W,0.0,,011219,12.3,E,A*39::$GPGGA,193333.00,3602.898328,N,11507.865815,W,1,00,0.8,621.0,M,-18.0,M,,*5D::$GNGGA,193345.00,3602.898325,N,11507.865815,W,1,12,0.8,622.0,M,-18.0,M,,*4F::$GNGSA,A,3,69,70,71,79,80,85,,,,,,,1.1,0.8,0.8,2*37::$GPGSA,A,1,,,,,,,,,,,,,1.1,0.8,0.8,1*2D::$GAGSV,1,1,0,*74::$GLGSV,3,3,09,87,01,343,*56::$GBGSV,1,1,0,*77::$PQGSV,1,1,0,*73",5031,2019-12-01 11:33:45:105
4.977066,6.238083,7.972885,6.032552,5.824914,5.084199,-0.961522,0.469617,2.971628,1.069809,-0.771713,1.03418,150.0,-39.3646,-22.6273,-2.6932,89.1009,-36.4397,-49.876,8.0,947.3953,21.31703,36.048306,-115.131096,603.0,NaN,-0.04711307,0.0,13.936001,,15 / 23,"$GPVTG,,T,,M,0.0,N,0.0,K,A*23::$GPGSV,3,3,12,32,42,047,26,08,02,229,,23,02,253,,26,02,154,*78::$GNVTG,,T,,M,0.0,N,0.0,K,A*3D::$GNRMC,193346.00,A,3602.898327,N,11507.865813,W,0.0,,011219,12.3,E,A*2C::$GPRMC,193333.00,A,3602.898328,N,11507.865815,W,0.0,,011219,12.3,E,A*39::$GPGGA,193333.00,3602.898328,N,11507.865815,W,1,00,0.8,621.0,M,-18.0,M,,*5D::$GNGGA,193346.00,3602.898327,N,11507.865813,W,1,12,0.8,622.0,M,-18.0,M,,*48::$GNGSA,A,3,69,70,71,79,80,85,,,,,,,1.1,0.8,0.8,2*37::$GPGSA,A,1,,,,,,,,,,,,,1.1,0.8,0.8,1*2D::$GAGSV,1,1,0,*74::$GLGSV,3,3,09,87,01,343,*56::$GBGSV,1,1,0,*77::$PQGSV,1,1,0,*73",5131,2019-12-01 11:33:45:205
5.93898,6.063416,5.101502,6.937417,5.867575,3.689742,-1.084167,0.268959,1.894457,1.943344,-0.805923,1.504547,150.0,-41.4032,-18.6462,3.8971,78.4898,-37.0726,-60.0087,8.0,947.3923,21.29367,36.048306,-115.131096,603.0,NaN,-0.022842666,0.0,13.936001,,15 / 23,"$GPVTG,,T,,M,0.0,N,0.0,K,A*23::$GPGSV,3,3,12,32,42,047,26,08,02,229,,23,02,253,,26,02,154,*78::$GNVTG,,T,,M,0.0,N,0.0,K,A*3D::$GNRMC,193346.00,A,3602.898327,N,11507.865813,W,0.0,,011219,12.3,E,A*2C::$GPRMC,193333.00,A,3602.898328,N,11507.865815,W,0.0,,011219,12.3,E,A*39::$GPGGA,193333.00,3602.898328,N,11507.865815,W,1,00,0.8,621.0,M,-18.0,M,,*5D::$GNGGA,193346.00,3602.898327,N,11507.865813,W,1,12,0.8,622.0,M,-18.0,M,,*48::$GNGSA,A,3,69,70,71,79,80,85,,,,,,,1.1,0.8,0.8,2*37::$GPGSA,A,1,,,,,,,,,,,,,1.1,0.8,0.8,1*2D::$GAGSV,1,1,0,*74::$GLGSV,3,3,09,87,01,343,*56::$GBGSV,1,1,0,*77::$PQGSV,1,1,0,*73",5231,2019-12-01 11:33:45:305
7.5374,5.929413,2.36171,7.862083,5.37006,2.349574,-0.404994,0.555915,0.489277,1.211533,-0.616562,1.133133,150.0,-44.8196,-12.6617,8.2718,60.8153,-33.2021,-73.3613,8.0,947.3937,21.29367,36.048306,-115.131096,603.0,NaN,-0.034264024,0.0,13.936001,,15 / 23,"$GPVTG,,T,,M,0.0,N,0.0,K,A*23::$GPGSV,3,3,12,32,42,047,26,08,02,229,,23,02,253,,26,02,154,*78::$GNVTG,,T,,M,0.0,N,0.0,K,A*3D::$GNRMC,193346.00,A,3602.898327,N,11507.865813,W,0.0,,011219,12.3,E,A*2C::$GPRMC,193333.00,A,3602.898328,N,11507.865815,W,0.0,,011219,12.3,E,A*39::$GPGGA,193333.00,3602.898328,N,11507.865815,W,1,00,0.8,621.0,M,-18.0,M,,*5D::$GNGGA,193346.00,3602.898327,N,11507.865813,W,1,12,0.8,622.0,M,-18.0,M,,*48::$GNGSA,A,3,69,70,71,79,80,85,,,,,,,1.1,0.8,0.8,2*37::$GPGSA,A,1,,,,,,,,,,,,,1.1,0.8,0.8,1*2D::$GAGSV,1,1,0,*74::$GLGSV,3,3,09,87,01,343,*56::$GBGSV,1,1,0,*77::$PQGSV,1,1,0,*73",5331,2019-12-01 11:33:45:405
8.616562,5.888733,0.545563,8.464431,4.771095,1.32682,0.328525,1.183439,-0.711781,0.451614,-0.219498,0.463654,138.0,-45.433,-8.6411,12.6572,51.8809,-30.3328,-79.2212,8.0,947.3937,21.29367,36.048306,-115.131096,603.0,NaN,-0.034264024,0.0,13.936001,,15 / 23,"$GPVTG,,T,,M,0.0,N,0.0,K,A*23::$GPGSV,3,3,12,32,42,047,26,08,02,229,,23,02,253,,26,02,154,*78::$GNVTG,,T,,M,0.0,N,0.0,K,A*3D::$GNRMC,193346.00,A,3602.898327,N,11507.865813,W,0.0,,011219,12.3,E,A*2C::$GPRMC,193333.00,A,3602.898328,N,11507.865815,W,0.0,,011219,12.3,E,A*39::$GPGGA,193333.00,3602.898328,N,11507.865815,W,1,00,0.8,621.0,M,-18.0,M,,*5D::$GNGGA,193346.00,3602.898327,N,11507.865813,W,1,12,0.8,622.0,M,-18.0,M,,*48::$GNGSA,A,3,69,70,71,79,80,85,,,,,,,1.1,0.8,0.8,2*37::$GPGSA,A,1,,,,,,,,,,,,,1.1,0.8,0.8,1*2D::$GAGSV,1,1,0,*74::$GLGSV,3,3,09,87,01,343,*56::$GBGSV,1,1,0,*77::$PQGSV,1,1,0,*73",5430,2019-12-01 11:33:45:504
7.475174,4.319046,0.983444,8.709661,4.418886,0.88637,-1.55695,-0.023672,0.369803,0.75827,-0.702087,0.953552,138.0,-44.6732,-6.5979,12.6465,52.6846,-26.7822,-84.1891,8.0,947.3845,21.63648,36.048306,-115.131096,603.0,NaN,0.043781593,0.0,13.936001,,15 / 23,"$GPVTG,,T,,M,0.0,N,0.0,K,A*23::$GPGSV,3,3,12,32,42,047,26,08,02,229,,23,02,253,,26,02,154,*78::$GNVTG,,T,,M,0.0,N,0.0,K,A*3D::$GNRMC,193346.00,A,3602.898327,N,11507.865813,W,0.0,,011219,12.3,E,A*2C::$GPRMC,193333.00,A,3602.898328,N,11507.865815,W,0.0,,011219,12.3,E,A*39::$GPGGA,193333.00,3602.898328,N,11507.865815,W,1,00,0.8,621.0,M,-18.0,M,,*5D::$GNGGA,193346.00,3602.898327,N,11507.865813,W,1,12,0.8,622.0,M,-18.0,M,,*48::$GNGSA,A,3,69,70,71,79,80,85,,,,,,,1.1,0.8,0.8,2*37::$GPGSA,A,1,,,,,,,,,,,,,1.1,0.8,0.8,1*2D::$GAGSV,1,1,0,*74::$GLGSV,3,3,09,87,01,343,*56::$GBGSV,1,1,0,*77::$PQGSV,1,1,0,*73",5531,2019-12-01 11:33:45:605
8.348557,3.45285,0.088531,9.142711,3.546724,0.04438,-0.226486,-0.12485,-0.476605,0.853561,-0.467514,1.168579,128.0,-44.5297,-0.5203,14.8178,46.0089,-22.732,-88.5949,8.0,947.3843,21.63648,36.048306,-115.131096,603.0,NaN,0.045685135,0.0,13.936001,,15 / 23,"$GPVTG,,T,,M,0.0,N,0.0,K,A*23::$GPGSV,3,3,12,32,42,047,26,08,02,229,,23,02,253,,26,02,154,*78::$GNVTG,,T,,M,0.0,N,0.0,K,A*3D::$GNRMC,193346.00,A,3602.898327,N,11507.865813,W,0.0,,011219,12.3,E,A*2C::$GPRMC,193333.00,A,3602.898328,N,11507.865815,W,0.0,,011219,12.3,E,A*39::$GPGGA,193333.00,3602.898328,N,11507.865815,W,1,00,0.8,621.0,M,-18.0,M,,*5D::$GNGGA,193346.00,3602.898327,N,11507.865813,W,1,12,0.8,622.0,M,-18.0,M,,*48::$GNGSA,A,3,69,70,71,79,80,85,,,,,,,1.1,0.8,0.8,2*37::$GPGSA,A,1,,,,,,,,,,,,,1.1,0.8,0.8,1*2D::$GAGSV,1,1,0,*74::$GLGSV,3,3,09,87,01,343,*56::$GBGSV,1,1,0,*77::$PQGSV,1,1,0,*73",5631,2019-12-01 11:33:45:705
8.441879,2.388031,0.531204,9.440124,2.643116,-0.26155,-0.74254,-0.156102,0.760038,0.553009,0.32048,0.673782,128.0,-44.4015,4.8828,16.2582,41.3498,-15.6359,-91.587,8.0,947.3843,21.63648,36.048306,-115.131096,603.0,NaN,0.045685135,0.0,13.936001,,15 / 23,"$GPVTG,,T,,M,0.0,N,0.0,K,A*23::$GPGSV,3,3,12,32,42,047,26,08,02,229,,23,02,253,,26,02,154,*78::$GNVTG,,T,,M,0.0,N,0.0,K,A*3D::$GNRMC,193346.00,A,3602.898327,N,11507.865813,W,0.0,,011219,12.3,E,A*2C::$GPRMC,193333.00,A,3602.898328,N,11507.865815,W,0.0,,011219,12.3,E,A*39::$GPGGA,193333.00,3602.898328,N,11507.865815,W,1,00,0.8,621.0,M,-18.0,M,,*5D::$GNGGA,193346.00,3602.898327,N,11507.865813,W,1,12,0.8,622.0,M,-18.0,M,,*48::$GNGSA,A,3,69,70,71,79,80,85,,,,,,,1.1,0.8,0.8,2*37::$GPGSA,A,1,,,,,,,,,,,,,1.1,0.8,0.8,1*2D::$GAGSV,1,1,0,*74::$GLGSV,3,3,09,87,01,343,*56::$GBGSV,1,1,0,*77::$PQGSV,1,1,0,*73",5731,2019-12-01 11:33:45:805
8.042282,1.74437,0.10289,9.61143,1.942808,0.127715,-0.625068,-0.020369,-0.537636,0.388092,0.687012,0.635895,118.0,-42.8665,9.6588,14.0305,39.5071,-12.1634,-89.8859,8.0,947.3799,21.13907,36.048306,-115.131096,603.0,NaN,0.08185235,0.0,13.936001,,15 / 23,"$GPVTG,,T,,M,0.0,N,0.0,K,A*23::$GPGSV,3,3,12,32,42,047,26,08,02,229,,23,02,253,,26,02,154,*78::$GNVTG,,T,,M,0.0,N,0.0,K,A*3D::$GNRMC,193346.00,A,3602.898327,N,11507.865813,W,0.0,,011219,12.3,E,A*2C::$GPRMC,193333.00,A,3602.898328,N,11507.865815,W,0.0,,011219,12.3,E,A*39::$GPGGA,193333.00,3602.898328,N,11507.865815,W,1,00,0.8,621.0,M,-18.0,M,,*5D::$GNGGA,193346.00,3602.898327,N,11507.865813,W,1,12,0.8,622.0,M,-18.0,M,,*48::$GNGSA,A,3,69,70,71,79,80,85,,,,,,,1.1,0.8,0.8,2*37::$GPGSA,A,1,,,,,,,,,,,,,1.1,0.8,0.8,1*2D::$GAGSV,1,1,0,*74::$GLGSV,3,3,09,87,01,343,*56::$GBGSV,1,1,0,*77::$PQGSV,1,1,0,*73",5831,2019-12-01 11:33:45:905
8.867798,1.103088,0.811173,9.702835,1.333338,0.497573,-0.66822,-0.19794,0.244174,0.356323,0.61615,0.334137,118.0,-43.4998,13.0463,9.6024,33.1697,-7.8143,-87.0644,8.0,947.3763,21.13907,36.048306,-115.131096,603.0,NaN,0.11230882,0.0,13.936001,,15 / 23,"$GPVTG,,T,,M,0.0,N,0.0,K,A*23::$GPGSV,3,3,12,32,42,047,26,08,02,229,,23,02,253,,26,02,154,*78::$GNVTG,,T,,M,0.0,N,0.0,K,A*3D::$GNRMC,193346.00,A,3602.898327,N,11507.865813,W,0.0,,011219,12.3,E,A*2C::$GPRMC,193333.00,A,3602.898328,N,11507.865815,W,0.0,,011219,12.3,E,A*39::$GPGGA,193333.00,3602.898328,N,11507.865815,W,1,00,0.8,621.0,M,-18.0,M,,*5D::$GNGGA,193346.00,3602.898327,N,11507.865813,W,1,12,0.8,622.0,M,-18.0,M,,*48::$GNGSA,A,3,69,70,71,79,80,85,,,,,,,1.1,0.8,0.8,2*37::$GPGSA,A,1,,,,,,,,,,,,,1.1,0.8,0.8,1*2D::$GAGSV,1,1,0,*74::$GLGSV,3,3,09,87,01,343,*56::$GBGSV,1,1,0,*77::$PQGSV,1,1,0,*73",5931,2019-12-01 11:33:46:005
9.798615,1.253845,1.174881,9.636736,1.082222,1.460311,0.335122,0.182141,-0.287092,0.311111,1.131714,0.161865,113.0,-42.7734,13.7405,8.8654,37.4773,-6.5126,-82.8564,8.0,947.3763,21.13907,36.048306,-115.131096,603.0,NaN,0.11230882,0.0,13.936001,,15 / 23,"$GPVTG,,T,,M,0.0,N,0.0,K,A*23::$GPGSV,3,3,12,32,42,047,30,08,02,229,,23,02,253,,26,02,154,*7F::$GNVTG,,T,,M,0.0,N,0.0,K,A*3D::$GNRMC,193346.00,A,3602.898327,N,11507.865813,W,0.0,,011219,12.3,E,A*2C::$GPRMC,193333.00,A,3602.898328,N,11507.865815,W,0.0,,011219,12.3,E,A*39::$GPGGA,193333.00,3602.898328,N,11507.865815,W,1,00,0.8,621.0,M,-18.0,M,,*5D::$GNGGA,193346.00,3602.898327,N,11507.865813,W,1,12,0.8,622.0,M,-18.0,M,,*48::$GNGSA,A,3,69,70,71,79,80,85,,,,,,,1.1,0.8,0.8,2*37::$GPGSA,A,1,,,,,,,,,,,,,1.1,0.8,0.8,1*2D::$GAGSV,1,1,0,*74::$GLGSV,3,3,09,87,01,343,*56::$GBGSV,1,1,0,*77::$PQGSV,1,1,0,*73",6031,2019-12-01 11:33:46:105
10.58107,2.167893,4.266403,9.232783,1.439132,2.975737,1.685826,0.80808,0.854735,0.436951,2.553803,-1.017075,113.0,-45.578,15.744,0.7706,34.149,-8.4387,-72.1358,8.0,947.3759,21.13907,36.048306,-115.131096,603.0,NaN,0.116115876,0.0,13.936001,,15 / 23,"$GPVTG,,T,,M,0.0,N,0.0,K,A*23::$GPGSV,3,3,12,32,42,047,30,08,02,229,,23,02,253,,26,02,154,*7F::$GNVTG,,T,,M,0.0,N,0.0,K,A*3D::$GNRMC,193347.00,A,3602.898326,N,11507.865808,W,0.0,,011219,12.3,E,A*26::$GPRMC,193333.00,A,3602.898328,N,11507.865815,W,0.0,,011219,12.3,E,A*39::$GPGGA,193333.00,3602.898328,N,11507.865815,W,1,00,0.8,621.0,M,-18.0,M,,*5D::$GNGGA,193347.00,3602.898326,N,11507.865808,W,1,12,0.8,622.0,M,-18.0,M,,*42::$GNGSA,A,3,69,70,71,79,80,85,,,,,,,1.1,0.8,0.8,2*37::$GPGSA,A,1,,,,,,,,,,,,,1.1,0.8,0.8,1*2D::$GAGSV,1,1,0,*74::$GLGSV,3,3,09,87,01,343,*56::$GBGSV,1,1,0,*77::$PQGSV,1,1,0,*73",6131,2019-12-01 11:33:46:205
8.650055,2.01236,3.383453,8.150858,2.653764,4.763552,0.519333,-0.606157,-1.322996,0.49559,1.671722,-1.042725,118.0,-44.3192,9.0652,-10.2127,28.3603,-13.5062,-62.8153,8.0,947.377,21.23837,36.048306,-115.131096,603.0,NaN,0.10659824,0.0,13.936001,,15 / 23,"$GPVTG,,T,,M,0.0,N,0.0,K,A*23::$GPGSV,3,3,12,32,42,047,30,08,02,229,,23,02,253,,26,02,154,*7F::$GNVTG,,T,,M,0.0,N,0.0,K,A*3D::$GNRMC,193347.00,A,3602.898326,N,11507.865808,W,0.0,,011219,12.3,E,A*26::$GPRMC,193333.00,A,3602.898328,N,11507.865815,W,0.0,,011219,12.3,E,A*39::$GPGGA,193333.00,3602.898328,N,11507.865815,W,1,00,0.8,621.0,M,-18.0,M,,*5D::$GNGGA,193347.00,3602.898326,N,11507.865808,W,1,12,0.8,622.0,M,-18.0,M,,*42::$GNGSA,A,3,69,70,71,79,80,85,,,,,,,1.1,0.8,0.8,2*37::$GPGSA,A,1,,,,,,,,,,,,,1.1,0.8,0.8,1*2D::$GAGSV,1,1,0,*74::$GLGSV,3,3,09,87,01,343,*56::$GBGSV,1,1,0,*77::$PQGSV,1,1,0,*73",6231,2019-12-01 11:33:46:305
7.88913,3.232697,5.412567,7.419074,3.3652,5.459229,0.55824,-0.109345,-0.002863,0.30867,0.730988,-0.452621,118.0,-45.1447,4.3503,-17.5339,31.5102,-20.0692,-53.653,8.0,947.3784,21.23837,36.048306,-115.131096,603.0,NaN,0.0942253,0.0,13.936001,,15 / 23,"$GPVTG,,T,,M,0.0,N,0.0,K,A*23::$GPGSV,3,3,12,32,42,047,30,08,02,229,,23,02,253,,26,02,154,*7F::$GNVTG,,T,,M,0.0,N,0.0,K,A*3D::$GNRMC,193347.00,A,3602.898326,N,11507.865808,W,0.0,,011219,12.3,E,A*26::$GPRMC,193333.00,A,3602.898328,N,11507.865815,W,0.0,,011219,12.3,E,A*39::$GPGGA,193333.00,3602.898328,N,11507.865815,W,1,00,0.8,621.0,M,-18.0,M,,*5D::$GNGGA,193347.00,3602.898326,N,11507.865808,W,1,12,0.8,622.0,M,-18.0,M,,*42::$GNGSA,A,3,69,70,71,79,80,85,,,,,,,1.1,0.8,0.8,2*37::$GPGSA,A,1,,,,,,,,,,,,,1.1,0.8,0.8,1*2D::$GAGSV,1,1,0,*74::$GLGSV,3,3,09,87,01,343,*56::$GBGSV,1,1,0,*77::$PQGSV,1,1,0,*73",6330,2019-12-01 11:33:46:404
7.381851,3.476776,5.989243,6.672606,3.984276,5.980992,0.996998,-0.370909,-0.036269,0.347763,1.088944,-0.973099,119.0,-41.2537,3.8208,-20.3888,30.14,-23.9716,-48.1285,8.0,947.3784,21.23837,36.048306,-115.131096,603.0,NaN,0.0942253,0.0,13.936001,,15 / 23,"$GPVTG,,T,,M,0.0,N,0.0,K,A*23::$GPGSV,3,3,12,32,42,047,30,08,02,229,,23,02,253,,26,02,154,*7F::$GNVTG,,T,,M,0.0,N,0.0,K,A*3D::$GNRMC,193347.00,A,3602.898326,N,11507.865808,W,0.0,,011219,12.3,E,A*26::$GPRMC,193333.00,A,3602.898328,N,11507.865815,W,0.0,,011219,12.3,E,A*39::$GPGGA,193333.00,3602.898328,N,11507.865815,W,1,00,0.8,621.0,M,-18.0,M,,*5D::$GNGGA,193347.00,3602.898326,N,11507.865808,W,1,12,0.8,622.0,M,-18.0,M,,*42::$GNGSA,A,3,69,70,71,79,80,85,,,,,,,1.1,0.8,0.8,2*37::$GPGSA,A,1,,,,,,,,,,,,,1.1,0.8,0.8,1*2D::$GAGSV,1,1,0,*74::$GLGSV,3,3,09,87,01,343,*56::$GBGSV,1,1,0,*77::$PQGSV,1,1,0,*73",6431,2019-12-01 11:33:46:505
6.137589,4.311859,5.874375,5.775036,4.736666,6.35479,0.556142,-0.40587,-0.466417,0.253693,0.880051,-0.923004,119.0,-39.2105,-0.1678,-24.0387,32.0445,-27.2244,-44.168,8.0,947.3724,21.23393,36.048306,-115.131096,603.0,NaN,0.1446687,0.0,13.936001,,15 / 23,"$GPVTG,,T,,M,0.0,N,0.0,K,A*23::$GPGSV,3,3,12,32,42,047,30,08,02,229,,23,02,253,,26,02,154,*7F::$GNVTG,,T,,M,0.0,N,0.0,K,A*3D::$GNRMC,193347.00,A,3602.898326,N,11507.865808,W,0.0,,011219,12.3,E,A*26::$GPRMC,193333.00,A,3602.898328,N,11507.865815,W,0.0,,011219,12.3,E,A*39::$GPGGA,193333.00,3602.898328,N,11507.865815,W,1,00,0.8,621.0,M,-18.0,M,,*5D::$GNGGA,193347.00,3602.898326,N,11507.865808,W,1,12,0.8,622.0,M,-18.0,M,,*42::$GNGSA,A,3,69,70,71,79,80,85,,,,,,,1.1,0.8,0.8,2*37::$GPGSA,A,1,,,,,,,,,,,,,1.1,0.8,0.8,1*2D::$GAGSV,1,1,0,*74::$GLGSV,3,3,09,87,01,343,*56::$GBGSV,1,1,0,*77::$PQGSV,1,1,0,*73",6530,2019-12-01 11:33:46:604
