ACCELEROMETER X (m/s²),ACCELEROMETER Y (m/s²),ACCELEROMETER Z (m/s²),GRAVITY X (m/s²),GRAVITY Y (m/s²),GRAVITY Z (m/s²),LINEAR ACCELERATION X (m/s²),LINEAR ACCELERATION Y (m/s²),LINEAR ACCELERATION Z (m/s²),GYROSCOPE X (rad/s),GYROSCOPE Y (rad/s),GYROSCOPE Z (rad/s),LIGHT (lux),MAGNETIC FIELD X (μT),MAGNETIC FIELD Y (μT),MAGNETIC FIELD Z (μT),ORIENTATION Z (azimuth °),ORIENTATION X (pitch °),ORIENTATION Y (roll °),PROXIMITY (m),ATMOSPHERIC PRESSURE (hPa),SOUND LEVEL (dB),LOCATION Latitude : ,LOCATION Longitude : ,LOCATION Altitude ( m),LOCATION Altitude-google ( m),LOCATION Altitude-atmospheric pressure ( m),LOCATION Speed ( m/s),LOCATION Accuracy ( m),LOCATION ORIENTATION (°),Satellites in range,GPS NMEA,Time since start in ms ,YYYY-MO-DD HH-MI-SS_SSS
-0.112457,2.644074,9.533005,-0.376151,2.727792,9.412123,0.250099,-0.048669,0.247907,0.056992,0.044373,-0.082458,202.0,-17.8345,-3.1403,-42.0609,66.4009,-16.0757,2.1639,8.0,946.897,24.95952,36.048264,-115.131096,615.0,NaN,-0.05517413,0.0,9.648001,,14 / 22,"$GPVTG,,T,,M,0.0,N,0.0,K,A*23::$GPGSV,4,4,13,16,05,158,*45::$GNVTG,,T,,M,0.0,N,0.0,K,A*3D::$GNRMC,203438.00,A,3602.895883,N,11507.865568,W,0.0,,011219,12.3,E,A*21::$GPRMC,203334.00,A,3602.900606,N,11507.868379,W,0.0,,011219,12.3,E,A*31::$GPGGA,203334.00,3602.900606,N,11507.868379,W,1,00,1.1,624.0,M,-18.0,M,,*58::$GNGGA,203438.00,3602.895883,N,11507.865568,W,1,12,0.8,633.0,M,-18.0,M,,*45::$GNGSA,A,3,70,71,72,80,87,,,,,,,,1.1,0.8,0.8,2*31::$GPGSA,A,1,,,,,,,,,,,,,1.4,1.1,0.8,1*20::$GAGSV,1,1,0,*74::$GLGSV,2,2,08,87,14,317,21,71,51,347,22,72,14,303,20,85,00,000,*6C::$GBGSV,1,1,0,*77::$PQGSV,1,1,0,*73",36,2019-12-01 12:34:37:851
-0.098099,2.912064,9.413361,-0.357965,2.78551,9.395913,0.074861,0.218981,-0.088707,0.030121,0.057816,0.023819,202.0,-19.986,-3.8727,-40.5884,70.6045,-16.5016,2.1818,8.0,946.8925,24.95952,36.048264,-115.131096,615.0,NaN,-0.017598605,0.0,9.648001,,14 / 22,"$GPVTG,,T,,M,0.0,N,0.0,K,A*23::$GPGSV,4,4,13,16,05,158,*45::$GNVTG,,T,,M,0.0,N,0.0,K,A*3D::$GNRMC,203438.00,A,3602.895883,N,11507.865568,W,0.0,,011219,12.3,E,A*21::$GPRMC,203334.00,A,3602.900606,N,11507.868379,W,0.0,,011219,12.3,E,A*31::$GPGGA,203334.00,3602.900606,N,11507.868379,W,1,00,1.1,624.0,M,-18.0,M,,*58::$GNGGA,203438.00,3602.895883,N,11507.865568,W,1,12,0.8,633.0,M,-18.0,M,,*45::$GNGSA,A,3,70,71,72,80,87,,,,,,,,1.1,0.8,0.8,2*31::$GPGSA,A,1,,,,,,,,,,,,,1.4,1.1,0.8,1*20::$GAGSV,1,1,0,*74::$GLGSV,2,2,08,87,14,317,21,71,51,347,22,72,14,303,20,85,00,000,*6C::$GBGSV,1,1,0,*77::$PQGSV,1,1,0,*73",135,2019-12-01 12:34:37:950
-0.248856,2.892929,8.73381,-0.431242,2.820539,9.382376,0.146008,0.116402,-0.507668,-0.055405,0.170212,0.044586,202.0,-18.5623,-3.8467,-39.119,68.668,-16.7416,2.5569,8.0,946.8983,25.76793,36.048264,-115.131096,615.0,NaN,-0.06563824,0.0,9.648001,,14 / 22,"$GPVTG,,T,,M,0.0,N,0.0,K,A*23::$GPGSV,4,4,13,16,05,158,*45::$GNVTG,,T,,M,0.0,N,0.0,K,A*3D::$GNRMC,203438.00,A,3602.895883,N,11507.865568,W,0.0,,011219,12.3,E,A*21::$GPRMC,203334.00,A,3602.900606,N,11507.868379,W,0.0,,011219,12.3,E,A*31::$GPGGA,203334.00,3602.900606,N,11507.868379,W,1,00,1.1,624.0,M,-18.0,M,,*58::$GNGGA,203438.00,3602.895883,N,11507.865568,W,1,12,0.8,633.0,M,-18.0,M,,*45::$GNGSA,A,3,70,71,72,80,87,,,,,,,,1.1,0.8,0.8,2*31::$GPGSA,A,1,,,,,,,,,,,,,1.4,1.1,0.8,1*20::$GAGSV,1,1,0,*74::$GLGSV,2,2,08,87,14,317,21,71,51,347,22,72,14,303,20,85,00,000,*6C::$GBGSV,1,1,0,*77::$PQGSV,1,1,0,*73",235,2019-12-01 12:34:38:050
-0.823135,2.823532,9.626328,-0.845274,2.825806,9.352578,-2.7E-5,0.043795,0.390215,0.064331,0.355927,0.006714,202.0,-17.1051,-2.4506,-41.3269,71.9787,-16.6608,4.47,8.0,946.8983,25.76793,36.048264,-115.131096,615.0,NaN,-0.06563824,0.0,9.648001,,14 / 22,"$GPVTG,,T,,M,0.0,N,0.0,K,A*23::$GPGSV,4,4,13,16,05,158,*45::$GNVTG,,T,,M,0.0,N,0.0,K,A*3D::$GNRMC,203438.00,A,3602.895883,N,11507.865568,W,0.0,,011219,12.3,E,A*21::$GPRMC,203334.00,A,3602.900606,N,11507.868379,W,0.0,,011219,12.3,E,A*31::$GPGGA,203334.00,3602.900606,N,11507.868379,W,1,00,1.1,624.0,M,-18.0,M,,*58::$GNGGA,203438.00,3602.895883,N,11507.865568,W,1,12,0.8,633.0,M,-18.0,M,,*45::$GNGSA,A,3,70,71,72,80,87,,,,,,,,1.1,0.8,0.8,2*31::$GPGSA,A,1,,,,,,,,,,,,,1.4,1.1,0.8,1*20::$GAGSV,1,1,0,*74::$GLGSV,2,2,08,87,14,317,21,71,51,347,21,72,14,303,19,85,00,000,*65::$GBGSV,1,1,0,*77::$PQGSV,1,1,0,*73",335,2019-12-01 12:34:38:150
-1.459625,3.144165,9.360718,-1.369496,2.87733,9.274472,-0.17301,0.415052,0.413942,0.213379,0.823837,-0.006729,202.0,-15.7303,-4.4418,-42.7856,69.5273,-16.707,6.9793,8.0,946.8971,25.76793,36.048264,-115.131096,615.0,NaN,-0.056125414,0.0,9.648001,,14 / 22,"$GPVTG,,T,,M,0.0,N,0.0,K,A*23::$GPGSV,4,4,13,16,05,158,*45::$GNVTG,,T,,M,0.0,N,0.0,K,A*3D::$GNRMC,203439.00,A,3602.895881,N,11507.865566,W,0.0,,011219,12.3,E,A*2C::$GPRMC,203334.00,A,3602.900606,N,11507.868379,W,0.0,,011219,12.3,E,A*31::$GPGGA,203334.00,3602.900606,N,11507.868379,W,1,00,1.1,624.0,M,-18.0,M,,*58::$GNGGA,203439.00,3602.895881,N,11507.865566,W,1,12,0.8,633.0,M,-18.0,M,,*48::$GNGSA,A,3,70,71,72,80,87,,,,,,,,1.1,0.8,0.8,2*31::$GPGSA,A,1,,,,,,,,,,,,,1.4,1.1,0.8,1*20::$GAGSV,1,1,0,*74::$GLGSV,2,2,08,87,14,317,21,71,51,347,21,72,14,303,19,85,00,000,*65::$GBGSV,1,1,0,*77::$PQGSV,1,1,0,*73",435,2019-12-01 12:34:38:250
-0.954742,4.223328,11.023727,-1.338276,3.129354,9.197095,0.361253,1.066651,1.995238,0.538361,-0.416183,0.143539,205.0,-15.0177,-4.4205,-43.5211,68.8104,-17.7204,9.133,8.0,946.8971,26.95598,36.048264,-115.131096,615.0,NaN,-0.056125414,0.0,9.648001,,14 / 22,"$GPVTG,,T,,M,0.0,N,0.0,K,A*23::$GPGSV,4,4,13,16,05,158,*45::$GNVTG,,T,,M,0.0,N,0.0,K,A*3D::$GNRMC,203439.00,A,3602.895881,N,11507.865566,W,0.0,,011219,12.3,E,A*2C::$GPRMC,203334.00,A,3602.900606,N,11507.868379,W,0.0,,011219,12.3,E,A*31::$GPGGA,203334.00,3602.900606,N,11507.868379,W,1,00,1.1,624.0,M,-18.0,M,,*58::$GNGGA,203439.00,3602.895881,N,11507.865566,W,1,12,0.8,633.0,M,-18.0,M,,*48::$GNGSA,A,3,70,71,72,80,87,,,,,,,,1.1,0.8,0.8,2*31::$GPGSA,A,1,,,,,,,,,,,,,1.4,1.1,0.8,1*20::$GAGSV,1,1,0,*74::$GLGSV,2,2,08,87,14,317,21,71,51,347,21,72,14,303,19,85,00,000,*65::$GBGSV,1,1,0,*77::$PQGSV,1,1,0,*73",535,2019-12-01 12:34:38:350
-0.839874,5.30249,9.449265,-1.084028,3.884791,8.938886,0.21356,1.444976,0.609032,0.746048,0.024826,0.309708,205.0,-13.6581,-7.1014,-42.0364,67.6044,-19.8503,7.672,8.0,946.9067,26.95598,36.048264,-115.131096,615.0,NaN,-0.13698475,0.0,9.648001,,14 / 22,"$GPVTG,,T,,M,0.0,N,0.0,K,A*23::$GPGSV,4,4,13,16,05,158,*45::$GNVTG,,T,,M,0.0,N,0.0,K,A*3D::$GNRMC,203439.00,A,3602.895881,N,11507.865566,W,0.0,,011219,12.3,E,A*2C::$GPRMC,203334.00,A,3602.900606,N,11507.868379,W,0.0,,011219,12.3,E,A*31::$GPGGA,203334.00,3602.900606,N,11507.868379,W,1,00,1.1,624.0,M,-18.0,M,,*58::$GNGGA,203439.00,3602.895881,N,11507.865566,W,1,12,0.8,633.0,M,-18.0,M,,*48::$GNGSA,A,3,70,71,72,80,87,,,,,,,,1.1,0.8,0.8,2*31::$GPGSA,A,1,,,,,,,,,,,,,1.4,1.1,0.8,1*20::$GAGSV,1,1,0,*74::$GLGSV,2,2,08,87,14,317,21,71,51,347,21,72,14,303,19,85,00,000,*65::$GBGSV,1,1,0,*77::$PQGSV,1,1,0,*73",635,2019-12-01 12:34:38:450
-1.196411,5.69252,9.571289,-0.995051,4.719184,8.53871,-0.202128,0.989221,1.013276,1.00383,-0.039917,0.193634,192.0,-14.4638,-11.1847,-40.5457,61.2475,-27.5991,6.6764,8.0,946.8951,26.95598,36.048264,-115.131096,615.0,NaN,-0.039478004,0.0,9.648001,,14 / 22,"$GPVTG,,T,,M,0.0,N,0.0,K,A*23::$GPGSV,4,4,13,16,05,158,*45::$GNVTG,,T,,M,0.0,N,0.0,K,A*3D::$GNRMC,203439.00,A,3602.895881,N,11507.865566,W,0.0,,011219,12.3,E,A*2C::$GPRMC,203334.00,A,3602.900606,N,11507.868379,W,0.0,,011219,12.3,E,A*31::$GPGGA,203334.00,3602.900606,N,11507.868379,W,1,00,1.1,624.0,M,-18.0,M,,*58::$GNGGA,203439.00,3602.895881,N,11507.865566,W,1,12,0.8,633.0,M,-18.0,M,,*48::$GNGSA,A,3,70,71,72,80,87,,,,,,,,1.1,0.8,0.8,2*31::$GPGSA,A,1,,,,,,,,,,,,,1.4,1.1,0.8,1*20::$GAGSV,1,1,0,*74::$GLGSV,2,2,08,87,14,317,21,71,51,347,21,72,14,303,19,85,00,000,*65::$GBGSV,1,1,0,*77::$PQGSV,1,1,0,*73",736,2019-12-01 12:34:38:551
0.098099,5.48674,9.997208,-0.538454,5.465474,8.124595,0.644862,-0.172095,1.932252,1.235962,-0.148636,0.106888,192.0,-16.6946,-15.3015,-37.587,67.5406,-33.8709,3.7917,8.0,946.8951,26.8607,36.048264,-115.131096,615.0,NaN,-0.039478004,0.0,9.648001,,14 / 22,"$GPVTG,,T,,M,0.0,N,0.0,K,A*23::$GPGSV,4,4,13,16,05,158,*45::$GNVTG,,T,,M,0.0,N,0.0,K,A*3D::$GNRMC,203439.00,A,3602.895881,N,11507.865566,W,0.0,,011219,12.3,E,A*2C::$GPRMC,203334.00,A,3602.900606,N,11507.868379,W,0.0,,011219,12.3,E,A*31::$GPGGA,203334.00,3602.900606,N,11507.868379,W,1,00,1.1,624.0,M,-18.0,M,,*58::$GNGGA,203439.00,3602.895881,N,11507.865566,W,1,12,0.8,633.0,M,-18.0,M,,*48::$GNGSA,A,3,70,71,72,80,87,,,,,,,,1.1,0.8,0.8,2*31::$GPGSA,A,1,,,,,,,,,,,,,1.4,1.1,0.8,1*20::$GAGSV,1,1,0,*74::$GLGSV,2,2,08,87,14,317,21,71,51,347,21,72,14,303,19,85,00,000,*65::$GBGSV,1,1,0,*77::$PQGSV,1,1,0,*73",835,2019-12-01 12:34:38:650
0.119644,5.93898,8.465805,-0.727171,6.419611,7.377683,0.833005,-0.574285,0.955135,1.025818,0.029724,-0.782501,167.0,-16.8076,-20.0424,-36.0916,71.7046,-39.6222,4.724,8.0,946.8943,26.8607,36.048264,-115.131096,615.0,NaN,-0.03234341,0.0,9.648001,,14 / 22,"$GPVTG,,T,,M,0.0,N,0.0,K,A*23::$GPGSV,4,4,13,16,05,158,*45::$GNVTG,,T,,M,0.0,N,0.0,K,A*3D::$GNRMC,203439.00,A,3602.895881,N,11507.865566,W,0.0,,011219,12.3,E,A*2C::$GPRMC,203334.00,A,3602.900606,N,11507.868379,W,0.0,,011219,12.3,E,A*31::$GPGGA,203334.00,3602.900606,N,11507.868379,W,1,00,1.1,624.0,M,-18.0,M,,*58::$GNGGA,203439.00,3602.895881,N,11507.865566,W,1,12,0.8,633.0,M,-18.0,M,,*48::$GNGSA,A,3,70,71,72,80,87,,,,,,,,1.1,0.8,0.8,2*31::$GPGSA,A,1,,,,,,,,,,,,,1.4,1.1,0.8,1*20::$GAGSV,1,1,0,*74::$GLGSV,2,2,08,87,14,317,21,71,51,347,21,72,14,303,19,85,00,000,*65::$GBGSV,1,1,0,*77::$PQGSV,1,1,0,*73",935,2019-12-01 12:34:38:750
-2.550751,7.822144,6.592224,-0.962179,7.403211,6.359015,-1.705221,0.51134,0.362268,1.314148,-1.196884,0.252289,167.0,-12.0239,-28.743,-31.633,78.0927,-49.0181,8.6041,8.0,946.8915,26.8607,36.048264,-115.131096,615.0,NaN,-0.008561478,0.0,9.648001,,14 / 22,"$GPVTG,,T,,M,0.0,N,0.0,K,A*23::$GPGSV,4,4,13,16,05,158,*45::$GNVTG,,T,,M,0.0,N,0.0,K,A*3D::$GNRMC,203439.00,A,3602.895881,N,11507.865566,W,0.0,,011219,12.3,E,A*2C::$GPRMC,203334.00,A,3602.900606,N,11507.868379,W,0.0,,011219,12.3,E,A*31::$GPGGA,203334.00,3602.900606,N,11507.868379,W,1,00,1.1,624.0,M,-18.0,M,,*58::$GNGGA,203439.00,3602.895881,N,11507.865566,W,1,12,0.8,633.0,M,-18.0,M,,*48::$GNGSA,A,3,70,71,72,80,87,,,,,,,,1.1,0.8,0.8,2*31::$GPGSA,A,1,,,,,,,,,,,,,1.4,1.1,0.8,1*20::$GAGSV,1,1,0,*74::$GLGSV,2,2,08,87,14,317,21,71,51,347,21,72,14,303,19,85,00,000,*65::$GBGSV,1,1,0,*77::$PQGSV,1,1,0,*73",1035,2019-12-01 12:34:38:850
-1.098312,7.980057,4.031906,-0.286874,8.205029,5.363358,-0.9949,-0.255759,-1.417006,1.47786,-0.984283,0.601685,135.0,-17.0258,-29.5532,-27.2247,78.0342,-55.3668,4.39,8.0,946.8915,26.8607,36.048264,-115.131096,615.0,NaN,-0.008561478,0.0,9.648001,,14 / 22,"$GPVTG,,T,,M,0.0,N,0.0,K,A*23::$GPGSV,4,4,13,16,05,158,*45::$GNVTG,,T,,M,0.0,N,0.0,K,A*3D::$GNRMC,203439.00,A,3602.895881,N,11507.865566,W,0.0,,011219,12.3,E,A*2C::$GPRMC,203334.00,A,3602.900606,N,11507.868379,W,0.0,,011219,12.3,E,A*31::$GPGGA,203334.00,3602.900606,N,11507.868379,W,1,00,1.1,624.0,M,-18.0,M,,*58::$GNGGA,203439.00,3602.895881,N,11507.865566,W,1,12,0.8,633.0,M,-18.0,M,,*48::$GNGSA,A,3,70,71,72,80,87,,,,,,,,1.1,0.8,0.8,2*31::$GPGSA,A,1,,,,,,,,,,,,,1.4,1.1,0.8,1*20::$GAGSV,1,1,0,*74::$GLGSV,2,2,08,87,14,317,21,71,51,347,21,72,14,303,19,85,00,000,*65::$GBGSV,1,1,0,*77::$PQGSV,1,1,0,*73",1136,2019-12-01 12:34:38:951
1.000198,7.788636,3.170487,0.526195,8.752311,4.392103,0.462387,-1.030416,-1.32332,1.022156,-0.594559,0.285263,135.0,-21.405,-34.4208,-19.1208,78.6554,-63.1875,-6.8318,8.0,946.8906,34.99518,36.048264,-115.131096,615.0,NaN,-0.0014269124,0.0,9.648001,,14 / 22,"$GPVTG,,T,,M,0.0,N,0.0,K,A*23::$GPGSV,4,4,13,16,05,158,*45::$GNVTG,,T,,M,0.0,N,0.0,K,A*3D::$GNRMC,203439.00,A,3602.895881,N,11507.865566,W,0.0,,011219,12.3,E,A*2C::$GPRMC,203334.00,A,3602.900606,N,11507.868379,W,0.0,,011219,12.3,E,A*31::$GPGGA,203334.00,3602.900606,N,11507.868379,W,1,00,1.1,624.0,M,-18.0,M,,*58::$GNGGA,203439.00,3602.895881,N,11507.865566,W,1,12,0.8,633.0,M,-18.0,M,,*48::$GNGSA,A,3,70,71,72,80,87,,,,,,,,1.1,0.8,0.8,2*31::$GPGSA,A,1,,,,,,,,,,,,,1.4,1.1,0.8,1*20::$GAGSV,1,1,0,*74::$GLGSV,2,2,08,87,14,317,21,71,51,347,21,72,14,303,19,85,00,000,*65::$GBGSV,1,1,0,*77::$PQGSV,1,1,0,*73",1235,2019-12-01 12:34:39:050
0.521637,8.362915,3.720841,0.712551,9.063581,3.676163,-0.144906,-0.808426,0.074257,0.628754,0.110352,0.351242,114.0,-19.9951,-35.0769,-16.9128,82.0294,-66.3129,-9.1582,8.0,946.8741,34.99518,36.048264,-115.131096,615.0,NaN,0.1369824,0.0,9.648001,,14 / 22,"$GPVTG,,T,,M,0.0,N,0.0,K,A*23::$GPGSV,4,4,13,16,05,158,*45::$GNVTG,,T,,M,0.0,N,0.0,K,A*3D::$GNRMC,203439.00,A,3602.895881,N,11507.865566,W,0.0,,011219,12.3,E,A*2C::$GPRMC,203334.00,A,3602.900606,N,11507.868379,W,0.0,,011219,12.3,E,A*31::$GPGGA,203334.00,3602.900606,N,11507.868379,W,1,00,1.1,624.0,M,-18.0,M,,*58::$GNGGA,203439.00,3602.895881,N,11507.865566,W,1,12,0.8,633.0,M,-18.0,M,,*48::$GNGSA,A,3,70,71,72,80,87,,,,,,,,1.1,0.8,0.8,2*31::$GPGSA,A,1,,,,,,,,,,,,,1.4,1.1,0.8,1*20::$GAGSV,1,1,0,*74::$GLGSV,2,2,08,87,14,317,21,71,51,347,21,72,14,303,19,85,00,000,*65::$GBGSV,1,1,0,*77::$PQGSV,1,1,0,*73",1336,2019-12-01 12:34:39:151
0.208176,9.056839,3.213562,0.955782,9.255348,3.097641,-0.801962,-0.21482,0.093954,0.457718,-0.246384,0.442856,114.0,-24.2981,-36.5402,-13.2339,72.3371,-70.0188,-14.9604,8.0,946.8741,34.99518,36.048264,-115.131096,615.0,NaN,0.1369824,0.0,9.648001,,14 / 22,"$GPVTG,,T,,M,0.0,N,0.0,K,A*23::$GPGSV,4,4,13,16,05,158,*45::$GNVTG,,T,,M,0.0,N,0.0,K,A*3D::$GNRMC,203440.00,A,3602.895880,N,11507.865565,W,0.0,,011219,12.3,E,A*20::$GPRMC,203334.00,A,3602.900606,N,11507.868379,W,0.0,,011219,12.3,E,A*31::$GPGGA,203334.00,3602.900606,N,11507.868379,W,1,00,1.1,624.0,M,-18.0,M,,*58::$GNGGA,203440.00,3602.895880,N,11507.865565,W,1,12,0.8,633.0,M,-18.0,M,,*44::$GNGSA,A,3,70,71,72,80,87,,,,,,,,1.1,0.8,0.7,2*3E::$GPGSA,A,1,,,,,,,,,,,,,1.4,1.1,0.8,1*20::$GAGSV,1,1,0,*74::$GLGSV,2,2,08,87,14,317,20,71,51,347,27,72,14,303,19,85,00,000,*62::$GBGSV,1,1,0,*77::$PQGSV,1,1,0,*73",1435,2019-12-01 12:34:39:250
0.870987,9.257828,1.526627,1.299821,9.257336,2.963542,-0.437144,0.007853,-1.519982,-0.975357,-0.473602,0.017715,107.0,-24.2645,-35.2005,-11.0382,66.2439,-71.3919,-24.1681,8.0,946.8599,48.73064,36.048264,-115.131096,615.0,NaN,0.2577913,0.0,9.648001,,14 / 22,"$GPVTG,,T,,M,0.0,N,0.0,K,A*23::$GPGSV,4,4,13,16,05,158,*45::$GNVTG,,T,,M,0.0,N,0.0,K,A*3D::$GNRMC,203440.00,A,3602.895880,N,11507.865565,W,0.0,,011219,12.3,E,A*20::$GPRMC,203334.00,A,3602.900606,N,11507.868379,W,0.0,,011219,12.3,E,A*31::$GPGGA,203334.00,3602.900606,N,11507.868379,W,1,00,1.1,624.0,M,-18.0,M,,*58::$GNGGA,203440.00,3602.895880,N,11507.865565,W,1,12,0.8,633.0,M,-18.0,M,,*44::$GNGSA,A,3,70,71,72,80,87,,,,,,,,1.1,0.8,0.7,2*3E::$GPGSA,A,1,,,,,,,,,,,,,1.4,1.1,0.8,1*20::$GAGSV,1,1,0,*74::$GLGSV,2,2,08,87,14,317,20,71,51,347,27,72,14,303,19,85,00,000,*62::$GBGSV,1,1,0,*77::$PQGSV,1,1,0,*73",1535,2019-12-01 12:34:39:350
-0.150742,10.219742,5.474777,1.532913,8.903348,3.814572,-1.618481,1.356364,1.959466,-0.37915,0.221542,0.599243,107.0,-25.676,-34.5444,-13.2446,67.7818,-66.7619,-22.8218,8.0,946.8475,48.73064,36.048264,-115.131096,615.0,NaN,0.36147624,0.0,9.648001,,14 / 22,"$GPVTG,,T,,M,0.0,N,0.0,K,A*23::$GPGSV,4,4,13,16,05,158,*45::$GNVTG,,T,,M,0.0,N,0.0,K,A*3D::$GNRMC,203440.00,A,3602.895880,N,11507.865565,W,0.0,,011219,12.3,E,A*20::$GPRMC,203334.00,A,3602.900606,N,11507.868379,W,0.0,,011219,12.3,E,A*31::$GPGGA,203334.00,3602.900606,N,11507.868379,W,1,00,1.1,624.0,M,-18.0,M,,*58::$GNGGA,203440.00,3602.895880,N,11507.865565,W,1,12,0.8,633.0,M,-18.0,M,,*44::$GNGSA,A,3,70,71,72,80,87,,,,,,,,1.1,0.8,0.7,2*3E::$GPGSA,A,1,,,,,,,,,,,,,1.4,1.1,0.8,1*20::$GAGSV,1,1,0,*74::$GLGSV,2,2,08,87,14,317,20,71,51,347,27,72,14,303,19,85,00,000,*62::$GBGSV,1,1,0,*77::$PQGSV,1,1,0,*73",1635,2019-12-01 12:34:39:450
2.23729,8.219345,3.366699,2.010089,8.642559,4.175656,0.242615,-0.375987,-0.954026,-0.911819,-0.386871,-0.036041,136.0,-27.0538,-32.5348,-16.1972,65.2797,-62.4581,-25.9092,8.0,946.8475,48.73064,36.048264,-115.131096,615.0,NaN,0.36147624,0.0,9.648001,,14 / 22,"$GPVTG,,T,,M,0.0,N,0.0,K,A*23::$GPGSV,4,4,13,16,05,158,*45::$GNVTG,,T,,M,0.0,N,0.0,K,A*3D::$GNRMC,203440.00,A,3602.895880,N,11507.865565,W,0.0,,011219,12.3,E,A*20::$GPRMC,203334.00,A,3602.900606,N,11507.868379,W,0.0,,011219,12.3,E,A*31::$GPGGA,203334.00,3602.900606,N,11507.868379,W,1,00,1.1,624.0,M,-18.0,M,,*58::$GNGGA,203440.00,3602.895880,N,11507.865565,W,1,12,0.8,633.0,M,-18.0,M,,*44::$GNGSA,A,3,70,71,72,80,87,,,,,,,,1.1,0.8,0.7,2*3E::$GPGSA,A,1,,,,,,,,,,,,,1.4,1.1,0.8,1*20::$GAGSV,1,1,0,*74::$GLGSV,2,2,08,87,14,317,20,71,51,347,27,72,14,303,19,85,00,000,*62::$GBGSV,1,1,0,*77::$PQGSV,1,1,0,*73",1736,2019-12-01 12:34:39:551
1.835297,8.331803,2.694321,1.971156,8.736763,3.994236,-0.11502,-0.393164,-1.257033,0.022781,-0.286682,-0.121552,136.0,-27.7481,-31.8848,-13.9954,72.785,-61.6985,-25.1964,8.0,946.8436,47.02696,36.048264,-115.131096,615.0,NaN,0.3947693,0.0,9.648001,,14 / 22,"$GPVTG,,T,,M,0.0,N,0.0,K,A*23::$GPGSV,4,4,13,16,05,158,*45::$GNVTG,,T,,M,0.0,N,0.0,K,A*3D::$GNRMC,203440.00,A,3602.895880,N,11507.865565,W,0.0,,011219,12.3,E,A*20::$GPRMC,203334.00,A,3602.900606,N,11507.868379,W,0.0,,011219,12.3,E,A*31::$GPGGA,203334.00,3602.900606,N,11507.868379,W,1,00,1.1,624.0,M,-18.0,M,,*58::$GNGGA,203440.00,3602.895880,N,11507.865565,W,1,12,0.8,633.0,M,-18.0,M,,*44::$GNGSA,A,3,70,71,72,80,87,,,,,,,,1.1,0.8,0.7,2*3E::$GPGSA,A,1,,,,,,,,,,,,,1.4,1.1,0.8,1*20::$GAGSV,1,1,0,*74::$GLGSV,2,2,08,87,14,317,20,71,51,347,27,72,14,303,19,85,00,000,*62::$GBGSV,1,1,0,*77::$PQGSV,1,1,0,*73",1835,2019-12-01 12:34:39:650
1.385437,8.147568,2.742172,1.874579,8.810019,3.878131,-0.43958,-0.583411,-1.47445,-0.190994,0.171448,-0.067795,146.0,-27.0843,-33.8898,-15.4541,66.4371,-63.9449,-25.7978,8.0,946.8307,47.02696,36.048264,-115.131096,615.0,NaN,0.5032085,0.0,9.648001,,14 / 22,"$GPVTG,,T,,M,0.0,N,0.0,K,A*23::$GPGSV,4,4,13,16,05,158,*45::$GNVTG,,T,,M,0.0,N,0.0,K,A*3D::$GNRMC,203440.00,A,3602.895880,N,11507.865565,W,0.0,,011219,12.3,E,A*20::$GPRMC,203334.00,A,3602.900606,N,11507.868379,W,0.0,,011219,12.3,E,A*31::$GPGGA,203334.00,3602.900606,N,11507.868379,W,1,00,1.1,624.0,M,-18.0,M,,*58::$GNGGA,203440.00,3602.895880,N,11507.865565,W,1,12,0.8,633.0,M,-18.0,M,,*44::$GNGSA,A,3,70,71,72,80,87,,,,,,,,1.1,0.8,0.7,2*3E::$GPGSA,A,1,,,,,,,,,,,,,1.4,1.1,0.8,1*20::$GAGSV,1,1,0,*74::$GLGSV,2,2,08,87,14,317,20,71,51,347,27,72,14,303,19,85,00,000,*62::$GBGSV,1,1,0,*77::$PQGSV,1,1,0,*73",1935,2019-12-01 12:34:39:750
0.897308,7.913071,3.230316,1.805924,8.576607,4.398962,-0.897094,-0.596599,-1.17463,-1.00589,-0.03624,0.080017,146.0,-26.3718,-33.8684,-16.922,60.0225,-62.9591,-23.9252,8.0,946.8307,47.02696,36.048264,-115.131096,615.0,NaN,0.5032085,0.0,9.648001,,14 / 22,"$GPVTG,,T,,M,0.0,N,0.0,K,A*23::$GPGSV,4,4,13,16,05,158,*45::$GNVTG,,T,,M,0.0,N,0.0,K,A*3D::$GNRMC,203440.00,A,3602.895880,N,11507.865565,W,0.0,,011219,12.3,E,A*20::$GPRMC,203334.00,A,3602.900606,N,11507.868379,W,0.0,,011219,12.3,E,A*31::$GPGGA,203334.00,3602.900606,N,11507.868379,W,1,00,1.1,624.0,M,-18.0,M,,*58::$GNGGA,203440.00,3602.895880,N,11507.865565,W,1,12,0.8,633.0,M,-18.0,M,,*44::$GNGSA,A,3,70,71,72,80,87,,,,,,,,1.1,0.8,0.7,2*3E::$GPGSA,A,1,,,,,,,,,,,,,1.4,1.1,0.8,1*20::$GAGSV,1,1,0,*74::$GLGSV,2,2,08,87,14,317,20,71,51,347,27,72,14,303,19,85,00,000,*62::$GBGSV,1,1,0,*77::$PQGSV,1,1,0,*73",2035,2019-12-01 12:34:39:850
1.225128,7.322037,3.096314,1.971099,8.072419,5.207802,-0.682421,-0.546027,-2.321706,-1.669281,-0.300125,0.27182,156.0,-27.7191,-30.5008,-20.6161,70.2759,-55.4021,-20.7311,8.0,946.8164,44.89018,36.048264,-115.131096,615.0,NaN,0.6240119,0.0,9.648001,,14 / 22,"$GPVTG,,T,,M,0.0,N,0.0,K,A*23::$GPGSV,4,4,13,16,05,158,*45::$GNVTG,,T,,M,0.0,N,0.0,K,A*3D::$GNRMC,203440.00,A,3602.895880,N,11507.865565,W,0.0,,011219,12.3,E,A*20::$GPRMC,203334.00,A,3602.900606,N,11507.868379,W,0.0,,011219,12.3,E,A*31::$GPGGA,203334.00,3602.900606,N,11507.868379,W,1,00,1.1,624.0,M,-18.0,M,,*58::$GNGGA,203440.00,3602.895880,N,11507.865565,W,1,12,0.8,633.0,M,-18.0,M,,*44::$GNGSA,A,3,70,71,72,80,87,,,,,,,,1.1,0.8,0.7,2*3E::$GPGSA,A,1,,,,,,,,,,,,,1.4,1.1,0.8,1*20::$GAGSV,1,1,0,*74::$GLGSV,2,2,08,87,14,317,20,71,51,347,27,72,14,303,19,85,00,000,*62::$GBGSV,1,1,0,*77::$PQGSV,1,1,0,*73",2135,2019-12-01 12:34:39:950
1.916657,6.374481,5.577667,2.398962,7.000087,6.435384,-0.26417,-0.675858,-0.561871,-1.415161,-0.280594,0.362228,156.0,-28.3386,-26.4435,-23.5748,71.1798,-49.2055,-20.3258,8.0,946.8164,44.89018,36.048264,-115.131096,615.0,NaN,0.6240119,0.0,9.648001,,14 / 22,"$GPVTG,,T,,M,0.0,N,0.0,K,A*23::$GPGSV,4,4,13,16,05,158,*45::$GNVTG,,T,,M,0.0,N,0.0,K,A*3D::$GNRMC,203440.00,A,3602.895880,N,11507.865565,W,0.0,,011219,12.3,E,A*20::$GPRMC,203334.00,A,3602.900606,N,11507.868379,W,0.0,,011219,12.3,E,A*31::$GPGGA,203334.00,3602.900606,N,11507.868379,W,1,00,1.1,624.0,M,-18.0,M,,*58::$GNGGA,203440.00,3602.895880,N,11507.865565,W,1,12,0.8,633.0,M,-18.0,M,,*44::$GNGSA,A,3,70,71,72,80,87,,,,,,,,1.1,0.8,0.7,2*3E::$GPGSA,A,1,,,,,,,,,,,,,1.4,1.1,0.8,1*20::$GAGSV,1,1,0,*74::$GLGSV,2,2,08,87,14,317,20,71,51,347,27,72,14,303,19,85,00,000,*62::$GBGSV,1,1,0,*77::$PQGSV,1,1,0,*73",2235,2019-12-01 12:34:40:050
2.029114,5.941376,5.410172,2.788668,6.013481,7.227155,-0.81161,0.308345,-1.390212,-1.38829,-0.240265,0.511276,185.0,-30.3467,-21.0861,-22.8714,78.1282,-39.4096,-20.7715,8.0,946.8038,44.89018,36.048264,-115.131096,615.0,NaN,0.73054564,0.0,9.648001,,15 / 22,"$GPVTG,,T,,M,0.0,N,0.0,K,A*23::$GPGSV,4,4,13,16,05,158,*45::$GNVTG,,T,,M,0.0,N,0.0,K,A*3D::$GNRMC,203440.00,A,3602.895880,N,11507.865565,W,0.0,,011219,12.3,E,A*20::$GPRMC,203334.00,A,3602.900606,N,11507.868379,W,0.0,,011219,12.3,E,A*31::$GPGGA,203334.00,3602.900606,N,11507.868379,W,1,00,1.1,624.0,M,-18.0,M,,*58::$GNGGA,203440.00,3602.895880,N,11507.865565,W,1,12,0.8,633.0,M,-18.0,M,,*44::$GNGSA,A,3,70,71,72,80,87,,,,,,,,1.1,0.8,0.7,2*3E::$GPGSA,A,1,,,,,,,,,,,,,1.4,1.1,0.8,1*20::$GAGSV,1,1,0,*74::$GLGSV,2,2,08,87,14,317,20,71,51,347,27,72,14,303,19,85,00,000,*62::$GBGSV,1,1,0,*77::$PQGSV,1,1,0,*73",2335,2019-12-01 12:34:40:150
2.708679,5.223526,6.654434,3.122463,4.864554,7.921914,-0.373334,0.506852,-1.158533,-1.495804,-0.166962,0.416,185.0,-33.0551,-15.0436,-27.3132,75.8697,-33.0995,-21.3861,8.0,946.7941,44.89018,36.048264,-115.131096,615.0,NaN,0.8113962,0.0,9.648001,,15 / 22,"$GPVTG,,T,,M,0.0,N,0.0,K,A*23::$GPGSV,4,4,13,25,11,046,*4E::$GNVTG,,T,,M,0.0,N,0.0,K,A*3D::$GNRMC,203441.00,A,3602.895878,N,11507.865561,W,0.0,,011219,12.3,E,A*22::$GPRMC,203334.00,A,3602.900606,N,11507.868379,W,0.0,,011219,12.3,E,A*31::$GPGGA,203334.00,3602.900606,N,11507.868379,W,1,00,1.1,624.0,M,-18.0,M,,*58::$GNGGA,203441.00,3602.895878,N,11507.865561,W,1,12,0.8,633.0,M,-18.0,M,,*46::$GNGSA,A,3,70,71,72,80,87,,,,,,,,1.1,0.8,0.7,2*3E::$GPGSA,A,1,,,,,,,,,,,,,1.4,1.1,0.8,1*20::$GAGSV,1,1,0,*74::$GLGSV,2,2,08,87,14,317,22,71,51,347,27,72,14,303,19,85,00,000,*60::$GBGSV,1,1,0,*77::$PQGSV,1,1,0,*73",2435,2019-12-01 12:34:40:250
3.570099,3.582062,7.424927,3.48132,3.500719,8.473238,-0.297044,0.47478,-0.575204,-1.242905,0.0737,0.650574,212.0,-33.6227,-8.9798,-25.8759,75.5106,-22.1126,-22.3193,8.0,946.7941,50.61287,36.048264,-115.131096,615.0,NaN,0.8113962,0.0,9.648001,,15 / 22,"$GPVTG,,T,,M,0.0,N,0.0,K,A*23::$GPGSV,4,4,13,25,11,046,*4E::$GNVTG,,T,,M,0.0,N,0.0,K,A*3D::$GNRMC,203441.00,A,3602.895878,N,11507.865561,W,0.0,,011219,12.3,E,A*22::$GPRMC,203334.00,A,3602.900606,N,11507.868379,W,0.0,,011219,12.3,E,A*31::$GPGGA,203334.00,3602.900606,N,11507.868379,W,1,00,1.1,624.0,M,-18.0,M,,*58::$GNGGA,203441.00,3602.895878,N,11507.865561,W,1,12,0.8,633.0,M,-18.0,M,,*46::$GNGSA,A,3,70,71,72,80,87,,,,,,,,1.1,0.8,0.7,2*3E::$GPGSA,A,1,,,,,,,,,,,,,1.4,1.1,0.8,1*20::$GAGSV,1,1,0,*74::$GLGSV,2,2,08,87,14,317,22,71,51,347,27,72,14,303,19,85,00,000,*60::$GBGSV,1,1,0,*77::$PQGSV,1,1,0,*73",2535,2019-12-01 12:34:40:350
3.345169,2.749359,7.795822,3.705192,2.028958,8.850157,-0.329615,0.723641,-0.938206,-1.363861,0.057816,0.547943,212.0,-34.1766,-2.2217,-28.1158,73.5184,-14.7733,-22.763,8.0,946.7848,50.61287,36.048264,-115.131096,615.0,NaN,0.8903436,0.0,9.648001,,15 / 22,"$GPVTG,,T,,M,0.0,N,0.0,K,A*23::$GPGSV,4,4,13,25,11,046,*4E::$GNVTG,,T,,M,0.0,N,0.0,K,A*3D::$GNRMC,203441.00,A,3602.895878,N,11507.865561,W,0.0,,011219,12.3,E,A*22::$GPRMC,203334.00,A,3602.900606,N,11507.868379,W,0.0,,011219,12.3,E,A*31::$GPGGA,203334.00,3602.900606,N,11507.868379,W,1,00,1.1,624.0,M,-18.0,M,,*58::$GNGGA,203441.00,3602.895878,N,11507.865561,W,1,12,0.8,633.0,M,-18.0,M,,*46::$GNGSA,A,3,70,71,72,80,87,,,,,,,,1.1,0.8,0.7,2*3E::$GPGSA,A,1,,,,,,,,,,,,,1.4,1.1,0.8,1*20::$GAGSV,1,1,0,*74::$GLGSV,2,2,08,87,14,317,22,71,51,347,27,72,14,303,19,85,00,000,*60::$GBGSV,1,1,0,*77::$PQGSV,1,1,0,*73",2635,2019-12-01 12:34:40:450
3.634705,0.878159,7.750351,3.678359,0.64275,9.067907,0.040148,0.259121,-1.079619,-1.390732,0.316834,0.524719,241.0,-34.761,3.1708,-28.1464,72.8569,-5.4382,-22.3451,8.0,946.7837,50.61287,36.048264,-115.131096,615.0,NaN,0.89985526,0.0,9.648001,,15 / 22,"$GPVTG,,T,,M,0.0,N,0.0,K,A*23::$GPGSV,4,4,13,25,11,046,*4E::$GNVTG,,T,,M,0.0,N,0.0,K,A*3D::$GNRMC,203441.00,A,3602.895878,N,11507.865561,W,0.0,,011219,12.3,E,A*22::$GPRMC,203334.00,A,3602.900606,N,11507.868379,W,0.0,,011219,12.3,E,A*31::$GPGGA,203334.00,3602.900606,N,11507.868379,W,1,00,1.1,624.0,M,-18.0,M,,*58::$GNGGA,203441.00,3602.895878,N,11507.865561,W,1,12,0.8,633.0,M,-18.0,M,,*46::$GNGSA,A,3,70,71,72,80,87,,,,,,,,1.1,0.8,0.7,2*3E::$GPGSA,A,1,,,,,,,,,,,,,1.4,1.1,0.8,1*20::$GAGSV,1,1,0,*74::$GLGSV,2,2,08,87,14,317,22,71,51,347,27,72,14,303,19,85,00,000,*60::$GBGSV,1,1,0,*77::$PQGSV,1,1,0,*73",2737,2019-12-01 12:34:40:552
3.426529,-0.466598,8.090134,3.31367,-0.837141,9.191799,0.060875,0.349134,-1.209802,-1.288116,0.447556,0.660339,241.0,-32.5287,7.2769,-28.1662,70.8525,1.5841,-20.6854,8.0,946.7837,45.28083,36.048264,-115.131096,615.0,NaN,0.89985526,0.0,9.648001,,15 / 22,"$GPVTG,,T,,M,0.0,N,0.0,K,A*23::$GPGSV,4,4,13,25,11,046,*4E::$GNVTG,,T,,M,0.0,N,0.0,K,A*3D::$GNRMC,203441.00,A,3602.895878,N,11507.865561,W,0.0,,011219,12.3,E,A*22::$GPRMC,203334.00,A,3602.900606,N,11507.868379,W,0.0,,011219,12.3,E,A*31::$GPGGA,203334.00,3602.900606,N,11507.868379,W,1,00,1.1,624.0,M,-18.0,M,,*58::$GNGGA,203441.00,3602.895878,N,11507.865561,W,1,12,0.8,633.0,M,-18.0,M,,*46::$GNGSA,A,3,70,71,72,80,87,,,,,,,,1.1,0.8,0.7,2*3E::$GPGSA,A,1,,,,,,,,,,,,,1.4,1.1,0.8,1*20::$GAGSV,1,1,0,*74::$GLGSV,2,2,08,87,14,317,22,71,51,347,27,72,14,303,19,85,00,000,*60::$GBGSV,1,1,0,*77::$PQGSV,1,1,0,*73",2836,2019-12-01 12:34:40:651
3.096314,-3.024521,8.688339,2.752593,-2.436771,9.091522,0.363833,-0.752348,-0.406578,-1.088959,0.42067,0.659103,268.0,-31.5933,16.7572,-27.4826,68.9764,12.9717,-17.3867,8.0,946.7861,45.28083,36.048264,-115.131096,615.0,NaN,0.87892956,0.0,9.648001,,15 / 22,"$GPVTG,,T,,M,0.0,N,0.0,K,A*23::$GPGSV,4,4,13,25,11,046,*4E::$GNVTG,,T,,M,0.0,N,0.0,K,A*3D::$GNRMC,203441.00,A,3602.895878,N,11507.865561,W,0.0,,011219,12.3,E,A*22::$GPRMC,203334.00,A,3602.900606,N,11507.868379,W,0.0,,011219,12.3,E,A*31::$GPGGA,203334.00,3602.900606,N,11507.868379,W,1,00,1.1,624.0,M,-18.0,M,,*58::$GNGGA,203441.00,3602.895878,N,11507.865561,W,1,12,0.8,633.0,M,-18.0,M,,*46::$GNGSA,A,3,70,71,72,80,87,,,,,,,,1.1,0.8,0.7,2*3E::$GPGSA,A,1,,,,,,,,,,,,,1.4,1.1,0.8,1*20::$GAGSV,1,1,0,*74::$GLGSV,2,2,08,87,14,317,22,71,51,347,27,72,14,303,19,85,00,000,*60::$GBGSV,1,1,0,*77::$PQGSV,1,1,0,*73",2938,2019-12-01 12:34:40:753
1.447662,-3.701691,9.406189,2.262179,-3.402821,8.914805,-0.72388,-0.435119,0.782669,-0.707779,0.408463,0.609024,268.0,-27.24,20.2316,-26.7624,65.7562,18.3148,-15.5681,8.0,946.7866,45.28083,36.048264,-115.131096,615.0,NaN,0.8751249,0.0,9.648001,,15 / 22,"$GPVTG,,T,,M,0.0,N,0.0,K,A*23::$GPGSV,4,4,13,25,11,046,*4E::$GNVTG,,T,,M,0.0,N,0.0,K,A*3D::$GNRMC,203441.00,A,3602.895878,N,11507.865561,W,0.0,,011219,12.3,E,A*22::$GPRMC,203334.00,A,3602.900606,N,11507.868379,W,0.0,,011219,12.3,E,A*31::$GPGGA,203334.00,3602.900606,N,11507.868379,W,1,00,1.1,624.0,M,-18.0,M,,*58::$GNGGA,203441.00,3602.895878,N,11507.865561,W,1,12,0.8,633.0,M,-18.0,M,,*46::$GNGSA,A,3,70,71,72,80,87,,,,,,,,1.1,0.8,0.7,2*3E::$GPGSA,A,1,,,,,,,,,,,,,1.4,1.1,0.8,1*20::$GAGSV,1,1,0,*74::$GLGSV,2,2,08,87,14,317,22,71,51,347,27,72,14,303,19,85,00,000,*60::$GBGSV,1,1,0,*77::$PQGSV,1,1,0,*73",3036,2019-12-01 12:34:40:851
1.447662,-4.333404,7.482361,1.761197,-4.131879,8.717576,-0.27361,-0.320898,-0.960631,-0.711456,0.424347,0.404999,287.0,-26.3992,25.6485,-25.322,61.6377,24.9189,-11.4216,8.0,946.7866,39.24416,36.048264,-115.131096,615.0,NaN,0.8751249,0.0,9.648001,,15 / 22,"$GPVTG,,T,,M,0.0,N,0.0,K,A*23::$GPGSV,4,4,13,25,11,046,*4E::$GNVTG,,T,,M,0.0,N,0.0,K,A*3D::$GNRMC,203441.00,A,3602.895878,N,11507.865561,W,0.0,,011219,12.3,E,A*22::$GPRMC,203334.00,A,3602.900606,N,11507.868379,W,0.0,,011219,12.3,E,A*31::$GPGGA,203334.00,3602.900606,N,11507.868379,W,1,00,1.1,624.0,M,-18.0,M,,*58::$GNGGA,203441.00,3602.895878,N,11507.865561,W,1,12,0.8,633.0,M,-18.0,M,,*46::$GNGSA,A,3,70,71,72,80,87,,,,,,,,1.1,0.8,0.7,2*3E::$GPGSA,A,1,,,,,,,,,,,,,1.4,1.1,0.8,1*20::$GAGSV,1,1,0,*74::$GLGSV,2,2,08,87,14,317,22,71,51,347,27,72,14,303,19,85,00,000,*60::$GBGSV,1,1,0,*77::$PQGSV,1,1,0,*73",3135,2019-12-01 12:34:40:950
0.605377,-4.642074,7.585251,1.228732,-4.652968,8.544618,-0.6016,-0.143252,-0.703644,-0.337616,0.531845,0.450211,287.0,-22.8226,26.4053,-25.3235,59.4452,27.8484,-8.9286,8.0,946.7899,39.24416,36.048264,-115.131096,615.0,NaN,0.84754086,0.0,9.648001,,15 / 22,"$GPVTG,,T,,M,0.0,N,0.0,K,A*23::$GPGSV,4,4,13,25,11,046,*4E::$GNVTG,,T,,M,0.0,N,0.0,K,A*3D::$GNRMC,203441.00,A,3602.895878,N,11507.865561,W,0.0,,011219,12.3,E,A*22::$GPRMC,203334.00,A,3602.900606,N,11507.868379,W,0.0,,011219,12.3,E,A*31::$GPGGA,203334.00,3602.900606,N,11507.868379,W,1,00,1.1,624.0,M,-18.0,M,,*58::$GNGGA,203441.00,3602.895878,N,11507.865561,W,1,12,0.8,633.0,M,-18.0,M,,*46::$GNGSA,A,3,70,71,72,80,87,,,,,,,,1.1,0.8,0.7,2*3E::$GPGSA,A,1,,,,,,,,,,,,,1.4,1.1,0.8,1*20::$GAGSV,1,1,0,*74::$GLGSV,2,2,08,87,14,317,22,71,51,347,27,72,14,303,19,85,00,000,*60::$GBGSV,1,1,0,*77::$PQGSV,1,1,0,*73",3236,2019-12-01 12:34:41:051
-0.854233,-5.166107,9.08316,0.548455,-5.163127,8.319357,-1.336219,-0.163442,1.188459,-0.608826,0.282623,0.435532,297.0,-20.575,31.192,-26.0818,58.12,31.7688,-3.7718,8.0,946.7957,39.24416,36.048264,-115.131096,615.0,NaN,0.79903084,0.0,9.648001,,15 / 22,"$GPVTG,,T,,M,0.0,N,0.0,K,A*23::$GPGSV,4,2,13,14,47,047,22,18,00,000,23,22,61,313,22,23,18,272,15*7D::$GNVTG,,T,,M,0.0,N,0.0,K,A*3D::$GNRMC,203441.00,A,3602.895878,N,11507.865561,W,0.0,,011219,12.3,E,A*22::$GPRMC,203334.00,A,3602.900606,N,11507.868379,W,0.0,,011219,12.3,E,A*31::$GPGGA,203334.00,3602.900606,N,11507.868379,W,1,00,1.1,624.0,M,-18.0,M,,*58::$GNGGA,203441.00,3602.895878,N,11507.865561,W,1,12,0.8,633.0,M,-18.0,M,,*46::$GNGSA,A,3,70,71,72,80,87,,,,,,,,1.1,0.8,0.7,2*3E::$GPGSA,A,1,,,,,,,,,,,,,1.4,1.1,0.8,1*20::$GAGSV,1,1,0,*74::$GLGSV,2,2,08,87,14,317,22,71,51,347,27,72,14,303,19,85,00,000,*60::$GBGSV,1,1,0,*77::$PQGSV,1,1,0,*73",3336,2019-12-01 12:34:41:151
-0.437881,-5.21875,7.360321,-0.035193,-5.534669,8.095467,-0.384648,0.122349,-0.400955,-0.332718,0.330261,0.511276,297.0,-18.4052,32.5836,-23.8831,54.8515,33.7482,-0.8999,8.0,946.7957,39.24416,36.048264,-115.131096,615.0,NaN,0.79903084,0.0,9.648001,,15 / 22,"$GPVTG,,T,,M,0.0,N,0.0,K,A*23::$GPGSV,4,4,13,16,05,158,*45::$GNVTG,,T,,M,0.0,N,0.0,K,A*3D::$GNRMC,203442.00,A,3602.895877,N,11507.865561,W,0.0,,011219,12.3,E,A*2E::$GPRMC,203334.00,A,3602.900606,N,11507.868379,W,0.0,,011219,12.3,E,A*31::$GPGGA,203334.00,3602.900606,N,11507.868379,W,1,00,1.1,624.0,M,-18.0,M,,*58::$GNGGA,203442.00,3602.895877,N,11507.865561,W,1,12,0.8,633.0,M,-18.0,M,,*4A::$GNGSA,A,3,70,71,72,80,87,,,,,,,,1.1,0.8,0.7,2*3E::$GPGSA,A,1,,,,,,,,,,,,,1.4,1.1,0.8,1*20::$GAGSV,1,1,0,*74::$GLGSV,2,2,08,87,14,317,22,71,51,347,23,72,14,303,19,85,00,000,*64::$GBGSV,1,1,0,*77::$PQGSV,1,1,0,*73",3436,2019-12-01 12:34:41:251
-0.933197,-6.197418,7.877167,-0.560476,-5.95978,7.767707,-0.37661,-0.399367,0.379107,-0.522095,0.402344,0.677429,304.0,-16.2033,35.3363,-23.8953,51.7402,37.4254,4.127,8.0,946.8027,23.91651,36.048264,-115.131096,615.0,NaN,0.7391063,0.0,9.648001,,15 / 22,"$GPVTG,,T,,M,0.0,N,0.0,K,A*23::$GPGSV,4,4,13,16,05,158,*45::$GNVTG,,T,,M,0.0,N,0.0,K,A*3D::$GNRMC,203442.00,A,3602.895877,N,11507.865561,W,0.0,,011219,12.3,E,A*2E::$GPRMC,203334.00,A,3602.900606,N,11507.868379,W,0.0,,011219,12.3,E,A*31::$GPGGA,203334.00,3602.900606,N,11507.868379,W,1,00,1.1,624.0,M,-18.0,M,,*58::$GNGGA,203442.00,3602.895877,N,11507.865561,W,1,12,0.8,633.0,M,-18.0,M,,*4A::$GNGSA,A,3,70,71,72,80,87,,,,,,,,1.1,0.8,0.7,2*3E::$GPGSA,A,1,,,,,,,,,,,,,1.4,1.1,0.8,1*20::$GAGSV,1,1,0,*74::$GLGSV,2,2,08,87,14,317,22,71,51,347,23,72,14,303,19,85,00,000,*64::$GBGSV,1,1,0,*77::$PQGSV,1,1,0,*73",3535,2019-12-01 12:34:41:350
-1.014557,-6.463012,7.183258,-1.359154,-6.318431,7.375671,0.297239,-0.299889,0.104487,-0.638153,0.404785,0.489304,304.0,-11.2183,35.4462,-23.1598,48.7921,39.7435,9.4804,8.0,946.8118,23.91651,36.048264,-115.131096,615.0,NaN,0.663011,0.0,9.648001,,15 / 22,"$GPVTG,,T,,M,0.0,N,0.0,K,A*23::$GPGSV,4,4,13,16,05,158,*45::$GNVTG,,T,,M,0.0,N,0.0,K,A*3D::$GNRMC,203442.00,A,3602.895877,N,11507.865561,W,0.0,,011219,12.3,E,A*2E::$GPRMC,203334.00,A,3602.900606,N,11507.868379,W,0.0,,011219,12.3,E,A*31::$GPGGA,203334.00,3602.900606,N,11507.868379,W,1,00,1.1,624.0,M,-18.0,M,,*58::$GNGGA,203442.00,3602.895877,N,11507.865561,W,1,12,0.8,633.0,M,-18.0,M,,*4A::$GNGSA,A,3,70,71,72,80,87,,,,,,,,1.1,0.8,0.7,2*3E::$GPGSA,A,1,,,,,,,,,,,,,1.4,1.1,0.8,1*20::$GAGSV,1,1,0,*74::$GLGSV,2,2,08,87,14,317,22,71,51,347,23,72,14,303,19,85,00,000,*64::$GBGSV,1,1,0,*77::$PQGSV,1,1,0,*73",3636,2019-12-01 12:34:41:451
-2.301895,-7.027725,7.262223,-2.282846,-6.561152,6.921726,-0.094506,-0.659869,0.598937,-0.53186,0.784744,0.50029,304.0,-9.761,36.8073,-18.7576,38.4975,41.2608,14.6408,8.0,946.8118,23.91651,36.048264,-115.131096,615.0,NaN,0.663011,0.0,9.648001,,15 / 22,"$GPVTG,,T,,M,0.0,N,0.0,K,A*23::$GPGSV,4,4,13,16,05,158,*45::$GNVTG,,T,,M,0.0,N,0.0,K,A*3D::$GNRMC,203442.00,A,3602.895877,N,11507.865561,W,0.0,,011219,12.3,E,A*2E::$GPRMC,203334.00,A,3602.900606,N,11507.868379,W,0.0,,011219,12.3,E,A*31::$GPGGA,203334.00,3602.900606,N,11507.868379,W,1,00,1.1,624.0,M,-18.0,M,,*58::$GNGGA,203442.00,3602.895877,N,11507.865561,W,1,12,0.8,633.0,M,-18.0,M,,*4A::$GNGSA,A,3,70,71,72,80,87,,,,,,,,1.1,0.8,0.7,2*3E::$GPGSA,A,1,,,,,,,,,,,,,1.4,1.1,0.8,1*20::$GAGSV,1,1,0,*74::$GLGSV,2,2,08,87,14,317,22,71,51,347,23,72,14,303,19,85,00,000,*64::$GBGSV,1,1,0,*77::$PQGSV,1,1,0,*73",3735,2019-12-01 12:34:41:550
-3.347565,-7.022934,6.649658,-2.963014,-6.722835,6.495723,-0.567464,-0.519482,0.398923,-0.656479,0.100586,0.418442,304.0,-6.8161,40.9302,-18.7775,35.4902,43.278,24.52,8.0,946.8188,26.8598,36.048264,-115.131096,615.0,NaN,0.60308546,0.0,9.648001,,15 / 22,"$GPVTG,,T,,M,0.0,N,0.0,K,A*23::$GPGSV,4,4,13,16,05,158,*45::$GNVTG,,T,,M,0.0,N,0.0,K,A*3D::$GNRMC,203442.00,A,3602.895877,N,11507.865561,W,0.0,,011219,12.3,E,A*2E::$GPRMC,203334.00,A,3602.900606,N,11507.868379,W,0.0,,011219,12.3,E,A*31::$GPGGA,203334.00,3602.900606,N,11507.868379,W,1,00,1.1,624.0,M,-18.0,M,,*58::$GNGGA,203442.00,3602.895877,N,11507.865561,W,1,12,0.8,633.0,M,-18.0,M,,*4A::$GNGSA,A,3,70,71,72,80,87,,,,,,,,1.1,0.8,0.7,2*3E::$GPGSA,A,1,,,,,,,,,,,,,1.4,1.1,0.8,1*20::$GAGSV,1,1,0,*74::$GLGSV,2,2,08,87,14,317,22,71,51,347,23,72,14,303,19,85,00,000,*64::$GBGSV,1,1,0,*77::$PQGSV,1,1,0,*73",3835,2019-12-01 12:34:41:650
-3.909866,-6.984649,5.87677,-3.593572,-6.777719,6.108941,-0.273132,-0.185557,-0.085442,-0.589279,0.425552,0.466095,334.0,-0.3723,42.4057,-14.3738,24.6833,43.5074,29.5412,8.0,946.8262,26.8598,36.048264,-115.131096,615.0,NaN,0.541257,0.0,9.648001,,15 / 22,"$GPVTG,,T,,M,0.0,N,0.0,K,A*23::$GPGSV,4,4,13,16,05,158,*45::$GNVTG,,T,,M,0.0,N,0.0,K,A*3D::$GNRMC,203442.00,A,3602.895877,N,11507.865561,W,0.0,,011219,12.3,E,A*2E::$GPRMC,203334.00,A,3602.900606,N,11507.868379,W,0.0,,011219,12.3,E,A*31::$GPGGA,203334.00,3602.900606,N,11507.868379,W,1,00,1.1,624.0,M,-18.0,M,,*58::$GNGGA,203442.00,3602.895877,N,11507.865561,W,1,12,0.8,633.0,M,-18.0,M,,*4A::$GNGSA,A,3,70,71,72,80,87,,,,,,,,1.1,0.8,0.7,2*3E::$GPGSA,A,1,,,,,,,,,,,,,1.4,1.1,0.8,1*20::$GAGSV,1,1,0,*74::$GLGSV,2,2,08,87,14,317,22,71,51,347,23,72,14,303,19,85,00,000,*64::$GBGSV,1,1,0,*77::$PQGSV,1,1,0,*73",3935,2019-12-01 12:34:41:750
-4.491333,-6.113662,5.407776,-4.145667,-6.897107,5.604795,-0.160991,0.598435,0.11193,-0.214218,0.506195,0.551605,334.0,0.3723,43.7744,-14.3799,18.0484,44.8621,35.1757,8.0,946.8262,26.8598,36.048264,-115.131096,615.0,NaN,0.541257,0.0,9.648001,,15 / 22,"$GPVTG,,T,,M,0.0,N,0.0,K,A*23::$GPGSV,4,4,13,16,05,158,*45::$GNVTG,,T,,M,0.0,N,0.0,K,A*3D::$GNRMC,203442.00,A,3602.895877,N,11507.865561,W,0.0,,011219,12.3,E,A*2E::$GPRMC,203334.00,A,3602.900606,N,11507.868379,W,0.0,,011219,12.3,E,A*31::$GPGGA,203334.00,3602.900606,N,11507.868379,W,1,00,1.1,624.0,M,-18.0,M,,*58::$GNGGA,203442.00,3602.895877,N,11507.865561,W,1,12,0.8,633.0,M,-18.0,M,,*4A::$GNGSA,A,3,70,71,72,80,87,,,,,,,,1.1,0.8,0.7,2*3E::$GPGSA,A,1,,,,,,,,,,,,,1.4,1.1,0.8,1*20::$GAGSV,1,1,0,*74::$GLGSV,2,2,08,87,14,317,22,71,51,347,23,72,14,303,19,85,00,000,*64::$GBGSV,1,1,0,*77::$PQGSV,1,1,0,*73",4035,2019-12-01 12:34:41:850
-4.816757,-7.980057,7.049256,-4.652891,-6.899009,5.188899,-0.232631,-1.289199,2.139181,-0.600281,0.469543,0.505188,361.0,3.2227,43.8248,-11.4395,11.9716,44.7087,41.8826,8.0,946.835,24.57066,36.048264,-115.131096,615.0,NaN,0.4680135,0.0,9.648001,,15 / 22,"$GPVTG,,T,,M,0.0,N,0.0,K,A*23::$GPGSV,4,4,13,16,05,158,*45::$GNVTG,,T,,M,0.0,N,0.0,K,A*3D::$GNRMC,203442.00,A,3602.895877,N,11507.865561,W,0.0,,011219,12.3,E,A*2E::$GPRMC,203334.00,A,3602.900606,N,11507.868379,W,0.0,,011219,12.3,E,A*31::$GPGGA,203334.00,3602.900606,N,11507.868379,W,1,00,1.1,624.0,M,-18.0,M,,*58::$GNGGA,203442.00,3602.895877,N,11507.865561,W,1,12,0.8,633.0,M,-18.0,M,,*4A::$GNGSA,A,3,70,71,72,80,87,,,,,,,,1.1,0.8,0.7,2*3E::$GPGSA,A,1,,,,,,,,,,,,,1.4,1.1,0.8,1*20::$GAGSV,1,1,0,*74::$GLGSV,2,2,08,87,14,317,22,71,51,347,23,72,14,303,19,85,00,000,*64::$GBGSV,1,1,0,*77::$PQGSV,1,1,0,*73",4135,2019-12-01 12:34:41:950
-4.776077,-7.211975,7.130615,-4.78111,-6.685733,5.349052,-0.037872,-1.247734,1.942034,0.566452,-0.606781,-0.075134,361.0,4.6616,44.5435,-13.6459,8.8692,43.4709,42.5226,8.0,946.8484,24.57066,36.048264,-115.131096,615.0,NaN,0.35481763,0.0,9.648001,,15 / 22,"$GPVTG,,T,,M,0.0,N,0.0,K,A*23::$GPGSV,4,4,13,16,05,158,*45::$GNVTG,,T,,M,0.0,N,0.0,K,A*3D::$GNRMC,203442.00,A,3602.895877,N,11507.865561,W,0.0,,011219,12.3,E,A*2E::$GPRMC,203334.00,A,3602.900606,N,11507.868379,W,0.0,,011219,12.3,E,A*31::$GPGGA,203334.00,3602.900606,N,11507.868379,W,1,00,1.1,624.0,M,-18.0,M,,*58::$GNGGA,203442.00,3602.895877,N,11507.865561,W,1,12,0.8,633.0,M,-18.0,M,,*4A::$GNGSA,A,3,70,71,72,80,87,,,,,,,,1.1,0.8,0.7,2*3E::$GPGSA,A,1,,,,,,,,,,,,,1.4,1.1,0.8,1*20::$GAGSV,1,1,0,*74::$GLGSV,2,2,08,87,14,317,22,71,51,347,23,72,14,303,19,85,00,000,*64::$GBGSV,1,1,0,*77::$PQGSV,1,1,0,*73",4235,2019-12-01 12:34:42:050
-3.347565,-7.982452,6.503693,-4.232517,-6.453914,6.050056,0.868253,-1.617881,0.767164,0.753387,-0.014267,-0.463623,355.0,3.9017,42.4942,-12.9013,15.8674,41.7912,37.0426,8.0,946.8484,24.57066,36.048264,-115.131096,615.0,NaN,0.35481763,0.0,9.648001,,15 / 22,"$GPVTG,,T,,M,0.0,N,0.0,K,A*23::$GPGSV,4,3,13,25,11,046,19,26,22,137,21,31,64,060,25,32,22,066,24*75::$GNVTG,,T,,M,0.0,N,0.0,K,A*3D::$GNRMC,203442.00,A,3602.895877,N,11507.865561,W,0.0,,011219,12.3,E,A*2E::$GPRMC,203334.00,A,3602.900606,N,11507.868379,W,0.0,,011219,12.3,E,A*31::$GPGGA,203334.00,3602.900606,N,11507.868379,W,1,00,1.1,624.0,M,-18.0,M,,*58::$GNGGA,203442.00,3602.895877,N,11507.865561,W,1,12,0.8,633.0,M,-18.0,M,,*4A::$GNGSA,A,3,70,71,72,80,87,,,,,,,,1.1,0.8,0.7,2*3E::$GPGSA,A,1,,,,,,,,,,,,,1.4,1.1,0.8,1*20::$GAGSV,1,1,0,*74::$GLGSV,2,2,08,87,14,317,22,71,51,347,23,72,14,303,19,85,00,000,*64::$GBGSV,1,1,0,*77::$PQGSV,1,1,0,*73",4335,2019-12-01 12:34:42:150
-4.027115,-6.223724,7.865204,-3.826856,-6.080242,6.675045,-0.527145,-0.278273,1.269569,1.118668,-0.479721,-0.490509,355.0,-1.1185,41.0614,-19.5084,26.4709,38.317,29.826,8.0,946.8626,24.57066,36.048264,-115.131096,615.0,NaN,0.23496144,0.0,9.648001,,15 / 22,"$GPVTG,,T,,M,0.0,N,0.0,K,A*23::$GPGSV,4,4,13,16,05,158,*45::$GNVTG,,T,,M,0.0,N,0.0,K,A*3D::$GNRMC,203443.00,A,3602.895877,N,11507.865562,W,0.0,,011219,12.3,E,A*2C::$GPRMC,203334.00,A,3602.900606,N,11507.868379,W,0.0,,011219,12.3,E,A*31::$GPGGA,203334.00,3602.900606,N,11507.868379,W,1,00,1.1,624.0,M,-18.0,M,,*58::$GNGGA,203443.00,3602.895877,N,11507.865562,W,1,12,0.8,633.0,M,-18.0,M,,*48::$GNGSA,A,3,70,71,72,80,87,,,,,,,,1.1,0.8,0.7,2*3E::$GPGSA,A,1,,,,,,,,,,,,,1.4,1.1,0.8,1*20::$GAGSV,1,1,0,*74::$GLGSV,2,2,08,87,14,317,18,71,51,347,27,72,14,303,19,85,00,000,*69::$GBGSV,1,1,0,*77::$PQGSV,1,1,0,*73",4435,2019-12-01 12:34:42:250
-3.871582,-4.223327,7.55893,-3.786302,-4.720425,7.716987,-0.094499,0.214412,-0.00423,2.502884,0.968002,-0.330475,339.0,-0.5234,36.3876,-28.2989,31.9979,31.2194,25.9759,8.0,946.8626,26.07475,36.048264,-115.131096,615.0,NaN,0.23496144,0.0,9.648001,,15 / 22,"$GPVTG,,T,,M,0.0,N,0.0,K,A*23::$GPGSV,4,4,13,16,05,158,*45::$GNVTG,,T,,M,0.0,N,0.0,K,A*3D::$GNRMC,203443.00,A,3602.895877,N,11507.865562,W,0.0,,011219,12.3,E,A*2C::$GPRMC,203334.00,A,3602.900606,N,11507.868379,W,0.0,,011219,12.3,E,A*31::$GPGGA,203334.00,3602.900606,N,11507.868379,W,1,00,1.1,624.0,M,-18.0,M,,*58::$GNGGA,203443.00,3602.895877,N,11507.865562,W,1,12,0.8,633.0,M,-18.0,M,,*48::$GNGSA,A,3,70,71,72,80,87,,,,,,,,1.1,0.8,0.7,2*3E::$GPGSA,A,1,,,,,,,,,,,,,1.4,1.1,0.8,1*20::$GAGSV,1,1,0,*74::$GLGSV,2,2,08,87,14,317,18,71,51,347,27,72,14,303,19,85,00,000,*69::$GBGSV,1,1,0,*77::$PQGSV,1,1,0,*73",4535,2019-12-01 12:34:42:350
-3.457626,-3.895508,9.714859,-3.274193,-2.898173,8.77785,-0.074213,-0.763628,1.027397,2.893845,-0.658096,-0.403763,339.0,-3.5339,29.5837,-33.4091,40.1849,19.312,21.3378,8.0,946.8711,26.07475,36.048264,-115.131096,615.0,NaN,0.16266634,0.0,9.648001,,15 / 22,"$GPVTG,,T,,M,0.0,N,0.0,K,A*23::$GPGSV,4,4,13,16,05,158,*45::$GNVTG,,T,,M,0.0,N,0.0,K,A*3D::$GNRMC,203443.00,A,3602.895877,N,11507.865562,W,0.0,,011219,12.3,E,A*2C::$GPRMC,203334.00,A,3602.900606,N,11507.868379,W,0.0,,011219,12.3,E,A*31::$GPGGA,203334.00,3602.900606,N,11507.868379,W,1,00,1.1,624.0,M,-18.0,M,,*58::$GNGGA,203443.00,3602.895877,N,11507.865562,W,1,12,0.8,633.0,M,-18.0,M,,*48::$GNGSA,A,3,70,71,72,80,87,,,,,,,,1.1,0.8,0.7,2*3E::$GPGSA,A,1,,,,,,,,,,,,,1.4,1.1,0.8,1*20::$GAGSV,1,1,0,*74::$GLGSV,2,2,08,87,14,317,18,71,51,347,27,72,14,303,19,85,00,000,*69::$GBGSV,1,1,0,*77::$PQGSV,1,1,0,*73",4635,2019-12-01 12:34:42:450
-2.553146,-0.768097,9.131012,-3.262998,-0.253139,9.244412,0.679902,-0.604235,0.033468,4.203537,1.121948,-0.954773,325.0,-3.8574,16.0995,-42.1539,48.4091,4.4349,18.89,8.0,946.8716,26.07475,36.048264,-115.131096,615.0,NaN,0.15886132,0.0,9.648001,,15 / 22,"$GPVTG,,T,,M,0.0,N,0.0,K,A*23::$GPGSV,4,4,13,16,05,158,*45::$GNVTG,,T,,M,0.0,N,0.0,K,A*3D::$GNRMC,203443.00,A,3602.895877,N,11507.865562,W,0.0,,011219,12.3,E,A*2C::$GPRMC,203334.00,A,3602.900606,N,11507.868379,W,0.0,,011219,12.3,E,A*31::$GPGGA,203334.00,3602.900606,N,11507.868379,W,1,00,1.1,624.0,M,-18.0,M,,*58::$GNGGA,203443.00,3602.895877,N,11507.865562,W,1,12,0.8,633.0,M,-18.0,M,,*48::$GNGSA,A,3,70,71,72,80,87,,,,,,,,1.1,0.8,0.7,2*3E::$GPGSA,A,1,,,,,,,,,,,,,1.4,1.1,0.8,1*20::$GAGSV,1,1,0,*74::$GLGSV,2,2,08,87,14,317,18,71,51,347,27,72,14,303,19,85,00,000,*69::$GBGSV,1,1,0,*77::$PQGSV,1,1,0,*73",4735,2019-12-01 12:34:42:550
-4.448257,4.113266,7.855637,-3.325041,2.296821,8.935273,-1.536794,1.749442,-0.950044,1.696549,-0.728943,0.579712,325.0,-3.5614,-0.7553,-46.5836,65.8799,-13.5451,20.4115,8.0,946.8716,25.34781,36.048264,-115.131096,615.0,NaN,0.15886132,0.0,9.648001,,15 / 22,"$GPVTG,,T,,M,0.0,N,0.0,K,A*23::$GPGSV,4,4,13,16,05,158,*45::$GNVTG,,T,,M,0.0,N,0.0,K,A*3D::$GNRMC,203443.00,A,3602.895877,N,11507.865562,W,0.0,,011219,12.3,E,A*2C::$GPRMC,203334.00,A,3602.900606,N,11507.868379,W,0.0,,011219,12.3,E,A*31::$GPGGA,203334.00,3602.900606,N,11507.868379,W,1,00,1.1,624.0,M,-18.0,M,,*58::$GNGGA,203443.00,3602.895877,N,11507.865562,W,1,12,0.8,633.0,M,-18.0,M,,*48::$GNGSA,A,3,70,71,72,80,87,,,,,,,,1.1,0.8,0.7,2*3E::$GPGSA,A,1,,,,,,,,,,,,,1.4,1.1,0.8,1*20::$GAGSV,1,1,0,*74::$GLGSV,2,2,08,87,14,317,18,71,51,347,27,72,14,303,19,85,00,000,*69::$GBGSV,1,1,0,*77::$PQGSV,1,1,0,*73",4835,2019-12-01 12:34:42:650
-1.715652,5.190033,9.485153,-2.553948,3.639089,8.740983,0.836818,1.52227,0.761498,1.19809,-0.445511,0.232727,245.0,-5.8258,-6.2088,-47.29,63.0931,-20.6952,16.5336,8.0,946.8754,25.34781,36.048264,-115.131096,615.0,NaN,0.12651855,0.0,9.648001,,15 / 22,"$GPVTG,,T,,M,0.0,N,0.0,K,A*23::$GPGSV,4,4,13,16,05,158,*45::$GNVTG,,T,,M,0.0,N,0.0,K,A*3D::$GNRMC,203443.00,A,3602.895877,N,11507.865562,W,0.0,,011219,12.3,E,A*2C::$GPRMC,203334.00,A,3602.900606,N,11507.868379,W,0.0,,011219,12.3,E,A*31::$GPGGA,203334.00,3602.900606,N,11507.868379,W,1,00,1.1,624.0,M,-18.0,M,,*58::$GNGGA,203443.00,3602.895877,N,11507.865562,W,1,12,0.8,633.0,M,-18.0,M,,*48::$GNGSA,A,3,70,71,72,80,87,,,,,,,,1.1,0.8,0.7,2*3E::$GPGSA,A,1,,,,,,,,,,,,,1.4,1.1,0.8,1*20::$GAGSV,1,1,0,*74::$GLGSV,2,2,08,87,14,317,18,71,51,347,27,72,14,303,19,85,00,000,*69::$GBGSV,1,1,0,*77::$PQGSV,1,1,0,*73",4935,2019-12-01 12:34:42:750
-2.127212,6.541977,10.169495,-1.908341,4.873835,8.29303,-0.17184,1.696161,1.860772,1.40213,-0.785156,0.324356,245.0,-8.8623,-14.4119,-42.1051,68.4307,-29.8012,12.959,8.0,946.8757,25.34781,36.048264,-115.131096,615.0,NaN,0.124616034,0.0,9.648001,,15 / 22,"$GPVTG,,T,,M,0.0,N,0.0,K,A*23::$GPGSV,4,4,13,16,05,158,*45::$GNVTG,,T,,M,0.0,N,0.0,K,A*3D::$GNRMC,203443.00,A,3602.895877,N,11507.865562,W,0.0,,011219,12.3,E,A*2C::$GPRMC,203334.00,A,3602.900606,N,11507.868379,W,0.0,,011219,12.3,E,A*31::$GPGGA,203334.00,3602.900606,N,11507.868379,W,1,00,1.1,624.0,M,-18.0,M,,*58::$GNGGA,203443.00,3602.895877,N,11507.865562,W,1,12,0.8,633.0,M,-18.0,M,,*48::$GNGSA,A,3,70,71,72,80,87,,,,,,,,1.1,0.8,0.7,2*3E::$GPGSA,A,1,,,,,,,,,,,,,1.4,1.1,0.8,1*20::$GAGSV,1,1,0,*74::$GLGSV,2,2,08,87,14,317,18,71,51,347,27,72,14,303,19,85,00,000,*69::$GBGSV,1,1,0,*77::$PQGSV,1,1,0,*73",5035,2019-12-01 12:34:42:850
-1.162918,6.601792,9.332016,-1.033019,6.115549,7.59627,-0.138331,0.450142,1.641055,1.633026,-1.000168,0.290146,175.0,-11.1435,-20.5582,-39.8712,63.2915,-36.3462,9.1528,8.0,946.8757,25.26175,36.048264,-115.131096,615.0,NaN,0.124616034,0.0,9.648001,,15 / 22,"$GPVTG,,T,,M,0.0,N,0.0,K,A*23::$GPGSV,4,4,13,16,05,158,*45::$GNVTG,,T,,M,0.0,N,0.0,K,A*3D::$GNRMC,203443.00,A,3602.895877,N,11507.865562,W,0.0,,011219,12.3,E,A*2C::$GPRMC,203334.00,A,3602.900606,N,11507.868379,W,0.0,,011219,12.3,E,A*31::$GPGGA,203334.00,3602.900606,N,11507.868379,W,1,00,1.1,624.0,M,-18.0,M,,*58::$GNGGA,203443.00,3602.895877,N,11507.865562,W,1,12,0.8,633.0,M,-18.0,M,,*48::$GNGSA,A,3,70,71,72,80,87,,,,,,,,1.1,0.8,0.7,2*3E::$GPGSA,A,1,,,,,,,,,,,,,1.4,1.1,0.8,1*20::$GAGSV,1,1,0,*74::$GLGSV,2,2,08,87,14,317,18,71,51,347,27,72,14,303,19,85,00,000,*69::$GBGSV,1,1,0,*77::$PQGSV,1,1,0,*73",5135,2019-12-01 12:34:42:950
0.406784,7.317246,6.654434,0.053012,7.183717,6.675463,0.302979,0.073859,-0.07067,1.074692,-1.571945,0.240051,175.0,-17.659,-25.4684,-33.2352,67.7422,-47.0994,-0.455,8.0,946.8729,25.26175,36.048264,-115.131096,615.0,NaN,0.14744624,0.0,9.648001,,15 / 22,"$GPVTG,,T,,M,0.0,N,0.0,K,A*23::$GPGSV,4,4,13,16,05,158,*45::$GNVTG,,T,,M,0.0,N,0.0,K,A*3D::$GNRMC,203443.00,A,3602.895877,N,11507.865562,W,0.0,,011219,12.3,E,A*2C::$GPRMC,203334.00,A,3602.900606,N,11507.868379,W,0.0,,011219,12.3,E,A*31::$GPGGA,203334.00,3602.900606,N,11507.868379,W,1,00,1.1,624.0,M,-18.0,M,,*58::$GNGGA,203443.00,3602.895877,N,11507.865562,W,1,12,0.8,633.0,M,-18.0,M,,*48::$GNGSA,A,3,70,71,72,80,87,,,,,,,,1.1,0.8,0.7,2*3E::$GPGSA,A,1,,,,,,,,,,,,,1.4,1.1,0.8,1*20::$GAGSV,1,1,0,*74::$GLGSV,2,2,08,87,14,317,18,71,51,347,27,72,14,303,19,85,00,000,*69::$GBGSV,1,1,0,*77::$PQGSV,1,1,0,*73",5235,2019-12-01 12:34:43:050
1.679764,7.757538,4.991425,0.594581,7.88164,5.804878,1.196879,-0.467307,-0.373336,1.694107,0.005295,-0.602905,140.0,-18.4357,-28.1952,-31.7551,57.1332,-52.0577,-6.0683,8.0,946.8753,25.26175,36.048264,-115.131096,615.0,NaN,0.12746981,0.0,9.648001,,15 / 22,"$GPVTG,,T,,M,0.0,N,0.0,K,A*23::$GPGSV,4,3,13,25,11,046,17,26,22,137,27,31,64,060,24,32,22,066,24*7C::$GNVTG,,T,,M,0.0,N,0.0,K,A*3D::$GNRMC,203443.00,A,3602.895877,N,11507.865562,W,0.0,,011219,12.3,E,A*2C::$GPRMC,203334.00,A,3602.900606,N,11507.868379,W,0.0,,011219,12.3,E,A*31::$GPGGA,203334.00,3602.900606,N,11507.868379,W,1,00,1.1,624.0,M,-18.0,M,,*58::$GNGGA,203443.00,3602.895877,N,11507.865562,W,1,12,0.8,633.0,M,-18.0,M,,*48::$GNGSA,A,3,70,71,72,80,87,,,,,,,,1.1,0.8,0.7,2*3E::$GPGSA,A,1,,,,,,,,,,,,,1.4,1.1,0.8,1*20::$GAGSV,1,1,0,*74::$GLGSV,2,2,08,87,14,317,18,71,51,347,27,72,14,303,19,85,00,000,*69::$GBGSV,1,1,0,*77::$PQGSV,1,1,0,*73",5335,2019-12-01 12:34:43:150
-1.024124,9.985245,5.7332,0.585384,8.541671,4.782005,-1.355598,1.166275,0.876671,0.706955,-1.082031,0.671341,140.0,-20.694,-33.6899,-24.3774,74.0198,-60.0802,-5.1019,8.0,946.8753,25.26175,36.048264,-115.131096,615.0,NaN,0.12746981,0.0,9.648001,,15 / 22,"$GPVTG,,T,,M,0.0,N,0.0,K,A*23::$GPGSV,4,4,13,16,05,158,*45::$GNVTG,,T,,M,0.0,N,0.0,K,A*3D::$GNRMC,203444.00,A,3602.895876,N,11507.865564,W,0.0,,011219,12.3,E,A*2C::$GPRMC,203334.00,A,3602.900606,N,11507.868379,W,0.0,,011219,12.3,E,A*31::$GPGGA,203334.00,3602.900606,N,11507.868379,W,1,00,1.1,624.0,M,-18.0,M,,*58::$GNGGA,203444.00,3602.895876,N,11507.865564,W,1,12,0.8,633.0,M,-18.0,M,,*48::$GNGSA,A,3,70,71,72,80,87,,,,,,,,1.1,0.8,0.7,2*3E::$GPGSA,A,1,,,,,,,,,,,,,1.4,1.1,0.8,1*20::$GAGSV,1,1,0,*74::$GLGSV,2,2,08,87,14,317,23,71,51,347,29,72,14,303,19,85,00,000,*6F::$GBGSV,1,1,0,*77::$PQGSV,1,1,0,*73",5435,2019-12-01 12:34:43:250
0.569489,8.829514,4.106079,1.340671,8.795317,4.124972,-0.918839,-0.092318,0.322657,0.658081,-0.821808,0.530838,118.0,-24.1898,-31.0913,-18.5196,64.8701,-63.3311,-16.0963,8.0,946.8763,37.52948,36.048264,-115.131096,615.0,NaN,0.11890847,0.0,9.648001,,15 / 22,"$GPVTG,,T,,M,0.0,N,0.0,K,A*23::$GPGSV,4,4,13,16,05,158,*45::$GNVTG,,T,,M,0.0,N,0.0,K,A*3D::$GNRMC,203444.00,A,3602.895876,N,11507.865564,W,0.0,,011219,12.3,E,A*2C::$GPRMC,203334.00,A,3602.900606,N,11507.868379,W,0.0,,011219,12.3,E,A*31::$GPGGA,203334.00,3602.900606,N,11507.868379,W,1,00,1.1,624.0,M,-18.0,M,,*58::$GNGGA,203444.00,3602.895876,N,11507.865564,W,1,12,0.8,633.0,M,-18.0,M,,*48::$GNGSA,A,3,70,71,72,80,87,,,,,,,,1.1,0.8,0.7,2*3E::$GPGSA,A,1,,,,,,,,,,,,,1.4,1.1,0.8,1*20::$GAGSV,1,1,0,*74::$GLGSV,2,2,08,87,14,317,23,71,51,347,29,72,14,303,19,85,00,000,*6F::$GBGSV,1,1,0,*77::$PQGSV,1,1,0,*73",5535,2019-12-01 12:34:43:350
0.586243,8.283951,3.113068,1.607551,8.94385,3.686967,-0.980259,-0.812625,-0.543042,0.510254,-0.006943,-0.182632,118.0,-24.9481,-33.1558,-14.8346,58.823,-64.843,-22.7323,8.0,946.8684,37.52948,36.048264,-115.131096,615.0,NaN,0.18549643,0.0,9.648001,,15 / 22,"$GPVTG,,T,,M,0.0,N,0.0,K,A*23::$GPGSV,4,4,13,16,05,158,*45::$GNVTG,,T,,M,0.0,N,0.0,K,A*3D::$GNRMC,203444.00,A,3602.895876,N,11507.865564,W,0.0,,011219,12.3,E,A*2C::$GPRMC,203334.00,A,3602.900606,N,11507.868379,W,0.0,,011219,12.3,E,A*31::$GPGGA,203334.00,3602.900606,N,11507.868379,W,1,00,1.1,624.0,M,-18.0,M,,*58::$GNGGA,203444.00,3602.895876,N,11507.865564,W,1,12,0.8,633.0,M,-18.0,M,,*48::$GNGSA,A,3,70,71,72,80,87,,,,,,,,1.1,0.8,0.7,2*3E::$GPGSA,A,1,,,,,,,,,,,,,1.4,1.1,0.8,1*20::$GAGSV,1,1,0,*74::$GLGSV,2,2,08,87,14,317,23,71,51,347,29,72,14,303,19,85,00,000,*6F::$GBGSV,1,1,0,*77::$PQGSV,1,1,0,*73",5635,2019-12-01 12:34:43:450
-0.263214,8.755341,2.378464,1.251158,9.244597,3.023641,-1.530264,-0.586171,-0.739524,0.941513,0.166565,-0.213165,117.0,-24.3317,-37.2055,-12.6083,62.0396,-68.9189,-22.5822,8.0,946.8684,37.52948,36.048264,-115.131096,615.0,NaN,0.18549643,0.0,9.648001,,15 / 22,"$GPVTG,,T,,M,0.0,N,0.0,K,A*23::$GPGSV,4,4,13,16,05,158,*45::$GNVTG,,T,,M,0.0,N,0.0,K,A*3D::$GNRMC,203444.00,A,3602.895876,N,11507.865564,W,0.0,,011219,12.3,E,A*2C::$GPRMC,203334.00,A,3602.900606,N,11507.868379,W,0.0,,011219,12.3,E,A*31::$GPGGA,203334.00,3602.900606,N,11507.868379,W,1,00,1.1,624.0,M,-18.0,M,,*58::$GNGGA,203444.00,3602.895876,N,11507.865564,W,1,12,0.8,633.0,M,-18.0,M,,*48::$GNGSA,A,3,70,71,72,80,87,,,,,,,,1.1,0.8,0.7,2*3E::$GPGSA,A,1,,,,,,,,,,,,,1.4,1.1,0.8,1*20::$GAGSV,1,1,0,*74::$GLGSV,2,2,08,87,14,317,23,71,51,347,29,72,14,303,19,85,00,000,*6F::$GBGSV,1,1,0,*77::$PQGSV,1,1,0,*73",5736,2019-12-01 12:34:43:551
1.098312,8.035095,3.909866,1.303895,9.335894,2.703949,-0.351074,-1.429306,0.380695,0.115631,-0.247589,-0.102005,117.0,-22.9233,-37.8479,-13.3377,59.0819,-72.175,-25.7442,8.0,946.8612,40.24211,36.048264,-115.131096,615.0,NaN,0.24637638,0.0,9.648001,,15 / 22,"$GPVTG,,T,,M,0.0,N,0.0,K,A*23::$GPGSV,4,4,13,16,05,158,*45::$GNVTG,,T,,M,0.0,N,0.0,K,A*3D::$GNRMC,203444.00,A,3602.895876,N,11507.865564,W,0.0,,011219,12.3,E,A*2C::$GPRMC,203334.00,A,3602.900606,N,11507.868379,W,0.0,,011219,12.3,E,A*31::$GPGGA,203334.00,3602.900606,N,11507.868379,W,1,00,1.1,624.0,M,-18.0,M,,*58::$GNGGA,203444.00,3602.895876,N,11507.865564,W,1,12,0.8,633.0,M,-18.0,M,,*48::$GNGSA,A,3,70,71,72,80,87,,,,,,,,1.1,0.8,0.7,2*3E::$GPGSA,A,1,,,,,,,,,,,,,1.4,1.1,0.8,1*20::$GAGSV,1,1,0,*74::$GLGSV,2,2,08,87,14,317,23,71,51,347,29,72,14,303,19,85,00,000,*6F::$GBGSV,1,1,0,*77::$PQGSV,1,1,0,*73",5836,2019-12-01 12:34:43:651
1.196411,8.669189,0.37088,1.259439,9.511173,2.030219,-0.034043,-0.90786,-1.601549,0.513916,-0.076553,-0.198517,114.0,-26.0544,-38.9038,-8.2886,62.3558,-75.2394,-30.7383,8.0,946.8464,40.24211,36.048264,-115.131096,615.0,NaN,0.37098858,0.0,9.648001,,15 / 22,"$GPVTG,,T,,M,0.0,N,0.0,K,A*23::$GPGSV,4,4,13,16,05,158,*45::$GNVTG,,T,,M,0.0,N,0.0,K,A*3D::$GNRMC,203444.00,A,3602.895876,N,11507.865564,W,0.0,,011219,12.3,E,A*2C::$GPRMC,203334.00,A,3602.900606,N,11507.868379,W,0.0,,011219,12.3,E,A*31::$GPGGA,203334.00,3602.900606,N,11507.868379,W,1,00,1.1,624.0,M,-18.0,M,,*58::$GNGGA,203444.00,3602.895876,N,11507.865564,W,1,12,0.8,633.0,M,-18.0,M,,*48::$GNGSA,A,3,70,71,72,80,87,,,,,,,,1.1,0.8,0.7,2*3E::$GPGSA,A,1,,,,,,,,,,,,,1.4,1.1,0.8,1*20::$GAGSV,1,1,0,*74::$GLGSV,2,2,08,87,14,317,23,71,51,347,29,72,14,303,19,85,00,000,*6F::$GBGSV,1,1,0,*77::$PQGSV,1,1,0,*73",5934,2019-12-01 12:34:43:749
-0.04068,8.810379,0.22493,1.117568,9.578609,1.780927,-1.05792,-0.812285,-1.680207,0.236588,0.126236,0.137436,114.0,-25.3738,-40.239,-9.0164,54.1379,-77.6197,-32.1091,8.0,946.8464,40.24211,36.048264,-115.131096,615.0,NaN,0.37098858,0.0,9.648001,,15 / 22,"$GPVTG,,T,,M,0.0,N,0.0,K,A*23::$GPGSV,4,4,13,16,05,158,*45::$GNVTG,,T,,M,0.0,N,0.0,K,A*3D::$GNRMC,203444.00,A,3602.895876,N,11507.865564,W,0.0,,011219,12.3,E,A*2C::$GPRMC,203334.00,A,3602.900606,N,11507.868379,W,0.0,,011219,12.3,E,A*31::$GPGGA,203334.00,3602.900606,N,11507.868379,W,1,00,1.1,624.0,M,-18.0,M,,*58::$GNGGA,203444.00,3602.895876,N,11507.865564,W,1,12,0.8,633.0,M,-18.0,M,,*48::$GNGSA,A,3,70,71,72,80,87,,,,,,,,1.1,0.8,0.7,2*3E::$GPGSA,A,1,,,,,,,,,,,,,1.4,1.1,0.8,1*20::$GAGSV,1,1,0,*74::$GLGSV,2,2,08,87,14,317,23,71,51,347,29,72,14,303,19,85,00,000,*6F::$GBGSV,1,1,0,*77::$PQGSV,1,1,0,*73",6036,2019-12-01 12:34:43:851
0.775269,8.774475,0.468994,1.26641,9.571115,1.720566,-0.500136,-0.77972,-1.210893,0.11319,-0.052124,0.354904,114.0,-24.614,-38.1989,-7.5577,56.8745,-77.6405,-33.569,8.0,946.8286,40.24211,36.048264,-115.131096,615.0,NaN,0.5212816,0.0,9.648001,,15 / 22,"$GPVTG,,T,,M,0.0,N,0.0,K,A*23::$GPGSV,4,4,13,16,05,158,*45::$GNVTG,,T,,M,0.0,N,0.0,K,A*3D::$GNRMC,203444.00,A,3602.895876,N,11507.865564,W,0.0,,011219,12.3,E,A*2C::$GPRMC,203334.00,A,3602.900606,N,11507.868379,W,0.0,,011219,12.3,E,A*31::$GPGGA,203334.00,3602.900606,N,11507.868379,W,1,00,1.1,624.0,M,-18.0,M,,*58::$GNGGA,203444.00,3602.895876,N,11507.865564,W,1,12,0.8,633.0,M,-18.0,M,,*48::$GNGSA,A,3,70,71,72,80,87,,,,,,,,1.1,0.8,0.7,2*3E::$GPGSA,A,1,,,,,,,,,,,,,1.4,1.1,0.8,1*20::$GAGSV,1,1,0,*74::$GLGSV,2,2,08,87,14,317,23,71,51,347,29,72,14,303,19,85,00,000,*6F::$GBGSV,1,1,0,*77::$PQGSV,1,1,0,*73",6135,2019-12-01 12:34:43:950
1.493118,8.303101,-0.624527,1.508922,9.537687,1.710573,-0.014466,-1.064094,-2.336617,-0.287521,-0.097321,0.187515,114.0,-26.7654,-38.9313,-6.0852,48.4546,-77.1789,-40.6396,8.0,946.8286,31.8519,36.048264,-115.131096,615.0,NaN,0.5212816,0.0,9.648001,,15 / 22,"$GPVTG,,T,,M,0.0,N,0.0,K,A*23::$GPGSV,4,4,13,16,05,158,*45::$GNVTG,,T,,M,0.0,N,0.0,K,A*3D::$GNRMC,203444.00,A,3602.895876,N,11507.865564,W,0.0,,011219,12.3,E,A*2C::$GPRMC,203334.00,A,3602.900606,N,11507.868379,W,0.0,,011219,12.3,E,A*31::$GPGGA,203334.00,3602.900606,N,11507.868379,W,1,00,1.1,624.0,M,-18.0,M,,*58::$GNGGA,203444.00,3602.895876,N,11507.865564,W,1,12,0.8,633.0,M,-18.0,M,,*48::$GNGSA,A,3,70,71,72,80,87,,,,,,,,1.1,0.8,0.7,2*3E::$GPGSA,A,1,,,,,,,,,,,,,1.4,1.1,0.8,1*20::$GAGSV,1,1,0,*74::$GLGSV,2,2,08,87,14,317,23,71,51,347,29,72,14,303,19,85,00,000,*6F::$GBGSV,1,1,0,*77::$PQGSV,1,1,0,*73",6235,2019-12-01 12:34:44:050
0.681961,8.743378,-0.028717,1.464582,9.42666,2.272327,-0.751367,-0.629302,-2.307395,-0.871506,0.032166,-0.071457,121.0,-26.7349,-37.5687,-8.2962,59.4963,-74.7388,-35.528,8.0,946.8121,31.8519,36.048264,-115.131096,615.0,NaN,0.66015744,0.0,9.648001,,15 / 22,"$GPVTG,,T,,M,0.0,N,0.0,K,A*23::$GPGSV,4,4,13,16,05,158,*45::$GNVTG,,T,,M,0.0,N,0.0,K,A*3D::$GNRMC,203445.00,A,3602.895875,N,11507.865566,W,0.0,,011219,12.3,E,A*2C::$GPRMC,203334.00,A,3602.900606,N,11507.868379,W,0.0,,011219,12.3,E,A*31::$GPGGA,203334.00,3602.900606,N,11507.868379,W,1,00,1.1,624.0,M,-18.0,M,,*58::$GNGGA,203445.00,3602.895875,N,11507.865566,W,1,12,0.8,633.0,M,-18.0,M,,*48::$GNGSA,A,3,70,71,72,80,87,,,,,,,,1.1,0.8,0.8,2*31::$GPGSA,A,1,,,,,,,,,,,,,1.4,1.1,0.8,1*20::$GAGSV,1,1,0,*74::$GLGSV,2,2,08,87,14,317,21,71,51,347,24,72,14,303,19,85,00,000,*60::$GBGSV,1,1,0,*77::$PQGSV,1,1,0,*73",6335,2019-12-01 12:34:44:150
1.153336,8.530411,0.909271,1.598939,9.119186,3.2333,-0.444093,-0.485884,-2.440262,-1.75235,-0.535934,0.183868,121.0,-26.7364,-37.5519,-11.9705,69.2475,-68.4189,-26.3134,8.0,946.8102,31.8519,36.048264,-115.131096,615.0,NaN,0.67632776,0.0,9.648001,,15 / 22,"$GPVTG,,T,,M,0.0,N,0.0,K,A*23::$GPGSV,4,4,13,16,05,158,*45::$GNVTG,,T,,M,0.0,N,0.0,K,A*3D::$GNRMC,203445.00,A,3602.895875,N,11507.865566,W,0.0,,011219,12.3,E,A*2C::$GPRMC,203334.00,A,3602.900606,N,11507.868379,W,0.0,,011219,12.3,E,A*31::$GPGGA,203334.00,3602.900606,N,11507.868379,W,1,00,1.1,624.0,M,-18.0,M,,*58::$GNGGA,203445.00,3602.895875,N,11507.865566,W,1,12,0.8,633.0,M,-18.0,M,,*48::$GNGSA,A,3,70,71,72,80,87,,,,,,,,1.1,0.8,0.8,2*31::$GPGSA,A,1,,,,,,,,,,,,,1.4,1.1,0.8,1*20::$GAGSV,1,1,0,*74::$GLGSV,2,2,08,87,14,317,21,71,51,347,24,72,14,303,19,85,00,000,*60::$GBGSV,1,1,0,*77::$PQGSV,1,1,0,*73",6436,2019-12-01 12:34:44:251
1.548157,7.812561,3.287735,1.994295,8.460443,4.540273,-0.533409,-0.395659,-1.34169,-2.029694,-0.921982,0.446533,146.0,-28.7628,-32.8445,-16.4062,67.0563,-61.6591,-23.6711,8.0,946.8102,24.51969,36.048264,-115.131096,615.0,NaN,0.67632776,0.0,9.648001,,15 / 22,"$GPVTG,,T,,M,0.0,N,0.0,K,A*23::$GPGSV,4,4,13,16,05,158,*45::$GNVTG,,T,,M,0.0,N,0.0,K,A*3D::$GNRMC,203445.00,A,3602.895875,N,11507.865566,W,0.0,,011219,12.3,E,A*2C::$GPRMC,203334.00,A,3602.900606,N,11507.868379,W,0.0,,011219,12.3,E,A*31::$GPGGA,203334.00,3602.900606,N,11507.868379,W,1,00,1.1,624.0,M,-18.0,M,,*58::$GNGGA,203445.00,3602.895875,N,11507.865566,W,1,12,0.8,633.0,M,-18.0,M,,*48::$GNGSA,A,3,70,71,72,80,87,,,,,,,,1.1,0.8,0.8,2*31::$GPGSA,A,1,,,,,,,,,,,,,1.4,1.1,0.8,1*20::$GAGSV,1,1,0,*74::$GLGSV,2,2,08,87,14,317,21,71,51,347,24,72,14,303,19,85,00,000,*60::$GBGSV,1,1,0,*77::$PQGSV,1,1,0,*73",6536,2019-12-01 12:34:44:351
