ACCELEROMETER X (m/s²),ACCELEROMETER Y (m/s²),ACCELEROMETER Z (m/s²),GRAVITY X (m/s²),GRAVITY Y (m/s²),GRAVITY Z (m/s²),LINEAR ACCELERATION X (m/s²),LINEAR ACCELERATION Y (m/s²),LINEAR ACCELERATION Z (m/s²),GYROSCOPE X (rad/s),GYROSCOPE Y (rad/s),GYROSCOPE Z (rad/s),LIGHT (lux),MAGNETIC FIELD X (μT),MAGNETIC FIELD Y (μT),MAGNETIC FIELD Z (μT),ORIENTATION Z (azimuth °),ORIENTATION X (pitch °),ORIENTATION Y (roll °),PROXIMITY (m),ATMOSPHERIC PRESSURE (hPa),SOUND LEVEL (dB),LOCATION Latitude : ,LOCATION Longitude : ,LOCATION Altitude ( m),LOCATION Altitude-google ( m),LOCATION Altitude-atmospheric pressure ( m),LOCATION Speed ( m/s),LOCATION Accuracy ( m),LOCATION ORIENTATION (°),Satellites in range,GPS NMEA,Time since start in ms ,YYYY-MO-DD HH-MI-SS_SSS
1.270584,1.942978,8.602203,2.313021,2.658983,9.15151,-0.847337,-0.616324,-0.505532,0.564011,-0.983078,0.323135,86.0,17.0166,-4.3686,-44.9692,282.5922,-14.6895,-12.1761,8.0,947.1534,27.70812,36.04828,-115.13127,605.0,NaN,0.019982344,0.23,4.288,202.9,17 / 23,"$GPVTG,,T,,M,0.0,N,0.0,K,A*23::$GPGSV,3,3,12,25,12,064,19,31,69,119,21,32,36,052,17,26,07,150,*71::$GNVTG,202.9,T,202.9,M,0.4,N,0.8,K,A*31::$GNRMC,195053.00,A,3602.896769,N,11507.876049,W,0.4,202.9,011219,12.3,E,A*0B::$GPRMC,195011.00,A,3602.899063,N,11507.864996,W,0.0,,011219,12.3,E,A*3A::$GPGGA,195011.00,3602.899063,N,11507.864996,W,1,00,0.8,621.0,M,-18.0,M,,*5E::$GNGGA,195053.00,3602.896769,N,11507.876049,W,1,12,0.7,623.0,M,-18.0,M,,*42::$GNGSA,A,3,69,70,71,79,80,85,87,,,,,,1.0,0.7,0.7,2*39::$GPGSA,A,1,,,,,,,,,,,,,1.1,0.8,0.7,1*22::$GAGSV,1,1,0,*74::$GLGSV,3,3,10,71,39,319,19,72,01,286,14*66::$GBGSV,1,1,0,*77::$PQGSV,1,1,0,*73",61,2019-12-01 11:50:52:542
3.144165,1.931015,9.932602,2.53801,2.675911,9.086716,0.758099,-0.64471,1.285497,-0.313171,0.63324,0.496628,86.0,16.272,-5.7404,-44.2291,279.617,-15.8349,-15.6056,8.0,947.1534,27.70812,36.04828,-115.13127,605.0,NaN,0.019982344,0.23,4.288,202.9,17 / 23,"$GPVTG,,T,,M,0.0,N,0.0,K,A*23::$GPGSV,3,3,12,25,12,064,19,31,69,119,21,32,36,052,17,26,07,150,*71::$GNVTG,202.9,T,202.9,M,0.4,N,0.8,K,A*31::$GNRMC,195053.00,A,3602.896769,N,11507.876049,W,0.4,202.9,011219,12.3,E,A*0B::$GPRMC,195011.00,A,3602.899063,N,11507.864996,W,0.0,,011219,12.3,E,A*3A::$GPGGA,195011.00,3602.899063,N,11507.864996,W,1,00,0.8,621.0,M,-18.0,M,,*5E::$GNGGA,195053.00,3602.896769,N,11507.876049,W,1,12,0.7,623.0,M,-18.0,M,,*42::$GNGSA,A,3,69,70,71,79,80,85,87,,,,,,1.0,0.7,0.7,2*39::$GPGSA,A,1,,,,,,,,,,,,,1.1,0.8,0.7,1*22::$GAGSV,1,1,0,*74::$GLGSV,3,3,10,71,39,319,19,72,01,286,14*66::$GBGSV,1,1,0,*77::$PQGSV,1,1,0,*73",160,2019-12-01 11:50:52:641
2.428711,3.165711,8.401199,2.766383,3.007023,8.914894,-0.462346,0.165997,-0.440433,0.654434,-0.125427,0.150864,91.0,14.8315,-6.4575,-42.7551,279.039,-17.3298,-16.9089,8.0,947.1565,27.70812,36.04828,-115.13127,605.0,NaN,-0.0061850213,0.23,4.288,202.9,17 / 23,"$GPVTG,,T,,M,0.0,N,0.0,K,A*23::$GPGSV,3,3,12,25,12,064,19,31,69,119,21,32,36,052,17,26,07,150,*71::$GNVTG,202.9,T,202.9,M,0.4,N,0.8,K,A*31::$GNRMC,195053.00,A,3602.896769,N,11507.876049,W,0.4,202.9,011219,12.3,E,A*0B::$GPRMC,195011.00,A,3602.899063,N,11507.864996,W,0.0,,011219,12.3,E,A*3A::$GPGGA,195011.00,3602.899063,N,11507.864996,W,1,00,0.8,621.0,M,-18.0,M,,*5E::$GNGGA,195053.00,3602.896769,N,11507.876049,W,1,12,0.7,623.0,M,-18.0,M,,*42::$GNGSA,A,3,69,70,71,79,80,85,87,,,,,,1.0,0.7,0.7,2*39::$GPGSA,A,1,,,,,,,,,,,,,1.1,0.8,0.7,1*22::$GAGSV,1,1,0,*74::$GLGSV,3,3,10,71,39,319,19,72,01,286,14*66::$GBGSV,1,1,0,*77::$PQGSV,1,1,0,*73",260,2019-12-01 11:50:52:741
1.220337,3.761521,8.123627,2.670942,3.471572,8.774089,-1.391312,0.518486,-0.624137,0.384415,0.227631,0.412323,91.0,15.4343,-11.1801,-41.2598,274.0068,-20.4287,-17.0099,8.0,947.1565,28.12901,36.04828,-115.13127,605.0,NaN,-0.0061850213,0.23,4.288,202.9,17 / 23,"$GPVTG,,T,,M,0.0,N,0.0,K,A*23::$GPGSV,3,3,12,25,12,064,19,31,69,119,21,32,36,052,17,26,07,150,*71::$GNVTG,202.9,T,202.9,M,0.4,N,0.8,K,A*31::$GNRMC,195053.00,A,3602.896769,N,11507.876049,W,0.4,202.9,011219,12.3,E,A*0B::$GPRMC,195011.00,A,3602.899063,N,11507.864996,W,0.0,,011219,12.3,E,A*3A::$GPGGA,195011.00,3602.899063,N,11507.864996,W,1,00,0.8,621.0,M,-18.0,M,,*5E::$GNGGA,195053.00,3602.896769,N,11507.876049,W,1,12,0.7,623.0,M,-18.0,M,,*42::$GNGSA,A,3,69,70,71,79,80,85,87,,,,,,1.0,0.7,0.7,2*39::$GPGSA,A,1,,,,,,,,,,,,,1.1,0.8,0.7,1*22::$GAGSV,1,1,0,*74::$GLGSV,3,3,10,71,39,319,19,72,01,286,14*66::$GBGSV,1,1,0,*77::$PQGSV,1,1,0,*73",361,2019-12-01 11:50:52:842
0.782455,3.933807,8.750549,2.600513,3.57108,8.75529,-1.785616,0.416151,0.087596,0.143723,0.303391,0.44165,81.0,16.1133,-12.5122,-41.9891,273.4409,-21.3547,-16.6499,8.0,947.1463,28.12901,36.04828,-115.13127,605.0,NaN,0.079929076,0.23,4.288,202.9,17 / 23,"$GPVTG,,T,,M,0.0,N,0.0,K,A*23::$GPGSV,3,3,12,25,12,064,19,31,69,119,21,32,36,052,17,26,07,150,*71::$GNVTG,202.9,T,202.9,M,0.4,N,0.8,K,A*31::$GNRMC,195053.00,A,3602.896769,N,11507.876049,W,0.4,202.9,011219,12.3,E,A*0B::$GPRMC,195011.00,A,3602.899063,N,11507.864996,W,0.0,,011219,12.3,E,A*3A::$GPGGA,195011.00,3602.899063,N,11507.864996,W,1,00,0.8,621.0,M,-18.0,M,,*5E::$GNGGA,195053.00,3602.896769,N,11507.876049,W,1,12,0.7,623.0,M,-18.0,M,,*42::$GNGSA,A,3,69,70,71,79,80,85,87,,,,,,1.0,0.7,0.7,2*39::$GPGSA,A,1,,,,,,,,,,,,,1.1,0.8,0.7,1*22::$GAGSV,1,1,0,*74::$GLGSV,3,3,10,71,39,319,19,72,01,286,14*66::$GBGSV,1,1,0,*77::$PQGSV,1,1,0,*73",460,2019-12-01 11:50:52:941
0.516846,3.136994,7.688141,2.367343,3.522083,8.840871,-1.87869,-0.329667,-1.095659,-0.103043,0.591705,0.803284,81.0,17.5217,-13.1653,-40.5136,271.0313,-21.2578,-15.2654,8.0,947.1463,28.12901,36.04828,-115.13127,605.0,NaN,0.079929076,0.23,4.288,202.9,17 / 23,"$GPVTG,,T,,M,0.0,N,0.0,K,A*23::$GPGSV,3,3,12,25,12,064,19,31,69,119,21,32,36,052,17,26,07,150,*71::$GNVTG,202.9,T,202.9,M,0.4,N,0.8,K,A*31::$GNRMC,195053.00,A,3602.896769,N,11507.876049,W,0.4,202.9,011219,12.3,E,A*0B::$GPRMC,195011.00,A,3602.899063,N,11507.864996,W,0.0,,011219,12.3,E,A*3A::$GPGGA,195011.00,3602.899063,N,11507.864996,W,1,00,0.8,621.0,M,-18.0,M,,*5E::$GNGGA,195053.00,3602.896769,N,11507.876049,W,1,12,0.7,623.0,M,-18.0,M,,*42::$GNGSA,A,3,69,70,71,79,80,85,87,,,,,,1.0,0.7,0.7,2*39::$GPGSA,A,1,,,,,,,,,,,,,1.1,0.8,0.7,1*22::$GAGSV,1,1,0,*74::$GLGSV,3,3,10,71,39,319,19,72,01,286,14*66::$GBGSV,1,1,0,*77::$PQGSV,1,1,0,*73",560,2019-12-01 11:50:53:041
-0.488129,2.857025,8.329422,1.903614,3.208759,9.069207,-2.408905,-0.344372,-0.609277,-0.230103,0.926468,0.825272,77.0,19.6121,-15.1413,-41.2353,267.0451,-19.7956,-13.2008,8.0,947.141,30.09186,36.048283,-115.131256,604.0,NaN,0.12465095,0.71,5.36,202.9,17 / 23,"$GPVTG,,T,,M,0.0,N,0.0,K,A*23::$GPGSV,3,1,12,01,49,284,16,03,21,307,26,10,19,113,16,11,30,262,17*73::$GNVTG,202.9,T,202.9,M,0.4,N,0.8,K,A*31::$GNRMC,195053.00,A,3602.896769,N,11507.876049,W,0.4,202.9,011219,12.3,E,A*0B::$GPRMC,195011.00,A,3602.899063,N,11507.864996,W,0.0,,011219,12.3,E,A*3A::$GPGGA,195011.00,3602.899063,N,11507.864996,W,1,00,0.8,621.0,M,-18.0,M,,*5E::$GNGGA,195053.00,3602.896769,N,11507.876049,W,1,12,0.7,623.0,M,-18.0,M,,*42::$GNGSA,A,3,69,70,71,79,80,85,87,,,,,,1.0,0.7,0.7,2*39::$GPGSA,A,1,,,,,,,,,,,,,1.1,0.8,0.7,1*22::$GAGSV,1,1,0,*74::$GLGSV,3,3,10,71,39,319,19,72,01,286,14*66::$GBGSV,1,1,0,*77::$PQGSV,1,1,0,*73",661,2019-12-01 11:50:53:142
-0.387634,3.668198,10.097717,0.765579,2.849363,9.352294,-1.160213,0.777078,0.940337,-0.399918,2.23494,0.755631,77.0,23.1583,-15.7623,-36.0886,259.3676,-17.5987,-7.7512,8.0,947.1477,30.09186,36.048283,-115.131256,604.0,NaN,0.06755915,0.71,5.36,202.9,17 / 23,"$GPVTG,,T,,M,0.0,N,0.0,K,A*23::$GPGSV,3,3,12,25,12,064,19,31,69,119,18,32,36,052,21,26,07,150,*7E::$GNVTG,202.9,T,202.9,M,1.4,N,2.6,K,A*3C::$GNRMC,195054.00,A,3602.896900,N,11507.875611,W,1.4,202.9,011219,12.3,E,A*04::$GPRMC,195011.00,A,3602.899063,N,11507.864996,W,0.0,,011219,12.3,E,A*3A::$GPGGA,195011.00,3602.899063,N,11507.864996,W,1,00,0.8,621.0,M,-18.0,M,,*5E::$GNGGA,195054.00,3602.896900,N,11507.875611,W,1,12,0.7,622.0,M,-18.0,M,,*4D::$GNGSA,A,3,69,70,71,79,80,85,87,,,,,,1.0,0.7,0.7,2*39::$GPGSA,A,1,,,,,,,,,,,,,1.1,0.8,0.7,1*22::$GAGSV,1,1,0,*74::$GLGSV,3,3,10,71,39,319,25,72,01,286,14*69::$GBGSV,1,1,0,*77::$PQGSV,1,1,0,*73",761,2019-12-01 11:50:53:242
-1.466797,3.864411,12.045471,-1.027853,2.59138,9.402055,-0.453348,1.28397,2.70575,-0.022415,1.912399,0.642014,76.0,28.8574,-15.6479,-33.1467,256.825,-15.2973,4.8519,8.0,947.1477,30.09186,36.048283,-115.131256,604.0,NaN,0.06755915,0.71,5.36,202.9,17 / 23,"$GPVTG,,T,,M,0.0,N,0.0,K,A*23::$GPGSV,3,3,12,25,12,064,19,31,69,119,18,32,36,052,21,26,07,150,*7E::$GNVTG,202.9,T,202.9,M,1.4,N,2.6,K,A*3C::$GNRMC,195054.00,A,3602.896900,N,11507.875611,W,1.4,202.9,011219,12.3,E,A*04::$GPRMC,195011.00,A,3602.899063,N,11507.864996,W,0.0,,011219,12.3,E,A*3A::$GPGGA,195011.00,3602.899063,N,11507.864996,W,1,00,0.8,621.0,M,-18.0,M,,*5E::$GNGGA,195054.00,3602.896900,N,11507.875611,W,1,12,0.7,622.0,M,-18.0,M,,*4D::$GNGSA,A,3,69,70,71,79,80,85,87,,,,,,1.0,0.7,0.7,2*39::$GPGSA,A,1,,,,,,,,,,,,,1.1,0.8,0.7,1*22::$GAGSV,1,1,0,*74::$GLGSV,3,3,10,71,39,319,25,72,01,286,14*69::$GBGSV,1,1,0,*77::$PQGSV,1,1,0,*73",861,2019-12-01 11:50:53:342
-1.674972,4.548752,11.181656,-2.687928,2.758921,9.018525,1.109614,1.719985,2.008269,0.048447,2.338791,0.413559,76.0,35.9024,-18.898,-27.2476,254.065,-16.1034,14.1734,8.0,947.1473,30.09186,36.048283,-115.131256,604.0,NaN,0.07136528,0.71,5.36,202.9,17 / 23,"$GPVTG,,T,,M,0.0,N,0.0,K,A*23::$GPGSV,3,3,12,25,12,064,19,31,69,119,18,32,36,052,21,26,07,150,*7E::$GNVTG,202.9,T,202.9,M,1.4,N,2.6,K,A*3C::$GNRMC,195054.00,A,3602.896900,N,11507.875611,W,1.4,202.9,011219,12.3,E,A*04::$GPRMC,195011.00,A,3602.899063,N,11507.864996,W,0.0,,011219,12.3,E,A*3A::$GPGGA,195011.00,3602.899063,N,11507.864996,W,1,00,0.8,621.0,M,-18.0,M,,*5E::$GNGGA,195054.00,3602.896900,N,11507.875611,W,1,12,0.7,622.0,M,-18.0,M,,*4D::$GNGSA,A,3,69,70,71,79,80,85,87,,,,,,1.0,0.7,0.7,2*39::$GPGSA,A,1,,,,,,,,,,,,,1.1,0.8,0.7,1*22::$GAGSV,1,1,0,*74::$GLGSV,3,3,10,71,39,319,25,72,01,286,14*69::$GBGSV,1,1,0,*77::$PQGSV,1,1,0,*73",961,2019-12-01 11:50:53:442
-3.632309,3.467194,10.868195,-4.697615,2.843378,8.125146,1.000666,0.621863,2.772992,0.184052,1.770676,0.396439,119.0,42.2882,-20.1492,-17.6865,252.6836,-16.8546,30.0347,8.0,947.1419,30.19528,36.048283,-115.131256,604.0,NaN,0.117038734,0.71,5.36,202.9,17 / 23,"$GPVTG,,T,,M,0.0,N,0.0,K,A*23::$GPGSV,3,3,12,25,12,064,19,31,69,119,18,32,36,052,21,26,07,150,*7E::$GNVTG,202.9,T,202.9,M,1.4,N,2.6,K,A*3C::$GNRMC,195054.00,A,3602.896900,N,11507.875611,W,1.4,202.9,011219,12.3,E,A*04::$GPRMC,195011.00,A,3602.899063,N,11507.864996,W,0.0,,011219,12.3,E,A*3A::$GPGGA,195011.00,3602.899063,N,11507.864996,W,1,00,0.8,621.0,M,-18.0,M,,*5E::$GNGGA,195054.00,3602.896900,N,11507.875611,W,1,12,0.7,622.0,M,-18.0,M,,*4D::$GNGSA,A,3,69,70,71,79,80,85,87,,,,,,1.0,0.7,0.7,2*39::$GPGSA,A,1,,,,,,,,,,,,,1.1,0.8,0.7,1*22::$GAGSV,1,1,0,*74::$GLGSV,3,3,10,71,39,319,25,72,01,286,14*69::$GBGSV,1,1,0,*77::$PQGSV,1,1,0,*73",1061,2019-12-01 11:50:53:542
-2.560318,3.821335,9.075974,-5.531062,3.416,7.342253,2.983778,0.38061,1.708492,0.551804,1.346726,0.197311,119.0,42.984,-20.8405,-11.8042,252.3225,-19.6748,35.6546,8.0,947.1419,30.19528,36.048283,-115.131256,604.0,NaN,0.117038734,0.71,5.36,202.9,17 / 23,"$GPVTG,,T,,M,0.0,N,0.0,K,A*23::$GPGSV,3,3,12,25,12,064,19,31,69,119,18,32,36,052,21,26,07,150,*7E::$GNVTG,202.9,T,202.9,M,1.4,N,2.6,K,A*3C::$GNRMC,195054.00,A,3602.896900,N,11507.875611,W,1.4,202.9,011219,12.3,E,A*04::$GPRMC,195011.00,A,3602.899063,N,11507.864996,W,0.0,,011219,12.3,E,A*3A::$GPGGA,195011.00,3602.899063,N,11507.864996,W,1,00,0.8,621.0,M,-18.0,M,,*5E::$GNGGA,195054.00,3602.896900,N,11507.875611,W,1,12,0.7,622.0,M,-18.0,M,,*4D::$GNGSA,A,3,69,70,71,79,80,85,87,,,,,,1.0,0.7,0.7,2*39::$GPGSA,A,1,,,,,,,,,,,,,1.1,0.8,0.7,1*22::$GAGSV,1,1,0,*74::$GLGSV,3,3,10,71,39,319,25,72,01,286,14*69::$GBGSV,1,1,0,*77::$PQGSV,1,1,0,*73",1161,2019-12-01 11:50:53:642
-4.441086,3.969696,7.915451,-6.576826,3.692063,6.267728,2.089085,0.157495,1.576784,0.480927,1.71936,0.051926,173.0,45.8237,-21.4981,-2.2476,258.0712,-22.1162,46.3785,8.0,947.1401,30.19528,36.048283,-115.131256,604.0,NaN,0.13226315,0.71,5.36,202.9,17 / 23,"$GPVTG,,T,,M,0.0,N,0.0,K,A*23::$GPGSV,3,3,12,25,12,064,19,31,69,119,18,32,36,052,21,26,07,150,*7E::$GNVTG,202.9,T,202.9,M,1.4,N,2.6,K,A*3C::$GNRMC,195054.00,A,3602.896900,N,11507.875611,W,1.4,202.9,011219,12.3,E,A*04::$GPRMC,195011.00,A,3602.899063,N,11507.864996,W,0.0,,011219,12.3,E,A*3A::$GPGGA,195011.00,3602.899063,N,11507.864996,W,1,00,0.8,621.0,M,-18.0,M,,*5E::$GNGGA,195054.00,3602.896900,N,11507.875611,W,1,12,0.7,622.0,M,-18.0,M,,*4D::$GNGSA,A,3,69,70,71,79,80,85,87,,,,,,1.0,0.7,0.7,2*39::$GPGSA,A,1,,,,,,,,,,,,,1.1,0.8,0.7,1*22::$GAGSV,1,1,0,*74::$GLGSV,3,3,10,71,39,319,25,72,01,286,14*69::$GBGSV,1,1,0,*77::$PQGSV,1,1,0,*73",1261,2019-12-01 11:50:53:742
-5.491531,2.909668,3.522232,-7.572864,3.815152,4.926127,2.395268,-0.413331,-1.374938,-0.254517,1.332077,-0.855804,173.0,45.842,-20.8496,3.627,257.5247,-23.3293,55.5301,8.0,947.1401,31.23038,36.048283,-115.131256,604.0,NaN,0.13226315,0.71,5.36,202.9,17 / 23,"$GPVTG,,T,,M,0.0,N,0.0,K,A*23::$GPGSV,3,3,12,25,12,064,19,31,69,119,18,32,36,052,21,26,07,150,*7E::$GNVTG,202.9,T,202.9,M,1.4,N,2.6,K,A*3C::$GNRMC,195054.00,A,3602.896900,N,11507.875611,W,1.4,202.9,011219,12.3,E,A*04::$GPRMC,195011.00,A,3602.899063,N,11507.864996,W,0.0,,011219,12.3,E,A*3A::$GPGGA,195011.00,3602.899063,N,11507.864996,W,1,00,0.8,621.0,M,-18.0,M,,*5E::$GNGGA,195054.00,3602.896900,N,11507.875611,W,1,12,0.7,622.0,M,-18.0,M,,*4D::$GNGSA,A,3,69,70,71,79,80,85,87,,,,,,1.0,0.7,0.7,2*39::$GPGSA,A,1,,,,,,,,,,,,,1.1,0.8,0.7,1*22::$GAGSV,1,1,0,*74::$GLGSV,3,3,10,71,39,319,25,72,01,286,14*69::$GBGSV,1,1,0,*77::$PQGSV,1,1,0,*73",1362,2019-12-01 11:50:53:843
-5.204391,3.845261,5.845673,-7.90474,3.499639,4.630118,2.475302,0.425786,1.396058,0.571335,-0.633652,-0.060455,234.0,44.4672,-18.866,6.5537,259.0666,-20.9077,59.6408,8.0,947.1407,31.23038,36.048283,-115.131256,604.0,NaN,0.12750553,0.71,5.36,202.9,17 / 23,"$GPVTG,,T,,M,0.0,N,0.0,K,A*23::$GPGSV,3,3,12,25,12,064,19,31,69,119,18,32,36,052,21,26,07,150,*7E::$GNVTG,202.9,T,202.9,M,1.4,N,2.6,K,A*3C::$GNRMC,195054.00,A,3602.896900,N,11507.875611,W,1.4,202.9,011219,12.3,E,A*04::$GPRMC,195011.00,A,3602.899063,N,11507.864996,W,0.0,,011219,12.3,E,A*3A::$GPGGA,195011.00,3602.899063,N,11507.864996,W,1,00,0.8,621.0,M,-18.0,M,,*5E::$GNGGA,195054.00,3602.896900,N,11507.875611,W,1,12,0.7,622.0,M,-18.0,M,,*4D::$GNGSA,A,3,69,70,71,79,80,85,87,,,,,,1.0,0.7,0.7,2*39::$GPGSA,A,1,,,,,,,,,,,,,1.1,0.8,0.7,1*22::$GAGSV,1,1,0,*74::$GLGSV,3,3,10,71,39,319,25,72,01,286,14*69::$GBGSV,1,1,0,*77::$PQGSV,1,1,0,*73",1460,2019-12-01 11:50:53:941
-6.22612,3.457626,5.094315,-7.999931,3.32853,4.592646,1.57617,0.220171,0.624247,-0.172668,0.300949,-0.380554,234.0,46.6187,-18.1381,5.8151,262.5067,-20.4581,59.7171,8.0,947.1387,31.23038,36.048283,-115.131256,604.0,NaN,0.14368145,0.71,5.36,202.9,17 / 23,"$GPVTG,,T,,M,0.0,N,0.0,K,A*23::$GPGSV,3,3,12,25,12,064,19,31,69,119,18,32,36,052,21,26,07,150,*7E::$GNVTG,202.9,T,202.9,M,1.4,N,2.6,K,A*3C::$GNRMC,195054.00,A,3602.896900,N,11507.875611,W,1.4,202.9,011219,12.3,E,A*04::$GPRMC,195011.00,A,3602.899063,N,11507.864996,W,0.0,,011219,12.3,E,A*3A::$GPGGA,195011.00,3602.899063,N,11507.864996,W,1,00,0.8,621.0,M,-18.0,M,,*5E::$GNGGA,195054.00,3602.896900,N,11507.875611,W,1,12,0.7,622.0,M,-18.0,M,,*4D::$GNGSA,A,3,69,70,71,79,80,85,87,,,,,,1.0,0.7,0.7,2*39::$GPGSA,A,1,,,,,,,,,,,,,1.1,0.8,0.7,1*22::$GAGSV,1,1,0,*74::$GLGSV,3,3,10,71,39,319,25,72,01,286,14*69::$GBGSV,1,1,0,*77::$PQGSV,1,1,0,*73",1561,2019-12-01 11:50:54:042
-5.804992,3.522232,3.811768,-8.133121,3.033791,4.562768,2.244159,0.530338,-0.712538,0.036224,-0.177963,-0.800827,277.0,47.3953,-15.4175,5.8014,264.9558,-18.0207,60.7071,8.0,947.1387,31.13387,36.048283,-115.131256,604.0,NaN,0.14368145,0.71,5.36,202.9,17 / 23,"$GPVTG,,T,,M,0.0,N,0.0,K,A*23::$GPGSV,3,3,12,25,12,064,19,31,69,119,22,32,36,052,22,26,07,150,*74::$GNVTG,202.9,T,202.9,M,1.4,N,2.6,K,A*3C::$GNRMC,195054.00,A,3602.896900,N,11507.875611,W,1.4,202.9,011219,12.3,E,A*04::$GPRMC,195011.00,A,3602.899063,N,11507.864996,W,0.0,,011219,12.3,E,A*3A::$GPGGA,195011.00,3602.899063,N,11507.864996,W,1,00,0.8,621.0,M,-18.0,M,,*5E::$GNGGA,195054.00,3602.896900,N,11507.875611,W,1,12,0.7,622.0,M,-18.0,M,,*4D::$GNGSA,A,3,69,70,71,79,80,85,87,,,,,,1.0,0.7,0.7,2*39::$GPGSA,A,1,,,,,,,,,,,,,1.1,0.8,0.7,1*22::$GAGSV,1,1,0,*74::$GLGSV,3,3,10,71,39,319,31,72,01,286,13*6B::$GBGSV,1,1,0,*77::$PQGSV,1,1,0,*73",1661,2019-12-01 11:50:54:142
-5.443664,2.560318,5.460419,-8.192385,2.303726,4.873197,2.559587,0.340067,0.677471,0.611664,-0.594559,-1.125809,277.0,48.1873,-12.0132,5.0507,264.5105,-14.7531,59.8261,8.0,947.1368,31.13387,36.048275,-115.131256,604.0,NaN,0.15985735,0.0,5.36,,17 / 23,"$GPVTG,,T,,M,0.0,N,0.0,K,A*23::$GPGSV,3,3,12,25,12,064,19,31,69,119,22,32,36,052,22,26,07,150,*74::$GNVTG,,T,,M,0.0,N,0.0,K,A*3D::$GNRMC,195055.00,A,3602.896652,N,11507.875476,W,0.0,,011219,12.3,E,A*2C::$GPRMC,195011.00,A,3602.899063,N,11507.864996,W,0.0,,011219,12.3,E,A*3A::$GPGGA,195011.00,3602.899063,N,11507.864996,W,1,00,0.8,621.0,M,-18.0,M,,*5E::$GNGGA,195055.00,3602.896652,N,11507.875476,W,1,12,0.7,622.0,M,-18.0,M,,*47::$GNGSA,A,3,69,70,71,79,80,85,87,,,,,,1.0,0.7,0.7,2*39::$GPGSA,A,1,,,,,,,,,,,,,1.1,0.8,0.7,1*22::$GAGSV,1,1,0,*74::$GLGSV,3,3,10,71,39,319,31,72,01,286,13*6B::$GBGSV,1,1,0,*77::$PQGSV,1,1,0,*73",1760,2019-12-01 11:50:54:241
-6.063415,-0.258423,5.036896,-7.961569,1.518828,5.520593,1.702111,-1.739968,-0.350909,0.433289,-1.04538,-1.312729,276.0,51.9074,-5.1697,4.2831,268.2967,-11.4508,57.2222,8.0,947.1336,31.13387,36.048275,-115.131256,604.0,NaN,0.18649994,0.0,5.36,,17 / 23,"$GPVTG,,T,,M,0.0,N,0.0,K,A*23::$GPGSV,3,3,12,25,12,064,19,31,69,119,22,32,36,052,22,26,07,150,*74::$GNVTG,,T,,M,0.0,N,0.0,K,A*3D::$GNRMC,195055.00,A,3602.896652,N,11507.875476,W,0.0,,011219,12.3,E,A*2C::$GPRMC,195011.00,A,3602.899063,N,11507.864996,W,0.0,,011219,12.3,E,A*3A::$GPGGA,195011.00,3602.899063,N,11507.864996,W,1,00,0.8,621.0,M,-18.0,M,,*5E::$GNGGA,195055.00,3602.896652,N,11507.875476,W,1,12,0.7,622.0,M,-18.0,M,,*47::$GNGSA,A,3,69,70,71,79,80,85,87,,,,,,1.0,0.7,0.7,2*39::$GPGSA,A,1,,,,,,,,,,,,,1.1,0.8,0.7,1*22::$GAGSV,1,1,0,*74::$GLGSV,3,3,10,71,39,319,31,72,01,286,13*6B::$GBGSV,1,1,0,*77::$PQGSV,1,1,0,*73",1860,2019-12-01 11:50:54:341
-5.79303,0.074173,7.223938,-7.09554,0.954432,6.701699,1.108646,-0.867272,0.620863,0.587219,-2.132721,-1.139252,276.0,47.789,1.5366,-3.8406,280.6556,-5.5852,46.6351,8.0,947.1336,31.87505,36.048275,-115.131256,604.0,NaN,0.18649994,0.0,5.36,,17 / 23,"$GPVTG,,T,,M,0.0,N,0.0,K,A*23::$GPGSV,3,3,12,25,12,064,19,31,69,119,22,32,36,052,22,26,07,150,*74::$GNVTG,,T,,M,0.0,N,0.0,K,A*3D::$GNRMC,195055.00,A,3602.896652,N,11507.875476,W,0.0,,011219,12.3,E,A*2C::$GPRMC,195011.00,A,3602.899063,N,11507.864996,W,0.0,,011219,12.3,E,A*3A::$GPGGA,195011.00,3602.899063,N,11507.864996,W,1,00,0.8,621.0,M,-18.0,M,,*5E::$GNGGA,195055.00,3602.896652,N,11507.875476,W,1,12,0.7,622.0,M,-18.0,M,,*47::$GNGSA,A,3,69,70,71,79,80,85,87,,,,,,1.0,0.7,0.7,2*39::$GPGSA,A,1,,,,,,,,,,,,,1.1,0.8,0.7,1*22::$GAGSV,1,1,0,*74::$GLGSV,3,3,10,71,39,319,31,72,01,286,13*6B::$GBGSV,1,1,0,*77::$PQGSV,1,1,0,*73",1961,2019-12-01 11:50:54:442
-3.873978,-0.138779,7.704895,-5.588688,0.916355,8.006075,1.549372,-1.060301,-0.124368,0.810791,-2.093628,-1.007309,285.0,45.7275,4.9103,-12.6739,283.9178,-5.1112,37.0477,8.0,947.1349,31.87505,36.048275,-115.131256,604.0,NaN,0.17603321,0.0,5.36,,17 / 23,"$GPVTG,,T,,M,0.0,N,0.0,K,A*23::$GPGSV,3,3,12,25,12,064,19,31,69,119,22,32,36,052,22,26,07,150,*74::$GNVTG,,T,,M,0.0,N,0.0,K,A*3D::$GNRMC,195055.00,A,3602.896652,N,11507.875476,W,0.0,,011219,12.3,E,A*2C::$GPRMC,195011.00,A,3602.899063,N,11507.864996,W,0.0,,011219,12.3,E,A*3A::$GPGGA,195011.00,3602.899063,N,11507.864996,W,1,00,0.8,621.0,M,-18.0,M,,*5E::$GNGGA,195055.00,3602.896652,N,11507.875476,W,1,12,0.7,622.0,M,-18.0,M,,*47::$GNGSA,A,3,69,70,71,79,80,85,87,,,,,,1.0,0.7,0.7,2*39::$GPGSA,A,1,,,,,,,,,,,,,1.1,0.8,0.7,1*22::$GAGSV,1,1,0,*74::$GLGSV,3,3,10,71,39,319,31,72,01,286,13*6B::$GBGSV,1,1,0,*77::$PQGSV,1,1,0,*73",2061,2019-12-01 11:50:54:542
-2.328216,0.571884,9.434906,-3.75671,1.1785,8.981573,1.400744,-0.551181,0.789693,1.064926,-1.892044,-0.990189,285.0,41.4963,6.8954,-23.7076,292.4069,-6.2813,24.7152,8.0,947.1394,31.87505,36.048275,-115.131256,604.0,NaN,0.13797231,0.0,5.36,,17 / 23,"$GPVTG,,T,,M,0.0,N,0.0,K,A*23::$GPGSV,3,3,12,25,12,064,19,31,69,119,22,32,36,052,22,26,07,150,*74::$GNVTG,,T,,M,0.0,N,0.0,K,A*3D::$GNRMC,195055.00,A,3602.896652,N,11507.875476,W,0.0,,011219,12.3,E,A*2C::$GPRMC,195011.00,A,3602.899063,N,11507.864996,W,0.0,,011219,12.3,E,A*3A::$GPGGA,195011.00,3602.899063,N,11507.864996,W,1,00,0.8,621.0,M,-18.0,M,,*5E::$GNGGA,195055.00,3602.896652,N,11507.875476,W,1,12,0.7,622.0,M,-18.0,M,,*47::$GNGSA,A,3,69,70,71,79,80,85,87,,,,,,1.0,0.7,0.7,2*39::$GPGSA,A,1,,,,,,,,,,,,,1.1,0.8,0.7,1*22::$GAGSV,1,1,0,*74::$GLGSV,3,3,10,71,39,319,31,72,01,286,13*6B::$GBGSV,1,1,0,*77::$PQGSV,1,1,0,*73",2161,2019-12-01 11:50:54:642
-2.371292,0.973877,10.990234,-2.282323,1.142128,9.468735,-0.085912,-0.152673,1.761677,0.344101,-1.580505,-1.144134,298.0,32.2662,8.0643,-28.862,297.8801,-6.7496,15.9099,8.0,947.1394,41.17101,36.048275,-115.131256,604.0,NaN,0.13797231,0.0,5.36,,17 / 23,"$GPVTG,,T,,M,0.0,N,0.0,K,A*23::$GPGSV,3,3,12,25,12,064,19,31,69,119,22,32,36,052,22,26,07,150,*74::$GNVTG,,T,,M,0.0,N,0.0,K,A*3D::$GNRMC,195055.00,A,3602.896652,N,11507.875476,W,0.0,,011219,12.3,E,A*2C::$GPRMC,195011.00,A,3602.899063,N,11507.864996,W,0.0,,011219,12.3,E,A*3A::$GPGGA,195011.00,3602.899063,N,11507.864996,W,1,00,0.8,621.0,M,-18.0,M,,*5E::$GNGGA,195055.00,3602.896652,N,11507.875476,W,1,12,0.7,622.0,M,-18.0,M,,*47::$GNGSA,A,3,69,70,71,79,80,85,87,,,,,,1.0,0.7,0.7,2*39::$GPGSA,A,1,,,,,,,,,,,,,1.1,0.8,0.7,1*22::$GAGSV,1,1,0,*74::$GLGSV,3,3,10,71,39,319,31,72,01,286,13*6B::$GBGSV,1,1,0,*77::$PQGSV,1,1,0,*73",2261,2019-12-01 11:50:54:742
-0.524033,2.268402,10.884949,-0.834072,1.600952,9.63907,0.239173,0.653371,1.408625,0.596985,-1.810181,-0.866806,298.0,25.9033,9.9762,-34.7534,304.8307,-9.3957,4.9455,8.0,947.1442,41.17101,36.048275,-115.131256,604.0,NaN,0.09800816,0.0,5.36,,17 / 23,"$GPVTG,,T,,M,0.0,N,0.0,K,A*23::$GPGSV,3,3,12,25,12,064,19,31,69,119,22,32,36,052,22,26,07,150,*74::$GNVTG,,T,,M,0.0,N,0.0,K,A*3D::$GNRMC,195055.00,A,3602.896652,N,11507.875476,W,0.0,,011219,12.3,E,A*2C::$GPRMC,195011.00,A,3602.899063,N,11507.864996,W,0.0,,011219,12.3,E,A*3A::$GPGGA,195011.00,3602.899063,N,11507.864996,W,1,00,0.8,621.0,M,-18.0,M,,*5E::$GNGGA,195055.00,3602.896652,N,11507.875476,W,1,12,0.7,622.0,M,-18.0,M,,*47::$GNGSA,A,3,69,70,71,79,80,85,87,,,,,,1.0,0.7,0.7,2*39::$GPGSA,A,1,,,,,,,,,,,,,1.1,0.8,0.7,1*22::$GAGSV,1,1,0,*74::$GLGSV,3,3,10,71,39,319,31,72,01,286,13*6B::$GBGSV,1,1,0,*77::$PQGSV,1,1,0,*73",2360,2019-12-01 11:50:54:841
1.196411,1.607971,13.112671,0.997782,2.488743,9.432973,0.134831,-0.799862,3.899731,1.231079,-2.246338,-1.225998,320.0,20.2332,11.2213,-39.1724,304.8764,-11.7558,-0.9626,8.0,947.1542,41.17101,36.048275,-115.131256,604.0,NaN,0.013321568,0.0,5.36,,17 / 23,"$GPVTG,,T,,M,0.0,N,0.0,K,A*23::$GPGSV,3,3,12,25,12,064,19,31,69,119,22,32,36,052,22,26,07,150,*74::$GNVTG,,T,,M,0.0,N,0.0,K,A*3D::$GNRMC,195055.00,A,3602.896652,N,11507.875476,W,0.0,,011219,12.3,E,A*2C::$GPRMC,195011.00,A,3602.899063,N,11507.864996,W,0.0,,011219,12.3,E,A*3A::$GPGGA,195011.00,3602.899063,N,11507.864996,W,1,00,0.8,621.0,M,-18.0,M,,*5E::$GNGGA,195055.00,3602.896652,N,11507.875476,W,1,12,0.7,622.0,M,-18.0,M,,*47::$GNGSA,A,3,69,70,71,79,80,85,87,,,,,,1.0,0.7,0.7,2*39::$GPGSA,A,1,,,,,,,,,,,,,1.1,0.8,0.7,1*22::$GAGSV,1,1,0,*74::$GLGSV,3,3,10,71,39,319,31,72,01,286,13*6B::$GBGSV,1,1,0,*77::$PQGSV,1,1,0,*73",2461,2019-12-01 11:50:54:942
0.741776,4.835892,11.456833,2.04183,3.510663,8.926172,-0.855543,1.117181,2.350041,0.736267,-1.55484,-1.256531,320.0,12.3169,7.6767,-42.0975,315.1431,-20.9767,-12.8845,8.0,947.1542,41.17101,36.048275,-115.131256,604.0,NaN,0.013321568,0.0,5.36,,17 / 23,"$GPVTG,,T,,M,0.0,N,0.0,K,A*23::$GPGSV,3,3,12,25,12,064,19,31,69,119,22,32,36,052,22,26,07,150,*74::$GNVTG,,T,,M,0.0,N,0.0,K,A*3D::$GNRMC,195055.00,A,3602.896652,N,11507.875476,W,0.0,,011219,12.3,E,A*2C::$GPRMC,195011.00,A,3602.899063,N,11507.864996,W,0.0,,011219,12.3,E,A*3A::$GPGGA,195011.00,3602.899063,N,11507.864996,W,1,00,0.8,621.0,M,-18.0,M,,*5E::$GNGGA,195055.00,3602.896652,N,11507.875476,W,1,12,0.7,622.0,M,-18.0,M,,*47::$GNGSA,A,3,69,70,71,79,80,85,87,,,,,,1.0,0.7,0.7,2*39::$GPGSA,A,1,,,,,,,,,,,,,1.1,0.8,0.7,1*22::$GAGSV,1,1,0,*74::$GLGSV,3,3,10,71,39,319,31,72,01,286,13*6B::$GBGSV,1,1,0,*77::$PQGSV,1,1,0,*73",2561,2019-12-01 11:50:55:042
3.012558,3.603592,10.308273,3.123017,5.018731,7.824928,0.038259,-1.451058,2.736587,2.399048,-1.680679,-0.584579,309.0,2.8824,0.0412,-44.2673,320.5979,-26.8293,-18.7159,8.0,947.1588,29.50299,36.04828,-115.131256,604.0,NaN,-0.025215887,0.0,5.36,,16 / 23,"$GPVTG,,T,,M,0.0,N,0.0,K,A*23::$GPGSV,3,3,12,25,12,064,19,31,69,119,22,32,36,052,22,26,07,150,*74::$GNVTG,,T,,M,0.0,N,0.0,K,A*3D::$GNRMC,195055.00,A,3602.896652,N,11507.875476,W,0.0,,011219,12.3,E,A*2C::$GPRMC,195011.00,A,3602.899063,N,11507.864996,W,0.0,,011219,12.3,E,A*3A::$GPGGA,195011.00,3602.899063,N,11507.864996,W,1,00,0.8,621.0,M,-18.0,M,,*5E::$GNGGA,195055.00,3602.896652,N,11507.875476,W,1,12,0.7,622.0,M,-18.0,M,,*47::$GNGSA,A,3,69,70,71,79,80,85,87,,,,,,1.0,0.7,0.7,2*39::$GPGSA,A,1,,,,,,,,,,,,,1.1,0.8,0.7,1*22::$GAGSV,1,1,0,*74::$GLGSV,3,3,10,71,39,319,31,72,01,286,13*6B::$GBGSV,1,1,0,*77::$PQGSV,1,1,0,*73",2662,2019-12-01 11:50:55:143
2.445465,7.515854,9.664612,3.906415,6.453098,6.266406,-1.404093,1.009274,3.042515,2.171799,-0.882889,0.264496,309.0,-1.5182,-5.4626,-44.9768,315.8123,-39.759,-30.3737,8.0,947.1583,29.50299,36.04828,-115.131256,604.0,NaN,-0.021409709,0.0,5.36,,16 / 23,"$GPVTG,,T,,M,0.0,N,0.0,K,A*23::$GPGSV,3,3,12,25,12,064,14,31,69,119,23,32,36,052,21,26,07,150,*7B::$GNVTG,,T,,M,0.0,N,0.0,K,A*3D::$GNRMC,195056.00,A,3602.896751,N,11507.875530,W,0.0,,011219,12.3,E,A*2E::$GPRMC,195011.00,A,3602.899063,N,11507.864996,W,0.0,,011219,12.3,E,A*3A::$GPGGA,195011.00,3602.899063,N,11507.864996,W,1,00,0.8,621.0,M,-18.0,M,,*5E::$GNGGA,195056.00,3602.896751,N,11507.875530,W,1,12,0.7,622.0,M,-18.0,M,,*45::$GNGSA,A,3,69,70,71,79,85,87,,,,,,,1.0,0.7,0.7,2*31::$GPGSA,A,1,,,,,,,,,,,,,1.1,0.8,0.7,1*22::$GAGSV,1,1,0,*74::$GLGSV,3,3,10,71,39,319,34,72,01,286,13*6E::$GBGSV,1,1,0,*77::$PQGSV,1,1,0,*73",2761,2019-12-01 11:50:55:242
3.077164,7.161713,4.941178,4.680835,7.526629,4.196431,-1.663343,-0.426499,0.73712,1.374008,-0.907333,0.001831,320.0,-6.7749,-17.0776,-43.4494,302.3653,-47.3427,-41.8827,8.0,947.1583,29.50299,36.04828,-115.131256,604.0,NaN,-0.021409709,0.0,5.36,,16 / 23,"$GPVTG,,T,,M,0.0,N,0.0,K,A*23::$GPGSV,3,3,12,25,12,064,14,31,69,119,23,32,36,052,21,26,07,150,*7B::$GNVTG,,T,,M,0.0,N,0.0,K,A*3D::$GNRMC,195056.00,A,3602.896751,N,11507.875530,W,0.0,,011219,12.3,E,A*2E::$GPRMC,195011.00,A,3602.899063,N,11507.864996,W,0.0,,011219,12.3,E,A*3A::$GPGGA,195011.00,3602.899063,N,11507.864996,W,1,00,0.8,621.0,M,-18.0,M,,*5E::$GNGGA,195056.00,3602.896751,N,11507.875530,W,1,12,0.7,622.0,M,-18.0,M,,*45::$GNGSA,A,3,69,70,71,79,85,87,,,,,,,1.0,0.7,0.7,2*31::$GPGSA,A,1,,,,,,,,,,,,,1.1,0.8,0.7,1*22::$GAGSV,1,1,0,*74::$GLGSV,3,3,10,71,39,319,34,72,01,286,13*6E::$GBGSV,1,1,0,*77::$PQGSV,1,1,0,*73",2861,2019-12-01 11:50:55:342
1.993225,7.676178,5.953339,4.552476,7.942528,3.515908,-2.794659,-0.403873,2.084634,0.874329,-0.242706,-0.193634,320.0,-8.2947,-21.1639,-44.1635,296.2348,-53.525,-51.5855,8.0,947.1579,31.54889,36.04828,-115.131256,604.0,NaN,-0.018079307,0.0,5.36,,16 / 23,"$GPVTG,,T,,M,0.0,N,0.0,K,A*23::$GPGSV,3,3,12,25,12,064,14,31,69,119,23,32,36,052,21,26,07,150,*7B::$GNVTG,,T,,M,0.0,N,0.0,K,A*3D::$GNRMC,195056.00,A,3602.896751,N,11507.875530,W,0.0,,011219,12.3,E,A*2E::$GPRMC,195011.00,A,3602.899063,N,11507.864996,W,0.0,,011219,12.3,E,A*3A::$GPGGA,195011.00,3602.899063,N,11507.864996,W,1,00,0.8,621.0,M,-18.0,M,,*5E::$GNGGA,195056.00,3602.896751,N,11507.875530,W,1,12,0.7,622.0,M,-18.0,M,,*45::$GNGSA,A,3,69,70,71,79,85,87,,,,,,,1.0,0.7,0.7,2*31::$GPGSA,A,1,,,,,,,,,,,,,1.1,0.8,0.7,1*22::$GAGSV,1,1,0,*74::$GLGSV,3,3,10,71,39,319,34,72,01,286,13*6E::$GBGSV,1,1,0,*77::$PQGSV,1,1,0,*73",2961,2019-12-01 11:50:55:442
2.766098,5.479569,3.251846,4.093644,8.14904,3.606332,-1.287089,-2.657878,-0.377482,-0.721222,1.714478,-0.632233,333.0,-2.6794,-24.411,-45.61,292.2001,-56.0504,-52.2408,8.0,947.1454,31.54889,36.04828,-115.131256,604.0,NaN,0.0865898,0.0,5.36,,16 / 23,"$GPVTG,,T,,M,0.0,N,0.0,K,A*23::$GPGSV,3,3,12,25,12,064,14,31,69,119,23,32,36,052,21,26,07,150,*7B::$GNVTG,,T,,M,0.0,N,0.0,K,A*3D::$GNRMC,195056.00,A,3602.896751,N,11507.875530,W,0.0,,011219,12.3,E,A*2E::$GPRMC,195011.00,A,3602.899063,N,11507.864996,W,0.0,,011219,12.3,E,A*3A::$GPGGA,195011.00,3602.899063,N,11507.864996,W,1,00,0.8,621.0,M,-18.0,M,,*5E::$GNGGA,195056.00,3602.896751,N,11507.875530,W,1,12,0.7,622.0,M,-18.0,M,,*45::$GNGSA,A,3,69,70,71,79,85,87,,,,,,,1.0,0.7,0.7,2*31::$GPGSA,A,1,,,,,,,,,,,,,1.1,0.8,0.7,1*22::$GAGSV,1,1,0,*74::$GLGSV,3,3,10,71,39,319,34,72,01,286,13*6E::$GBGSV,1,1,0,*77::$PQGSV,1,1,0,*73",3060,2019-12-01 11:50:55:541
1.775467,7.434494,5.386246,3.459725,7.965278,4.555771,-1.972647,-0.492865,0.580226,-0.107925,0.474426,0.496628,333.0,3.7003,-25.6241,-44.1315,293.5109,-54.8197,-38.135,8.0,947.1454,31.54889,36.04828,-115.131256,604.0,NaN,0.0865898,0.0,5.36,,16 / 23,"$GPVTG,,T,,M,0.0,N,0.0,K,A*23::$GPGSV,3,3,12,25,12,064,14,31,69,119,23,32,36,052,21,26,07,150,*7B::$GNVTG,,T,,M,0.0,N,0.0,K,A*3D::$GNRMC,195056.00,A,3602.896751,N,11507.875530,W,0.0,,011219,12.3,E,A*2E::$GPRMC,195011.00,A,3602.899063,N,11507.864996,W,0.0,,011219,12.3,E,A*3A::$GPGGA,195011.00,3602.899063,N,11507.864996,W,1,00,0.8,621.0,M,-18.0,M,,*5E::$GNGGA,195056.00,3602.896751,N,11507.875530,W,1,12,0.7,622.0,M,-18.0,M,,*45::$GNGSA,A,3,69,70,71,79,85,87,,,,,,,1.0,0.7,0.7,2*31::$GPGSA,A,1,,,,,,,,,,,,,1.1,0.8,0.7,1*22::$GAGSV,1,1,0,*74::$GLGSV,3,3,10,71,39,319,34,72,01,286,13*6E::$GBGSV,1,1,0,*77::$PQGSV,1,1,0,*73",3161,2019-12-01 11:50:55:642
1.682159,4.74736,6.597016,3.523242,7.805169,4.778756,-1.609208,-2.933937,1.75839,-0.139679,1.361404,0.365906,328.0,4.4296,-24.9405,-42.6636,290.1099,-52.7409,-36.4003,8.0,947.1302,46.09601,36.04828,-115.131256,604.0,NaN,0.21599697,0.0,5.36,,16 / 23,"$GPVTG,,T,,M,0.0,N,0.0,K,A*23::$GPGSV,3,3,12,25,12,064,14,31,69,119,23,32,36,052,21,26,07,150,*7B::$GNVTG,,T,,M,0.0,N,0.0,K,A*3D::$GNRMC,195056.00,A,3602.896751,N,11507.875530,W,0.0,,011219,12.3,E,A*2E::$GPRMC,195011.00,A,3602.899063,N,11507.864996,W,0.0,,011219,12.3,E,A*3A::$GPGGA,195011.00,3602.899063,N,11507.864996,W,1,00,0.8,621.0,M,-18.0,M,,*5E::$GNGGA,195056.00,3602.896751,N,11507.875530,W,1,12,0.7,622.0,M,-18.0,M,,*45::$GNGSA,A,3,69,70,71,79,85,87,,,,,,,1.0,0.7,0.7,2*31::$GPGSA,A,1,,,,,,,,,,,,,1.1,0.8,0.7,1*22::$GAGSV,1,1,0,*74::$GLGSV,3,3,10,71,39,319,34,72,01,286,13*6E::$GBGSV,1,1,0,*77::$PQGSV,1,1,0,*73",3260,2019-12-01 11:50:55:741
2.399994,5.91745,6.527619,3.43755,7.430549,5.398201,-1.091797,-1.441342,1.22464,0.286682,1.217239,1.431244,328.0,8.6868,-25.5234,-41.9235,284.5241,-50.3328,-32.5236,8.0,947.1229,46.09601,36.04828,-115.131256,604.0,NaN,0.27689373,0.0,5.36,,16 / 23,"$GPVTG,,T,,M,0.0,N,0.0,K,A*23::$GPGSV,3,3,12,25,12,064,14,31,69,119,23,32,36,052,21,26,07,150,*7B::$GNVTG,,T,,M,0.0,N,0.0,K,A*3D::$GNRMC,195056.00,A,3602.896751,N,11507.875530,W,0.0,,011219,12.3,E,A*2E::$GPRMC,195011.00,A,3602.899063,N,11507.864996,W,0.0,,011219,12.3,E,A*3A::$GPGGA,195011.00,3602.899063,N,11507.864996,W,1,00,0.8,621.0,M,-18.0,M,,*5E::$GNGGA,195056.00,3602.896751,N,11507.875530,W,1,12,0.7,622.0,M,-18.0,M,,*45::$GNGSA,A,3,69,70,71,79,85,87,,,,,,,1.0,0.7,0.7,2*31::$GPGSA,A,1,,,,,,,,,,,,,1.1,0.8,0.7,1*22::$GAGSV,1,1,0,*74::$GLGSV,3,3,10,71,39,319,34,72,01,286,13*6E::$GBGSV,1,1,0,*77::$PQGSV,1,1,0,*73",3361,2019-12-01 11:50:55:842
2.333008,3.897904,6.254837,3.8517,6.889177,5.820141,-1.468009,-2.899415,0.555548,0.315994,1.440811,1.913834,322.0,6.4911,-28.2974,-37.5031,271.6047,-45.5423,-33.2488,8.0,947.1229,46.09601,36.04828,-115.131256,604.0,NaN,0.27689373,0.0,5.36,,16 / 23,"$GPVTG,,T,,M,0.0,N,0.0,K,A*23::$GPGSV,3,3,12,25,12,064,14,31,69,119,23,32,36,052,21,26,07,150,*7B::$GNVTG,,T,,M,0.0,N,0.0,K,A*3D::$GNRMC,195056.00,A,3602.896751,N,11507.875530,W,0.0,,011219,12.3,E,A*2E::$GPRMC,195011.00,A,3602.899063,N,11507.864996,W,0.0,,011219,12.3,E,A*3A::$GPGGA,195011.00,3602.899063,N,11507.864996,W,1,00,0.8,621.0,M,-18.0,M,,*5E::$GNGGA,195056.00,3602.896751,N,11507.875530,W,1,12,0.7,622.0,M,-18.0,M,,*45::$GNGSA,A,3,69,70,71,79,85,87,,,,,,,1.0,0.7,0.7,2*31::$GPGSA,A,1,,,,,,,,,,,,,1.1,0.8,0.7,1*22::$GAGSV,1,1,0,*74::$GLGSV,3,3,10,71,39,319,34,72,01,286,13*6E::$GBGSV,1,1,0,*77::$PQGSV,1,1,0,*73",3461,2019-12-01 11:50:55:942
3.189636,4.326218,6.154343,4.126449,6.317364,6.263682,-0.864645,-1.882427,-0.039858,0.091202,1.443268,1.516769,322.0,8.5953,-29.6066,-36.7584,262.2411,-41.7425,-34.2024,8.0,947.1187,44.64492,36.04828,-115.131256,604.0,NaN,0.3120995,0.0,5.36,,16 / 23,"$GPVTG,,T,,M,0.0,N,0.0,K,A*23::$GPGSV,3,3,12,25,12,064,14,31,69,119,23,32,36,052,21,26,07,150,*7B::$GNVTG,,T,,M,0.0,N,0.0,K,A*3D::$GNRMC,195056.00,A,3602.896751,N,11507.875530,W,0.0,,011219,12.3,E,A*2E::$GPRMC,195011.00,A,3602.899063,N,11507.864996,W,0.0,,011219,12.3,E,A*3A::$GPGGA,195011.00,3602.899063,N,11507.864996,W,1,00,0.8,621.0,M,-18.0,M,,*5E::$GNGGA,195056.00,3602.896751,N,11507.875530,W,1,12,0.7,622.0,M,-18.0,M,,*45::$GNGSA,A,3,69,70,71,79,85,87,,,,,,,1.0,0.7,0.7,2*31::$GPGSA,A,1,,,,,,,,,,,,,1.1,0.8,0.7,1*22::$GAGSV,1,1,0,*74::$GLGSV,3,3,10,71,39,319,34,72,01,286,13*6E::$GBGSV,1,1,0,*77::$PQGSV,1,1,0,*73",3561,2019-12-01 11:50:56:042
2.663208,3.830902,5.970093,3.926558,5.872705,6.801755,-1.121963,-1.822326,-0.81697,-0.088364,1.685165,1.218674,317.0,9.259,-31.6223,-36.0138,249.8699,-37.1451,-30.5398,8.0,947.1187,44.64492,36.048283,-115.131256,604.0,NaN,0.3120995,0.0,4.288,,17 / 23,"$GPVTG,,T,,M,0.0,N,0.0,K,A*23::$GPGSV,3,3,12,25,12,064,18,31,69,119,28,32,36,052,22,26,07,150,*7F::$GNVTG,,T,,M,0.0,N,0.0,K,A*3D::$GNRMC,195056.00,A,3602.896751,N,11507.875530,W,0.0,,011219,12.3,E,A*2E::$GPRMC,195011.00,A,3602.899063,N,11507.864996,W,0.0,,011219,12.3,E,A*3A::$GPGGA,195011.00,3602.899063,N,11507.864996,W,1,00,0.8,621.0,M,-18.0,M,,*5E::$GNGGA,195056.00,3602.896751,N,11507.875530,W,1,12,0.7,622.0,M,-18.0,M,,*45::$GNGSA,A,3,69,70,71,79,85,87,,,,,,,1.0,0.7,0.7,2*31::$GPGSA,A,1,,,,,,,,,,,,,1.1,0.8,0.7,1*22::$GAGSV,1,1,0,*74::$GLGSV,3,1,10,70,49,037,13,86,32,282,31,73,28,158,23,80,47,077,19*6F::$GBGSV,1,1,0,*77::$PQGSV,1,1,0,*73",3660,2019-12-01 11:50:56:141
1.715653,2.481354,5.943772,3.13117,5.142808,7.740652,-1.267277,-2.641326,-1.616335,-0.591721,2.410858,1.368942,317.0,11.4288,-30.2261,-35.2859,247.8741,-33.3104,-24.9977,8.0,947.1282,44.64492,36.048283,-115.131256,604.0,NaN,0.23217273,0.0,4.288,,17 / 23,"$GPVTG,,T,,M,0.0,N,0.0,K,A*23::$GPGSV,3,3,12,25,12,064,18,31,69,119,28,32,36,052,22,26,07,150,*7F::$GNVTG,,T,,M,0.0,N,0.0,K,A*3D::$GNRMC,195057.00,A,3602.897095,N,11507.875586,W,0.0,,011219,12.3,E,A*2C::$GPRMC,195011.00,A,3602.899063,N,11507.864996,W,0.0,,011219,12.3,E,A*3A::$GPGGA,195011.00,3602.899063,N,11507.864996,W,1,00,0.8,621.0,M,-18.0,M,,*5E::$GNGGA,195057.00,3602.897095,N,11507.875586,W,1,12,0.7,622.0,M,-18.0,M,,*47::$GNGSA,A,3,69,70,71,79,80,85,87,,,,,,1.0,0.7,0.7,2*39::$GPGSA,A,1,,,,,,,,,,,,,1.1,0.8,0.7,1*22::$GAGSV,1,1,0,*74::$GLGSV,3,3,10,71,39,319,32,72,01,286,14*6F::$GBGSV,1,1,0,*77::$PQGSV,1,1,0,*73",3760,2019-12-01 11:50:56:241
3.390625,2.471787,9.334396,2.80182,4.113747,8.449692,1.230066,-1.19926,1.291617,-0.391357,2.017471,1.09404,342.0,10.7819,-27.5452,-33.0948,237.7807,-25.4571,-19.5851,8.0,947.1339,44.69731,36.048283,-115.131256,604.0,NaN,0.1845969,0.0,4.288,,17 / 23,"$GPVTG,,T,,M,0.0,N,0.0,K,A*23::$GPGSV,3,3,12,25,12,064,18,31,69,119,28,32,36,052,22,26,07,150,*7F::$GNVTG,,T,,M,0.0,N,0.0,K,A*3D::$GNRMC,195057.00,A,3602.897095,N,11507.875586,W,0.0,,011219,12.3,E,A*2C::$GPRMC,195011.00,A,3602.899063,N,11507.864996,W,0.0,,011219,12.3,E,A*3A::$GPGGA,195011.00,3602.899063,N,11507.864996,W,1,00,0.8,621.0,M,-18.0,M,,*5E::$GNGGA,195057.00,3602.897095,N,11507.875586,W,1,12,0.7,622.0,M,-18.0,M,,*47::$GNGSA,A,3,69,70,71,79,80,85,87,,,,,,1.0,0.7,0.7,2*39::$GPGSA,A,1,,,,,,,,,,,,,1.1,0.8,0.7,1*22::$GAGSV,1,1,0,*74::$GLGSV,3,3,10,71,39,319,32,72,01,286,14*6F::$GBGSV,1,1,0,*77::$PQGSV,1,1,0,*73",3861,2019-12-01 11:50:56:342
0.94278,2.651245,9.956543,0.897079,3.404818,9.152751,0.28207,-0.697053,1.206474,-0.269196,3.08281,0.556488,342.0,15.7837,-26.7502,-34.5657,235.6433,-21.2792,-10.6183,8.0,947.1339,44.69731,36.048283,-115.131256,604.0,NaN,0.1845969,0.0,4.288,,17 / 23,"$GPVTG,,T,,M,0.0,N,0.0,K,A*23::$GPGSV,3,3,12,25,12,064,18,31,69,119,28,32,36,052,22,26,07,150,*7F::$GNVTG,,T,,M,0.0,N,0.0,K,A*3D::$GNRMC,195057.00,A,3602.897095,N,11507.875586,W,0.0,,011219,12.3,E,A*2C::$GPRMC,195011.00,A,3602.899063,N,11507.864996,W,0.0,,011219,12.3,E,A*3A::$GPGGA,195011.00,3602.899063,N,11507.864996,W,1,00,0.8,621.0,M,-18.0,M,,*5E::$GNGGA,195057.00,3602.897095,N,11507.875586,W,1,12,0.7,622.0,M,-18.0,M,,*47::$GNGSA,A,3,69,70,71,79,80,85,87,,,,,,1.0,0.7,0.7,2*39::$GPGSA,A,1,,,,,,,,,,,,,1.1,0.8,0.7,1*22::$GAGSV,1,1,0,*74::$GLGSV,3,3,10,71,39,319,32,72,01,286,14*6F::$GBGSV,1,1,0,*77::$PQGSV,1,1,0,*73",3961,2019-12-01 11:50:56:442
-1.141373,2.328217,10.999802,-1.085205,3.087099,9.244596,0.028304,-0.729982,2.082001,-0.189774,2.737061,0.7202,410.0,22.1634,-27.9755,-30.8823,230.1266,-18.4682,4.6837,8.0,947.1328,44.69731,36.048283,-115.131256,604.0,NaN,0.19411208,0.0,4.288,,17 / 23,"$GPVTG,,T,,M,0.0,N,0.0,K,A*23::$GPGSV,3,3,12,25,12,064,18,31,69,119,28,32,36,052,22,26,07,150,*7F::$GNVTG,,T,,M,0.0,N,0.0,K,A*3D::$GNRMC,195057.00,A,3602.897095,N,11507.875586,W,0.0,,011219,12.3,E,A*2C::$GPRMC,195011.00,A,3602.899063,N,11507.864996,W,0.0,,011219,12.3,E,A*3A::$GPGGA,195011.00,3602.899063,N,11507.864996,W,1,00,0.8,621.0,M,-18.0,M,,*5E::$GNGGA,195057.00,3602.897095,N,11507.875586,W,1,12,0.7,622.0,M,-18.0,M,,*47::$GNGSA,A,3,69,70,71,79,80,85,87,,,,,,1.0,0.7,0.7,2*39::$GPGSA,A,1,,,,,,,,,,,,,1.1,0.8,0.7,1*22::$GAGSV,1,1,0,*74::$GLGSV,3,3,10,71,39,319,32,72,01,286,14*6F::$GBGSV,1,1,0,*77::$PQGSV,1,1,0,*73",4061,2019-12-01 11:50:56:542
-3.081955,3.055634,10.68634,-2.902585,2.989194,8.877506,-0.006656,0.102054,2.043477,-0.121368,2.322907,0.673782,410.0,27.1515,-27.8915,-25.0031,226.1132,-17.5554,14.2931,8.0,947.1417,44.69731,36.048283,-115.131256,604.0,NaN,0.11799026,0.0,4.288,,17 / 23,"$GPVTG,,T,,M,0.0,N,0.0,K,A*23::$GPGSV,3,3,12,25,12,064,18,31,69,119,28,32,36,052,22,26,07,150,*7F::$GNVTG,,T,,M,0.0,N,0.0,K,A*3D::$GNRMC,195057.00,A,3602.897095,N,11507.875586,W,0.0,,011219,12.3,E,A*2C::$GPRMC,195011.00,A,3602.899063,N,11507.864996,W,0.0,,011219,12.3,E,A*3A::$GPGGA,195011.00,3602.899063,N,11507.864996,W,1,00,0.8,621.0,M,-18.0,M,,*5E::$GNGGA,195057.00,3602.897095,N,11507.875586,W,1,12,0.7,622.0,M,-18.0,M,,*47::$GNGSA,A,3,69,70,71,79,80,85,87,,,,,,1.0,0.7,0.7,2*39::$GPGSA,A,1,,,,,,,,,,,,,1.1,0.8,0.7,1*22::$GAGSV,1,1,0,*74::$GLGSV,3,3,10,71,39,319,32,72,01,286,14*6F::$GBGSV,1,1,0,*77::$PQGSV,1,1,0,*73",4161,2019-12-01 11:50:56:642
-3.218353,3.369095,11.071594,-4.112446,3.094699,8.347516,0.914506,0.328859,2.817116,-0.084717,1.714478,0.809387,541.0,30.6503,-30.5237,-23.5138,223.9441,-18.1612,25.0645,8.0,947.1417,41.09073,36.048283,-115.131256,604.0,NaN,0.11799026,0.0,4.288,,17 / 23,"$GPVTG,,T,,M,0.0,N,0.0,K,A*23::$GPGSV,3,3,12,25,12,064,18,31,69,119,28,32,36,052,22,26,07,150,*7F::$GNVTG,,T,,M,0.0,N,0.0,K,A*3D::$GNRMC,195057.00,A,3602.897095,N,11507.875586,W,0.0,,011219,12.3,E,A*2C::$GPRMC,195011.00,A,3602.899063,N,11507.864996,W,0.0,,011219,12.3,E,A*3A::$GPGGA,195011.00,3602.899063,N,11507.864996,W,1,00,0.8,621.0,M,-18.0,M,,*5E::$GNGGA,195057.00,3602.897095,N,11507.875586,W,1,12,0.7,622.0,M,-18.0,M,,*47::$GNGSA,A,3,69,70,71,79,80,85,87,,,,,,1.0,0.7,0.7,2*39::$GPGSA,A,1,,,,,,,,,,,,,1.1,0.8,0.7,1*22::$GAGSV,1,1,0,*74::$GLGSV,3,3,10,71,39,319,32,72,01,286,14*6F::$GBGSV,1,1,0,*77::$PQGSV,1,1,0,*73",4261,2019-12-01 11:50:56:742
-4.680359,2.596207,9.722046,-5.218154,3.206196,7.659084,0.741694,-0.669867,2.080169,-0.232544,1.927063,-0.086121,541.0,32.7713,-31.1707,-19.838,222.0356,-19.1997,31.2371,8.0,947.1522,41.09073,36.048283,-115.131256,604.0,NaN,0.030449266,0.0,4.288,,17 / 23,"$GPVTG,,T,,M,0.0,N,0.0,K,A*23::$GPGSV,3,3,12,25,12,064,18,31,69,119,28,32,36,052,22,26,07,150,*7F::$GNVTG,,T,,M,0.0,N,0.0,K,A*3D::$GNRMC,195057.00,A,3602.897095,N,11507.875586,W,0.0,,011219,12.3,E,A*2C::$GPRMC,195011.00,A,3602.899063,N,11507.864996,W,0.0,,011219,12.3,E,A*3A::$GPGGA,195011.00,3602.899063,N,11507.864996,W,1,00,0.8,621.0,M,-18.0,M,,*5E::$GNGGA,195057.00,3602.897095,N,11507.875586,W,1,12,0.7,622.0,M,-18.0,M,,*47::$GNGSA,A,3,69,70,71,79,80,85,87,,,,,,1.0,0.7,0.7,2*39::$GPGSA,A,1,,,,,,,,,,,,,1.1,0.8,0.7,1*22::$GAGSV,1,1,0,*74::$GLGSV,3,3,10,71,39,319,32,72,01,286,14*6F::$GBGSV,1,1,0,*77::$PQGSV,1,1,0,*73",4362,2019-12-01 11:50:56:843
-3.991226,2.835495,8.386841,-6.330263,3.085528,6.824784,2.085502,-0.105367,1.171189,0.17305,1.511673,-0.749527,787.0,35.64,-30.4642,-12.4924,225.3608,-18.3389,42.8472,8.0,947.1538,41.09073,36.048283,-115.131256,604.0,NaN,0.016176187,0.0,4.288,,17 / 23,"$GPVTG,,T,,M,0.0,N,0.0,K,A*23::$GPGSV,3,3,12,25,12,064,18,31,69,119,28,32,36,052,22,26,07,150,*7F::$GNVTG,,T,,M,0.0,N,0.0,K,A*3D::$GNRMC,195057.00,A,3602.897095,N,11507.875586,W,0.0,,011219,12.3,E,A*2C::$GPRMC,195011.00,A,3602.899063,N,11507.864996,W,0.0,,011219,12.3,E,A*3A::$GPGGA,195011.00,3602.899063,N,11507.864996,W,1,00,0.8,621.0,M,-18.0,M,,*5E::$GNGGA,195057.00,3602.897095,N,11507.875586,W,1,12,0.7,622.0,M,-18.0,M,,*47::$GNGSA,A,3,69,70,71,79,80,85,87,,,,,,1.0,0.7,0.7,2*39::$GPGSA,A,1,,,,,,,,,,,,,1.1,0.8,0.7,1*22::$GAGSV,1,1,0,*74::$GLGSV,3,3,10,71,39,319,32,72,01,286,14*6F::$GBGSV,1,1,0,*77::$PQGSV,1,1,0,*73",4461,2019-12-01 11:50:56:942
-3.629913,3.393021,9.487549,-6.635717,2.707408,6.693847,2.980577,0.541316,2.475893,1.185883,-0.38443,-1.733002,787.0,38.5681,-27.0218,-11.7752,227.1459,-16.4268,45.193,8.0,947.1538,41.552,36.048283,-115.131256,604.0,NaN,0.016176187,0.0,4.288,,17 / 23,"$GPVTG,,T,,M,0.0,N,0.0,K,A*23::$GPGSV,3,3,12,25,12,064,18,31,69,119,28,32,36,052,22,26,07,150,*7F::$GNVTG,,T,,M,0.0,N,0.0,K,A*3D::$GNRMC,195057.00,A,3602.897095,N,11507.875586,W,0.0,,011219,12.3,E,A*2C::$GPRMC,195011.00,A,3602.899063,N,11507.864996,W,0.0,,011219,12.3,E,A*3A::$GPGGA,195011.00,3602.899063,N,11507.864996,W,1,00,0.8,621.0,M,-18.0,M,,*5E::$GNGGA,195057.00,3602.897095,N,11507.875586,W,1,12,0.7,622.0,M,-18.0,M,,*47::$GNGSA,A,3,69,70,71,79,80,85,87,,,,,,1.0,0.7,0.7,2*39::$GPGSA,A,1,,,,,,,,,,,,,1.1,0.8,0.7,1*22::$GAGSV,1,1,0,*74::$GLGSV,3,3,10,71,39,319,32,72,01,286,14*6F::$GBGSV,1,1,0,*77::$PQGSV,1,1,0,*73",4561,2019-12-01 11:50:57:042
-6.71904,2.177475,7.479965,-7.388805,1.825003,6.184279,0.879371,0.57378,1.374421,-0.112808,1.439591,-1.851517,849.0,42.9855,-20.8511,-9.5993,236.2795,-10.7252,50.0714,8.0,947.1609,41.552,36.04829,-115.131256,605.0,NaN,-0.043771025,0.0,4.288,,17 / 23,"$GPVTG,,T,,M,0.0,N,0.0,K,A*23::$GPGSV,3,3,12,25,12,064,20,31,69,119,28,32,36,052,25,26,07,150,*73::$GNVTG,,T,,M,0.0,N,0.0,K,A*3D::$GNRMC,195057.00,A,3602.897095,N,11507.875586,W,0.0,,011219,12.3,E,A*2C::$GPRMC,195011.00,A,3602.899063,N,11507.864996,W,0.0,,011219,12.3,E,A*3A::$GPGGA,195011.00,3602.899063,N,11507.864996,W,1,00,0.8,621.0,M,-18.0,M,,*5E::$GNGGA,195057.00,3602.897095,N,11507.875586,W,1,12,0.7,622.0,M,-18.0,M,,*47::$GNGSA,A,3,69,70,71,79,80,85,87,,,,,,1.0,0.7,0.7,2*39::$GPGSA,A,1,,,,,,,,,,,,,1.1,0.8,0.7,1*22::$GAGSV,1,1,0,*74::$GLGSV,3,1,10,70,49,037,18,86,32,282,30,73,28,158,19,80,47,077,19*6C::$GBGSV,1,1,0,*77::$PQGSV,1,1,0,*73",4661,2019-12-01 11:50:57:142
-6.491729,1.610367,6.467804,-8.22176,1.088767,5.23332,1.699979,0.500323,1.265348,0.777817,0.796967,-0.689651,849.0,46.6461,-16.7389,-3.743,242.2623,-6.7075,56.0164,8.0,947.1494,41.552,36.04829,-115.131256,605.0,NaN,0.05328614,0.0,4.288,,17 / 23,"$GPVTG,,T,,M,0.0,N,0.0,K,A*23::$GPGSV,3,3,12,25,12,064,20,31,69,119,28,32,36,052,25,26,07,150,*73::$GNVTG,,T,,M,0.0,N,0.0,K,A*3D::$GNRMC,195058.00,A,3602.897410,N,11507.875584,W,0.0,,011219,12.3,E,A*28::$GPRMC,195011.00,A,3602.899063,N,11507.864996,W,0.0,,011219,12.3,E,A*3A::$GPGGA,195011.00,3602.899063,N,11507.864996,W,1,00,0.8,621.0,M,-18.0,M,,*5E::$GNGGA,195058.00,3602.897410,N,11507.875584,W,1,12,0.7,623.0,M,-18.0,M,,*42::$GNGSA,A,3,69,70,71,79,80,85,87,,,,,,1.0,0.7,0.7,2*39::$GPGSA,A,1,,,,,,,,,,,,,1.1,0.8,0.7,1*22::$GAGSV,1,1,0,*74::$GLGSV,3,3,10,71,39,319,32,72,01,286,14*6F::$GBGSV,1,1,0,*77::$PQGSV,1,1,0,*73",4761,2019-12-01 11:50:57:242
-6.675979,1.660614,5.065613,-8.572774,0.932404,4.669964,1.407115,0.658295,0.661521,0.899979,0.51474,-0.591919,824.0,48.8632,-13.3209,-1.5549,248.5178,-5.5298,60.789,8.0,947.1494,30.28674,36.04829,-115.131256,605.0,NaN,0.05328614,0.0,4.288,,17 / 23,"$GPVTG,,T,,M,0.0,N,0.0,K,A*23::$GPGSV,3,3,12,25,12,064,20,31,69,119,28,32,36,052,25,26,07,150,*73::$GNVTG,,T,,M,0.0,N,0.0,K,A*3D::$GNRMC,195058.00,A,3602.897410,N,11507.875584,W,0.0,,011219,12.3,E,A*28::$GPRMC,195011.00,A,3602.899063,N,11507.864996,W,0.0,,011219,12.3,E,A*3A::$GPGGA,195011.00,3602.899063,N,11507.864996,W,1,00,0.8,621.0,M,-18.0,M,,*5E::$GNGGA,195058.00,3602.897410,N,11507.875584,W,1,12,0.7,623.0,M,-18.0,M,,*42::$GNGSA,A,3,69,70,71,79,80,85,87,,,,,,1.0,0.7,0.7,2*39::$GPGSA,A,1,,,,,,,,,,,,,1.1,0.8,0.7,1*22::$GAGSV,1,1,0,*74::$GLGSV,3,3,10,71,39,319,32,72,01,286,14*6F::$GBGSV,1,1,0,*77::$PQGSV,1,1,0,*73",4861,2019-12-01 11:50:57:342
-6.776474,1.495514,5.469986,-8.671559,0.812308,4.507174,1.508858,0.738267,0.946374,0.976959,-0.059463,-0.435532,824.0,51.0681,-10.5835,2.1072,254.6708,-4.6548,62.3135,8.0,947.1463,30.28674,36.04829,-115.131256,605.0,NaN,0.079929076,0.0,4.288,,17 / 23,"$GPVTG,,T,,M,0.0,N,0.0,K,A*23::$GPGSV,3,3,12,25,12,064,20,31,69,119,28,32,36,052,25,26,07,150,*73::$GNVTG,,T,,M,0.0,N,0.0,K,A*3D::$GNRMC,195058.00,A,3602.897410,N,11507.875584,W,0.0,,011219,12.3,E,A*28::$GPRMC,195011.00,A,3602.899063,N,11507.864996,W,0.0,,011219,12.3,E,A*3A::$GPGGA,195011.00,3602.899063,N,11507.864996,W,1,00,0.8,621.0,M,-18.0,M,,*5E::$GNGGA,195058.00,3602.897410,N,11507.875584,W,1,12,0.7,623.0,M,-18.0,M,,*42::$GNGSA,A,3,69,70,71,79,80,85,87,,,,,,1.0,0.7,0.7,2*39::$GPGSA,A,1,,,,,,,,,,,,,1.1,0.8,0.7,1*22::$GAGSV,1,1,0,*74::$GLGSV,3,3,10,71,39,319,32,72,01,286,14*6F::$GBGSV,1,1,0,*77::$PQGSV,1,1,0,*73",4961,2019-12-01 11:50:57:442
-5.860016,0.468994,4.601395,-8.48863,0.447746,4.890101,2.743254,-0.063968,-0.142225,0.854767,-0.396652,-1.340836,641.0,50.4654,-5.867,2.0798,262.2647,-3.2299,60.3232,8.0,947.1348,30.28674,36.04829,-115.131256,605.0,NaN,0.17698474,0.0,4.288,,17 / 23,"$GPVTG,,T,,M,0.0,N,0.0,K,A*23::$GPGSV,3,3,12,25,12,064,20,31,69,119,28,32,36,052,25,26,07,150,*73::$GNVTG,,T,,M,0.0,N,0.0,K,A*3D::$GNRMC,195058.00,A,3602.897410,N,11507.875584,W,0.0,,011219,12.3,E,A*28::$GPRMC,195011.00,A,3602.899063,N,11507.864996,W,0.0,,011219,12.3,E,A*3A::$GPGGA,195011.00,3602.899063,N,11507.864996,W,1,00,0.8,621.0,M,-18.0,M,,*5E::$GNGGA,195058.00,3602.897410,N,11507.875584,W,1,12,0.7,623.0,M,-18.0,M,,*42::$GNGSA,A,3,69,70,71,79,80,85,87,,,,,,1.0,0.7,0.7,2*39::$GPGSA,A,1,,,,,,,,,,,,,1.1,0.8,0.7,1*22::$GAGSV,1,1,0,*74::$GLGSV,3,3,10,71,39,319,32,72,01,286,14*6F::$GBGSV,1,1,0,*77::$PQGSV,1,1,0,*73",5060,2019-12-01 11:50:57:541
-3.294922,-0.215347,5.83609,-8.109238,0.135446,5.51292,4.577008,-0.336781,0.562778,1.527954,-0.835251,-1.064728,641.0,48.439,-1.1688,-0.148,269.0518,-0.7954,56.5729,8.0,947.1348,30.90006,36.04829,-115.131256,605.0,NaN,0.17698474,0.0,4.288,,17 / 23,"$GPVTG,,T,,M,0.0,N,0.0,K,A*23::$GPGSV,3,3,12,25,12,064,20,31,69,119,28,32,36,052,25,26,07,150,*73::$GNVTG,,T,,M,0.0,N,0.0,K,A*3D::$GNRMC,195058.00,A,3602.897410,N,11507.875584,W,0.0,,011219,12.3,E,A*28::$GPRMC,195011.00,A,3602.899063,N,11507.864996,W,0.0,,011219,12.3,E,A*3A::$GPGGA,195011.00,3602.899063,N,11507.864996,W,1,00,0.8,621.0,M,-18.0,M,,*5E::$GNGGA,195058.00,3602.897410,N,11507.875584,W,1,12,0.7,623.0,M,-18.0,M,,*42::$GNGSA,A,3,69,70,71,79,80,85,87,,,,,,1.0,0.7,0.7,2*39::$GPGSA,A,1,,,,,,,,,,,,,1.1,0.8,0.7,1*22::$GAGSV,1,1,0,*74::$GLGSV,3,3,10,71,39,319,32,72,01,286,14*6F::$GBGSV,1,1,0,*77::$PQGSV,1,1,0,*73",5161,2019-12-01 11:50:57:642
-5.520248,0.722626,4.864609,-7.576183,-0.059438,6.226421,1.691171,0.748445,-1.316824,0.941513,-1.063705,-1.205231,534.0,49.2432,2.9297,-6.0486,275.9243,0.3473,50.5852,8.0,947.1182,30.90006,36.04829,-115.131256,605.0,NaN,0.31590548,0.0,4.288,,17 / 23,"$GPVTG,,T,,M,0.0,N,0.0,K,A*23::$GPGSV,3,3,12,25,12,064,20,31,69,119,28,32,36,052,25,26,07,150,*73::$GNVTG,,T,,M,0.0,N,0.0,K,A*3D::$GNRMC,195058.00,A,3602.897410,N,11507.875584,W,0.0,,011219,12.3,E,A*28::$GPRMC,195011.00,A,3602.899063,N,11507.864996,W,0.0,,011219,12.3,E,A*3A::$GPGGA,195011.00,3602.899063,N,11507.864996,W,1,00,0.8,621.0,M,-18.0,M,,*5E::$GNGGA,195058.00,3602.897410,N,11507.875584,W,1,12,0.7,623.0,M,-18.0,M,,*42::$GNGSA,A,3,69,70,71,79,80,85,87,,,,,,1.0,0.7,0.7,2*39::$GPGSA,A,1,,,,,,,,,,,,,1.1,0.8,0.7,1*22::$GAGSV,1,1,0,*74::$GLGSV,3,3,10,71,39,319,32,72,01,286,14*6F::$GBGSV,1,1,0,*77::$PQGSV,1,1,0,*73",5260,2019-12-01 11:50:57:741
-2.974274,-0.239288,6.939179,-6.655973,-0.216345,7.198723,3.508658,-0.038446,-0.085971,1.19809,-1.297058,-1.472778,534.0,45.0638,6.9168,-11.2167,282.056,1.2103,44.1111,8.0,947.1133,30.90006,36.04829,-115.131256,605.0,NaN,0.35777155,0.0,4.288,,17 / 23,"$GPVTG,,T,,M,0.0,N,0.0,K,A*23::$GPGSV,3,3,12,25,12,064,20,31,69,119,28,32,36,052,25,26,07,150,*73::$GNVTG,,T,,M,0.0,N,0.0,K,A*3D::$GNRMC,195058.00,A,3602.897410,N,11507.875584,W,0.0,,011219,12.3,E,A*28::$GPRMC,195011.00,A,3602.899063,N,11507.864996,W,0.0,,011219,12.3,E,A*3A::$GPGGA,195011.00,3602.899063,N,11507.864996,W,1,00,0.8,621.0,M,-18.0,M,,*5E::$GNGGA,195058.00,3602.897410,N,11507.875584,W,1,12,0.7,623.0,M,-18.0,M,,*42::$GNGSA,A,3,69,70,71,79,80,85,87,,,,,,1.0,0.7,0.7,2*39::$GPGSA,A,1,,,,,,,,,,,,,1.1,0.8,0.7,1*22::$GAGSV,1,1,0,*74::$GLGSV,3,3,10,71,39,319,32,72,01,286,14*6F::$GBGSV,1,1,0,*77::$PQGSV,1,1,0,*73",5362,2019-12-01 11:50:57:843
-4.031906,0.212967,8.561523,-5.367193,-0.095387,8.20698,1.13715,0.293487,0.53506,1.030716,-1.711212,-1.090378,426.0,43.0054,10.2783,-17.1112,289.849,0.5573,33.1838,8.0,947.1133,30.90006,36.04829,-115.131256,605.0,NaN,0.35777155,0.0,4.288,,17 / 23,"$GPVTG,,T,,M,0.0,N,0.0,K,A*23::$GPGSV,3,3,12,25,12,064,20,31,69,119,28,32,36,052,25,26,07,150,*73::$GNVTG,,T,,M,0.0,N,0.0,K,A*3D::$GNRMC,195058.00,A,3602.897410,N,11507.875584,W,0.0,,011219,12.3,E,A*28::$GPRMC,195011.00,A,3602.899063,N,11507.864996,W,0.0,,011219,12.3,E,A*3A::$GPGGA,195011.00,3602.899063,N,11507.864996,W,1,00,0.8,621.0,M,-18.0,M,,*5E::$GNGGA,195058.00,3602.897410,N,11507.875584,W,1,12,0.7,623.0,M,-18.0,M,,*42::$GNGSA,A,3,69,70,71,79,80,85,87,,,,,,1.0,0.7,0.7,2*39::$GPGSA,A,1,,,,,,,,,,,,,1.1,0.8,0.7,1*22::$GAGSV,1,1,0,*74::$GLGSV,3,3,10,71,39,319,32,72,01,286,14*6F::$GBGSV,1,1,0,*77::$PQGSV,1,1,0,*73",5461,2019-12-01 11:50:57:942
-2.854645,1.306488,10.236496,-3.743409,0.408732,9.054845,0.49849,0.74041,1.39461,1.121109,-1.857834,-0.755615,426.0,36.6379,12.2055,-25.943,302.4231,-1.7658,24.3179,8.0,947.1166,33.03804,36.04829,-115.131256,605.0,NaN,0.33017802,0.0,4.288,,17 / 23,"$GPVTG,,T,,M,0.0,N,0.0,K,A*23::$GPGSV,3,3,12,25,12,064,20,31,69,119,28,32,36,052,25,26,07,150,*73::$GNVTG,,T,,M,0.0,N,0.0,K,A*3D::$GNRMC,195058.00,A,3602.897410,N,11507.875584,W,0.0,,011219,12.3,E,A*28::$GPRMC,195011.00,A,3602.899063,N,11507.864996,W,0.0,,011219,12.3,E,A*3A::$GPGGA,195011.00,3602.899063,N,11507.864996,W,1,00,0.8,621.0,M,-18.0,M,,*5E::$GNGGA,195058.00,3602.897410,N,11507.875584,W,1,12,0.7,623.0,M,-18.0,M,,*42::$GNGSA,A,3,69,70,71,79,80,85,87,,,,,,1.0,0.7,0.7,2*39::$GPGSA,A,1,,,,,,,,,,,,,1.1,0.8,0.7,1*22::$GAGSV,1,1,0,*74::$GLGSV,3,3,10,71,39,319,32,72,01,286,14*6F::$GBGSV,1,1,0,*77::$PQGSV,1,1,0,*73",5560,2019-12-01 11:50:58:041
-0.117249,1.284943,11.801407,-2.230494,0.811049,9.515119,1.819067,0.543128,2.396778,0.487045,-1.753982,-1.284622,426.0,29.5105,12.0834,-34.0271,305.436,-4.744,13.1928,8.0,947.1166,33.03804,36.04829,-115.131256,605.0,NaN,0.33017802,0.0,4.288,,17 / 23,"$GPVTG,,T,,M,0.0,N,0.0,K,A*23::$GPGSV,3,3,12,25,12,064,20,31,69,119,28,32,36,052,25,26,07,150,*73::$GNVTG,,T,,M,0.0,N,0.0,K,A*3D::$GNRMC,195058.00,A,3602.897410,N,11507.875584,W,0.0,,011219,12.3,E,A*28::$GPRMC,195011.00,A,3602.899063,N,11507.864996,W,0.0,,011219,12.3,E,A*3A::$GPGGA,195011.00,3602.899063,N,11507.864996,W,1,00,0.8,621.0,M,-18.0,M,,*5E::$GNGGA,195058.00,3602.897410,N,11507.875584,W,1,12,0.7,623.0,M,-18.0,M,,*42::$GNGSA,A,3,69,70,71,79,80,85,87,,,,,,1.0,0.7,0.7,2*39::$GPGSA,A,1,,,,,,,,,,,,,1.1,0.8,0.7,1*22::$GAGSV,1,1,0,*74::$GLGSV,3,3,10,71,39,319,32,72,01,286,14*6F::$GBGSV,1,1,0,*77::$PQGSV,1,1,0,*73",5660,2019-12-01 11:50:58:141
-1.301697,0.26799,12.952347,-0.441322,1.01373,9.744125,-0.796476,-0.760763,3.378876,0.124191,-1.388687,-1.465454,379.0,18.8736,13.8901,-38.4521,314.853,-5.8454,6.0151,8.0,947.1248,33.03804,36.048294,-115.131256,605.0,NaN,0.26071808,0.0,4.288,,17 / 23,"$GPVTG,,T,,M,0.0,N,0.0,K,A*23::$GPGSV,3,3,12,25,12,064,17,31,69,119,29,32,36,052,23,26,07,150,*70::$GNVTG,,T,,M,0.0,N,0.0,K,A*3D::$GNRMC,195059.00,A,3602.897725,N,11507.875584,W,0.0,,011219,12.3,E,A*2C::$GPRMC,195011.00,A,3602.899063,N,11507.864996,W,0.0,,011219,12.3,E,A*3A::$GPGGA,195011.00,3602.899063,N,11507.864996,W,1,00,0.8,621.0,M,-18.0,M,,*5E::$GNGGA,195059.00,3602.897725,N,11507.875584,W,1,12,0.7,623.0,M,-18.0,M,,*46::$GNGSA,A,3,69,70,71,79,80,85,87,,,,,,1.0,0.7,0.7,2*39::$GPGSA,A,1,,,,,,,,,,,,,1.1,0.8,0.7,1*22::$GAGSV,1,1,0,*74::$GLGSV,3,3,10,71,39,319,31,72,01,286,14*6C::$GBGSV,1,1,0,*77::$PQGSV,1,1,0,*73",5760,2019-12-01 11:50:58:241
-0.031113,1.610367,12.119644,0.452328,1.769558,9.635064,-0.550642,-0.209543,2.685497,1.581696,-1.642807,-0.700638,379.0,13.1744,13.7756,-41.394,324.6929,-10.3957,-2.6878,8.0,947.1246,30.83347,36.048294,-115.131256,605.0,NaN,0.2626211,0.0,4.288,,17 / 23,"$GPVTG,,T,,M,0.0,N,0.0,K,A*23::$GPGSV,3,3,12,25,12,064,17,31,69,119,29,32,36,052,23,26,07,150,*70::$GNVTG,,T,,M,0.0,N,0.0,K,A*3D::$GNRMC,195059.00,A,3602.897725,N,11507.875584,W,0.0,,011219,12.3,E,A*2C::$GPRMC,195011.00,A,3602.899063,N,11507.864996,W,0.0,,011219,12.3,E,A*3A::$GPGGA,195011.00,3602.899063,N,11507.864996,W,1,00,0.8,621.0,M,-18.0,M,,*5E::$GNGGA,195059.00,3602.897725,N,11507.875584,W,1,12,0.7,623.0,M,-18.0,M,,*46::$GNGSA,A,3,69,70,71,79,80,85,87,,,,,,1.0,0.7,0.7,2*39::$GPGSA,A,1,,,,,,,,,,,,,1.1,0.8,0.7,1*22::$GAGSV,1,1,0,*74::$GLGSV,3,3,10,71,39,319,31,72,01,286,14*6C::$GBGSV,1,1,0,*77::$PQGSV,1,1,0,*73",5860,2019-12-01 11:50:58:341
-0.648453,3.651444,11.380264,1.539248,3.416269,9.062572,-2.065312,0.172039,2.560576,2.111939,-1.07959,-0.007935,381.0,7.2845,5.5496,-45.0287,325.7881,-16.7334,-7.7228,8.0,947.1246,30.83347,36.048294,-115.131256,605.0,NaN,0.2626211,0.0,4.288,,17 / 23,"$GPVTG,,T,,M,0.0,N,0.0,K,A*23::$GPGSV,3,3,12,25,12,064,17,31,69,119,29,32,36,052,23,26,07,150,*70::$GNVTG,,T,,M,0.0,N,0.0,K,A*3D::$GNRMC,195059.00,A,3602.897725,N,11507.875584,W,0.0,,011219,12.3,E,A*2C::$GPRMC,195011.00,A,3602.899063,N,11507.864996,W,0.0,,011219,12.3,E,A*3A::$GPGGA,195011.00,3602.899063,N,11507.864996,W,1,00,0.8,621.0,M,-18.0,M,,*5E::$GNGGA,195059.00,3602.897725,N,11507.875584,W,1,12,0.7,623.0,M,-18.0,M,,*46::$GNGSA,A,3,69,70,71,79,80,85,87,,,,,,1.0,0.7,0.7,2*39::$GPGSA,A,1,,,,,,,,,,,,,1.1,0.8,0.7,1*22::$GAGSV,1,1,0,*74::$GLGSV,3,3,10,71,39,319,31,72,01,286,14*6C::$GBGSV,1,1,0,*77::$PQGSV,1,1,0,*73",5960,2019-12-01 11:50:58:441
1.215561,6.108872,9.958923,2.314855,5.056087,8.077612,-1.432479,0.743724,2.210639,1.926239,-0.434509,0.45874,381.0,2.0905,-3.3539,-44.986,323.6367,-31.036,-15.9911,8.0,947.1312,30.83347,36.048294,-115.131256,605.0,NaN,0.20648181,0.0,4.288,,17 / 23,"$GPVTG,,T,,M,0.0,N,0.0,K,A*23::$GPGSV,3,3,12,25,12,064,17,31,69,119,29,32,36,052,23,26,07,150,*70::$GNVTG,,T,,M,0.0,N,0.0,K,A*3D::$GNRMC,195059.00,A,3602.897725,N,11507.875584,W,0.0,,011219,12.3,E,A*2C::$GPRMC,195011.00,A,3602.899063,N,11507.864996,W,0.0,,011219,12.3,E,A*3A::$GPGGA,195011.00,3602.899063,N,11507.864996,W,1,00,0.8,621.0,M,-18.0,M,,*5E::$GNGGA,195059.00,3602.897725,N,11507.875584,W,1,12,0.7,623.0,M,-18.0,M,,*46::$GNGSA,A,3,69,70,71,79,80,85,87,,,,,,1.0,0.7,0.7,2*39::$GPGSA,A,1,,,,,,,,,,,,,1.1,0.8,0.7,1*22::$GAGSV,1,1,0,*74::$GLGSV,3,3,10,71,39,319,31,72,01,286,14*6C::$GBGSV,1,1,0,*77::$PQGSV,1,1,0,*73",6060,2019-12-01 11:50:58:541
2.971893,7.544571,8.322235,2.937463,6.377236,6.846355,-0.854054,0.99744,1.531209,1.407013,0.128677,0.690872,374.0,0.4257,-13.5361,-43.4616,315.6305,-38.0731,-20.9726,8.0,947.1494,32.22046,36.048294,-115.131256,605.0,NaN,0.05328614,0.0,4.288,,17 / 23,"$GPVTG,,T,,M,0.0,N,0.0,K,A*23::$GPGSV,3,3,12,25,12,064,17,31,69,119,29,32,36,052,23,26,07,150,*70::$GNVTG,,T,,M,0.0,N,0.0,K,A*3D::$GNRMC,195059.00,A,3602.897725,N,11507.875584,W,0.0,,011219,12.3,E,A*2C::$GPRMC,195011.00,A,3602.899063,N,11507.864996,W,0.0,,011219,12.3,E,A*3A::$GPGGA,195011.00,3602.899063,N,11507.864996,W,1,00,0.8,621.0,M,-18.0,M,,*5E::$GNGGA,195059.00,3602.897725,N,11507.875584,W,1,12,0.7,623.0,M,-18.0,M,,*46::$GNGSA,A,3,69,70,71,79,80,85,87,,,,,,1.0,0.7,0.7,2*39::$GPGSA,A,1,,,,,,,,,,,,,1.1,0.8,0.7,1*22::$GAGSV,1,1,0,*74::$GLGSV,3,3,10,71,39,319,31,72,01,286,14*6C::$GBGSV,1,1,0,*77::$PQGSV,1,1,0,*73",6161,2019-12-01 11:50:58:642
3.046066,8.949158,6.407974,3.332395,7.329972,5.597952,-0.683549,1.324217,0.75068,1.17244,-0.474838,-0.023819,374.0,0.267,-20.3033,-42.691,303.1341,-47.4983,-29.8696,8.0,947.1494,32.22046,36.048294,-115.131256,605.0,NaN,0.05328614,0.0,4.288,,17 / 23,"$GPVTG,,T,,M,0.0,N,0.0,K,A*23::$GPGSV,3,3,12,25,12,064,17,31,69,119,29,32,36,052,23,26,07,150,*70::$GNVTG,,T,,M,0.0,N,0.0,K,A*3D::$GNRMC,195059.00,A,3602.897725,N,11507.875584,W,0.0,,011219,12.3,E,A*2C::$GPRMC,195011.00,A,3602.899063,N,11507.864996,W,0.0,,011219,12.3,E,A*3A::$GPGGA,195011.00,3602.899063,N,11507.864996,W,1,00,0.8,621.0,M,-18.0,M,,*5E::$GNGGA,195059.00,3602.897725,N,11507.875584,W,1,12,0.7,623.0,M,-18.0,M,,*46::$GNGSA,A,3,69,70,71,79,80,85,87,,,,,,1.0,0.7,0.7,2*39::$GPGSA,A,1,,,,,,,,,,,,,1.1,0.8,0.7,1*22::$GAGSV,1,1,0,*74::$GLGSV,3,3,10,71,39,319,31,72,01,286,14*6C::$GBGSV,1,1,0,*77::$PQGSV,1,1,0,*73",6261,2019-12-01 11:50:58:742
1.194016,6.431916,5.919846,3.304672,8.013511,4.586194,-2.296878,-1.720277,1.823993,1.90181,-0.457718,0.139893,376.0,-2.7084,-25.7935,-38.9908,303.0425,-51.7851,-32.4037,8.0,947.156,32.22046,36.048294,-115.131256,605.0,NaN,-0.0019030831,0.0,4.288,,17 / 23,"$GPVTG,,T,,M,0.0,N,0.0,K,A*23::$GPGSV,3,3,12,25,12,064,17,31,69,119,29,32,36,052,23,26,07,150,*70::$GNVTG,,T,,M,0.0,N,0.0,K,A*3D::$GNRMC,195059.00,A,3602.897725,N,11507.875584,W,0.0,,011219,12.3,E,A*2C::$GPRMC,195011.00,A,3602.899063,N,11507.864996,W,0.0,,011219,12.3,E,A*3A::$GPGGA,195011.00,3602.899063,N,11507.864996,W,1,00,0.8,621.0,M,-18.0,M,,*5E::$GNGGA,195059.00,3602.897725,N,11507.875584,W,1,12,0.7,623.0,M,-18.0,M,,*46::$GNGSA,A,3,69,70,71,79,80,85,87,,,,,,1.0,0.7,0.7,2*39::$GPGSA,A,1,,,,,,,,,,,,,1.1,0.8,0.7,1*22::$GAGSV,1,1,0,*74::$GLGSV,3,3,10,71,39,319,31,72,01,286,14*6C::$GBGSV,1,1,0,*77::$PQGSV,1,1,0,*73",6361,2019-12-01 11:50:58:842
2.026718,6.077774,5.54657,3.683228,8.319633,3.658951,-1.931522,-2.23006,1.946558,1.449753,0.688217,1.371384,376.0,-4.2725,-31.9351,-34.552,288.9827,-57.9298,-42.598,8.0,947.1593,37.73309,36.048294,-115.131256,605.0,NaN,-0.02997361,0.0,4.288,,17 / 23,"$GPVTG,,T,,M,0.0,N,0.0,K,A*23::$GPGSV,3,3,12,25,12,064,17,31,69,119,29,32,36,052,23,26,07,150,*70::$GNVTG,,T,,M,0.0,N,0.0,K,A*3D::$GNRMC,195059.00,A,3602.897725,N,11507.875584,W,0.0,,011219,12.3,E,A*2C::$GPRMC,195011.00,A,3602.899063,N,11507.864996,W,0.0,,011219,12.3,E,A*3A::$GPGGA,195011.00,3602.899063,N,11507.864996,W,1,00,0.8,621.0,M,-18.0,M,,*5E::$GNGGA,195059.00,3602.897725,N,11507.875584,W,1,12,0.7,623.0,M,-18.0,M,,*46::$GNGSA,A,3,69,70,71,79,80,85,87,,,,,,1.0,0.7,0.7,2*39::$GPGSA,A,1,,,,,,,,,,,,,1.1,0.8,0.7,1*22::$GAGSV,1,1,0,*74::$GLGSV,3,3,10,71,39,319,31,72,01,286,14*6C::$GBGSV,1,1,0,*77::$PQGSV,1,1,0,*73",6461,2019-12-01 11:50:58:942
